[{"city": "V\u00e5rd\u00f6", "latitude": 60.25, "longitude": 20.38333, "state": "\u00c5lands sk\u00e4rg\u00e5rd"}, {"city": "Sund", "latitude": 60.25, "longitude": 20.11667, "state": "\u00c5lands landsbygd"}, {"city": "Sottunga", "latitude": 60.13023, "longitude": 20.66683, "state": "\u00c5lands sk\u00e4rg\u00e5rd"}, {"city": "Saltvik", "latitude": 60.28333, "longitude": 20.05, "state": "\u00c5lands landsbygd"}, {"city": "Lumparland", "latitude": 60.11695, "longitude": 20.25819, "state": "\u00c5lands landsbygd"}, {"city": "Lemland", "latitude": 60.07178, "longitude": 20.08472, "state": "\u00c5lands landsbygd"}, {"city": "Kumlinge", "latitude": 60.26013, "longitude": 20.77892, "state": "\u00c5lands sk\u00e4rg\u00e5rd"}, {"city": "K\u00f6kar", "latitude": 59.92051, "longitude": 20.90883, "state": "\u00c5lands sk\u00e4rg\u00e5rd"}, {"city": "F\u00f6gl\u00f6", "latitude": 60.01392, "longitude": 20.41377, "state": "\u00c5lands sk\u00e4rg\u00e5rd"}, {"city": "Br\u00e4nd\u00f6", "latitude": 60.41165, "longitude": 21.04534, "state": "\u00c5lands sk\u00e4rg\u00e5rd"}, {"city": "Mariehamn", "latitude": 60.09726, "longitude": 19.93481, "state": "Mariehamns stad"}, {"city": "Jomala", "latitude": 60.14902, "longitude": 19.951, "state": "\u00c5lands landsbygd"}, {"city": "Hammarland", "latitude": 60.21667, "longitude": 19.75, "state": "\u00c5lands landsbygd"}, {"city": "Geta", "latitude": 60.37453, "longitude": 19.84455, "state": "\u00c5lands landsbygd"}, {"city": "Finstr\u00f6m", "latitude": 60.26667, "longitude": 19.93333, "state": "\u00c5lands landsbygd"}, {"city": "Ecker\u00f6", "latitude": 60.21249, "longitude": 19.61442, "state": "\u00c5lands landsbygd"}]