[{"city": "Zongga", "latitude": 29.0, "longitude": 85.25, "state": "Tibet"}, {"city": "Zito", "latitude": 30.73893, "longitude": 95.83613, "state": "Tibet"}, {"city": "Zhowagoin", "latitude": 28.6591, "longitude": 97.45065, "state": "Tibet"}, {"city": "Zhefang", "latitude": 24.26667, "longitude": 98.28333, "state": "Yunnan"}, {"city": "Zhedao", "latitude": 24.81934, "longitude": 98.27627, "state": "Yunnan"}, {"city": "Zhangfeng", "latitude": 24.19064, "longitude": 97.80191, "state": "Yunnan"}, {"city": "Zhamog", "latitude": 29.86653, "longitude": 95.75903, "state": "Tibet"}, {"city": "Zhadong", "latitude": 29.65, "longitude": 84.16667, "state": "Tibet"}, {"city": "Zepu", "latitude": 38.18867, "longitude": 77.27075, "state": "Xinjiang"}, {"city": "Zangguy", "latitude": 37.28333, "longitude": 78.76667, "state": "Xinjiang"}, {"city": "Zaindainxoi", "latitude": 31.85, "longitude": 93.66667, "state": "Tibet"}, {"city": "Zibihu", "latitude": 26.1143, "longitude": 99.95267, "state": "Yunnan"}, {"city": "Yopurga", "latitude": 39.23938, "longitude": 76.76432, "state": "Xinjiang"}, {"city": "Yingpan", "latitude": 26.45, "longitude": 99.15, "state": "Yunnan"}, {"city": "Yeniugou", "latitude": 38.42731, "longitude": 99.51866, "state": "Qinghai"}, {"city": "Yanduo", "latitude": 30.65722, "longitude": 97.5731, "state": "Tibet"}, {"city": "Qaghiliq", "latitude": 37.88256, "longitude": 77.41255, "state": "Xinjiang"}, {"city": "Xuelin", "latitude": 23.02268, "longitude": 99.558, "state": "Yunnan"}, {"city": "Xireg", "latitude": 36.91866, "longitude": 98.44463, "state": "Qinghai"}, {"city": "Xinyuan", "latitude": 37.3, "longitude": 99.0, "state": "Qinghai"}, {"city": "Rikaze", "latitude": 29.25, "longitude": 88.88333, "state": "Tibet"}, {"city": "X\u00eagar", "latitude": 28.63333, "longitude": 87.08333, "state": "Tibet"}, {"city": "Xarsingma", "latitude": 27.49402, "longitude": 88.95296, "state": "Tibet"}, {"city": "Xangda", "latitude": 32.20551, "longitude": 96.47809, "state": "Qinghai"}, {"city": "Wuqia", "latitude": 39.70979, "longitude": 75.19696, "state": "Xinjiang"}, {"city": "Wendong", "latitude": 23.16667, "longitude": 99.9, "state": "Yunnan"}, {"city": "Waxxari", "latitude": 38.68908, "longitude": 87.37218, "state": "Xinjiang"}, {"city": "Wangda", "latitude": 29.67445, "longitude": 97.83736, "state": "Tibet"}, {"city": "Tungdor", "latitude": 29.2, "longitude": 94.08333, "state": "Tibet"}, {"city": "Darya Boyi", "latitude": 38.38333, "longitude": 82.0, "state": "Xinjiang"}, {"city": "Toding", "latitude": 31.48056, "longitude": 79.79803, "state": "Tibet"}, {"city": "Tengyue", "latitude": 24.99492, "longitude": 98.51276, "state": "Yunnan"}, {"city": "Tashqorghan", "latitude": 37.76994, "longitude": 75.22453, "state": "Xinjiang"}, {"city": "Jiuquan", "latitude": 39.74318, "longitude": 98.51736, "state": "Gansu"}, {"city": "Songmai", "latitude": 28.71471, "longitude": 99.28633, "state": "Sichuan"}, {"city": "Shule", "latitude": 39.40231, "longitude": 76.0508, "state": "Xinjiang"}, {"city": "Shiquanhe", "latitude": 32.50124, "longitude": 80.09758, "state": "Tibet"}, {"city": "Shimen", "latitude": 25.88965, "longitude": 99.36868, "state": "Yunnan"}, {"city": "Shigu", "latitude": 26.86852, "longitude": 99.95628, "state": "Yunnan"}, {"city": "Dianyang", "latitude": 24.70261, "longitude": 99.15919, "state": "Yunnan"}, {"city": "Shengping", "latitude": 28.48563, "longitude": 98.91139, "state": "Yunnan"}, {"city": "Shangyun", "latitude": 23.05191, "longitude": 99.82838, "state": "Yunnan"}, {"city": "Shangpa", "latitude": 26.91948, "longitude": 98.95158, "state": "Yunnan"}, {"city": "Shache", "latitude": 38.41667, "longitude": 77.24056, "state": "Xinjiang"}, {"city": "Segong", "latitude": 32.21667, "longitude": 92.11667, "state": "Tibet"}, {"city": "Sajia", "latitude": 28.91667, "longitude": 88.05, "state": "Tibet"}, {"city": "Rutog", "latitude": 33.41844, "longitude": 79.63919, "state": "Tibet"}, {"city": "Ruoqiang", "latitude": 39.02003, "longitude": 88.16465, "state": "Xinjiang"}, {"city": "Ruidian", "latitude": 25.53171, "longitude": 98.40855, "state": "Yunnan"}, {"city": "Racaka", "latitude": 31.4, "longitude": 96.51667, "state": "Tibet"}, {"city": "Quxar", "latitude": 29.1, "longitude": 87.65, "state": "Tibet"}, {"city": "Qushi", "latitude": 25.21667, "longitude": 98.6, "state": "Yunnan"}, {"city": "Q\u00fcmong", "latitude": 32.97771, "longitude": 98.09795, "state": "Sichuan"}, {"city": "Qira", "latitude": 37.02847, "longitude": 80.80287, "state": "Xinjiang"}, {"city": "Qiemo", "latitude": 38.13407, "longitude": 85.52977, "state": "Xinjiang"}, {"city": "Qarek", "latitude": 38.37222, "longitude": 76.99028, "state": "Xinjiang"}, {"city": "Qiangqinxue", "latitude": 29.26667, "longitude": 89.9, "state": "Tibet"}, {"city": "Qamdo", "latitude": 31.1304, "longitude": 97.17982, "state": "Tibet"}, {"city": "Jiajuedibu", "latitude": 30.93333, "longitude": 88.63333, "state": "Tibet"}, {"city": "Qagan Us", "latitude": 36.39719, "longitude": 98.01222, "state": "Qinghai"}, {"city": "Pubu", "latitude": 31.39625, "longitude": 90.00958, "state": "Tibet"}, {"city": "Guma", "latitude": 37.6168, "longitude": 78.28087, "state": "Xinjiang"}, {"city": "Yingjiang", "latitude": 24.71022, "longitude": 97.93671, "state": "Yunnan"}, {"city": "Kequ", "latitude": 33.96865, "longitude": 99.90097, "state": "Qinghai"}, {"city": "Pagnag", "latitude": 32.26986, "longitude": 91.68101, "state": "Tibet"}, {"city": "Oytograk", "latitude": 36.83333, "longitude": 81.93333, "state": "Xinjiang"}, {"city": "Luobuqiongzi", "latitude": 29.16667, "longitude": 89.25, "state": "Tibet"}, {"city": "Ngamring", "latitude": 29.23333, "longitude": 87.16667, "state": "Tibet"}, {"city": "Geji", "latitude": 32.39545, "longitude": 81.13972, "state": "Tibet"}, {"city": "Nangxian", "latitude": 29.04701, "longitude": 93.08795, "state": "Tibet"}, {"city": "Namling", "latitude": 29.68527, "longitude": 89.09556, "state": "Tibet"}, {"city": "Nagqu", "latitude": 31.47678, "longitude": 92.05729, "state": "Tibet"}, {"city": "Qaraqash", "latitude": 37.27246, "longitude": 79.73438, "state": "Xinjiang"}, {"city": "Niya", "latitude": 37.06553, "longitude": 82.68933, "state": "Xinjiang"}, {"city": "Mengsuo", "latitude": 22.60199, "longitude": 99.55137, "state": "Yunnan"}, {"city": "Mengmeng", "latitude": 23.46502, "longitude": 99.80206, "state": "Yunnan"}, {"city": "Mengmao", "latitude": 24.00139, "longitude": 97.86499, "state": "Yunnan"}, {"city": "Menglang", "latitude": 22.56214, "longitude": 99.91029, "state": "Yunnan"}, {"city": "Mengdong", "latitude": 23.16152, "longitude": 99.20226, "state": "Yunnan"}, {"city": "Motuo", "latitude": 29.31329, "longitude": 95.30741, "state": "Tibet"}, {"city": "Mekit", "latitude": 38.89697, "longitude": 77.63911, "state": "Xinjiang"}, {"city": "Mangshi", "latitude": 24.45329, "longitude": 98.57037, "state": "Yunnan"}, {"city": "Mangnai Zhen", "latitude": 38.38554, "longitude": 90.15553, "state": "Qinghai"}, {"city": "Maindong", "latitude": 31.33333, "longitude": 85.41667, "state": "Tibet"}, {"city": "Machali", "latitude": 34.93333, "longitude": 98.23333, "state": "Qinghai"}, {"city": "Luzhang", "latitude": 25.97309, "longitude": 98.82345, "state": "Yunnan"}, {"city": "Luring", "latitude": 32.26667, "longitude": 84.2, "state": "Tibet"}, {"city": "Lop", "latitude": 37.07403, "longitude": 80.18231, "state": "Xinjiang"}, {"city": "Longshan", "latitude": 24.60089, "longitude": 98.70418, "state": "Yunnan"}, {"city": "Liuku", "latitude": 25.8505, "longitude": 98.85567, "state": "Yunnan"}, {"city": "Lhasa", "latitude": 29.65, "longitude": 91.1, "state": "Tibet"}, {"city": "Laojunmiao", "latitude": 39.83333, "longitude": 97.73333, "state": "Gansu"}, {"city": "Bonan", "latitude": 25.46335, "longitude": 99.52826, "state": "Yunnan"}, {"city": "Langru", "latitude": 36.89333, "longitude": 79.62139, "state": "Xinjiang"}, {"city": "Kokyar", "latitude": 36.81899, "longitude": 81.63334, "state": "Xinjiang"}, {"city": "Kashgar", "latitude": 39.47066, "longitude": 75.98951, "state": "Xinjiang"}, {"city": "Karaki", "latitude": 36.98144, "longitude": 81.22508, "state": "Xinjiang"}, {"city": "Kaqun", "latitude": 37.97806, "longitude": 76.86722, "state": "Xinjiang"}, {"city": "Kangmar", "latitude": 28.55953, "longitude": 89.68009, "state": "Tibet"}, {"city": "Judian", "latitude": 27.30612, "longitude": 99.6491, "state": "Yunnan"}, {"city": "Jomda", "latitude": 31.4962, "longitude": 98.21171, "state": "Tibet"}, {"city": "Jinta", "latitude": 39.98333, "longitude": 98.86667, "state": "Gansu"}, {"city": "Jinhua", "latitude": 26.538, "longitude": 99.91715, "state": "Yunnan"}, {"city": "Jinding", "latitude": 26.43903, "longitude": 99.44061, "state": "Yunnan"}, {"city": "Jietou", "latitude": 25.4274, "longitude": 98.65324, "state": "Yunnan"}, {"city": "Jiayuguan", "latitude": 39.81121, "longitude": 98.28618, "state": "Gansu"}, {"city": "Jiashi", "latitude": 39.49554, "longitude": 76.74282, "state": "Xinjiang"}, {"city": "Huatugou", "latitude": 38.25544, "longitude": 90.86792, "state": "Qinghai"}, {"city": "Houqiao", "latitude": 25.32356, "longitude": 98.27802, "state": "Yunnan"}, {"city": "Hotan", "latitude": 37.1075, "longitude": 79.93548, "state": "Xinjiang"}, {"city": "Hongwansi", "latitude": 38.83514, "longitude": 99.59865, "state": "Gansu"}, {"city": "Heshun", "latitude": 25.01667, "longitude": 98.46667, "state": "Yunnan"}, {"city": "Gyigang", "latitude": 28.66667, "longitude": 97.51667, "state": "Tibet"}, {"city": "Jiangzi", "latitude": 28.92026, "longitude": 89.59956, "state": "Tibet"}, {"city": "Gyangkar", "latitude": 28.4, "longitude": 87.8, "state": "Tibet"}, {"city": "Gyamotang", "latitude": 31.53333, "longitude": 95.43333, "state": "Tibet"}, {"city": "Gudong", "latitude": 25.34165, "longitude": 98.48297, "state": "Yunnan"}, {"city": "Golmud", "latitude": 36.40672, "longitude": 94.90061, "state": "Qinghai"}, {"city": "Gengqing", "latitude": 31.81649, "longitude": 98.59579, "state": "Sichuan"}, {"city": "Gengma", "latitude": 23.52325, "longitude": 99.3786, "state": "Yunnan"}, {"city": "Jiding", "latitude": 29.36667, "longitude": 88.25, "state": "Tibet"}, {"city": "Gartog", "latitude": 29.68451, "longitude": 98.59473, "state": "Tibet"}, {"city": "Gaotai Chengguanzhen", "latitude": 39.34456, "longitude": 99.80015, "state": "Gansu"}, {"city": "Kambaxoi", "latitude": 28.3, "longitude": 88.53333, "state": "Tibet"}, {"city": "Nansan", "latitude": 23.79575, "longitude": 98.80397, "state": "Yunnan"}, {"city": "Fengshan", "latitude": 24.58333, "longitude": 99.9, "state": "Yunnan"}, {"city": "Elixku", "latitude": 38.70917, "longitude": 77.37056, "state": "Xinjiang"}, {"city": "Domartang", "latitude": 30.93902, "longitude": 94.68908, "state": "Tibet"}, {"city": "D\u00eaq\u00ean", "latitude": 29.96178, "longitude": 90.71875, "state": "Tibet"}, {"city": "Delingha", "latitude": 37.376, "longitude": 97.37457, "state": "Qinghai"}, {"city": "Dedang", "latitude": 24.0118, "longitude": 99.23964, "state": "Yunnan"}, {"city": "Dartang", "latitude": 31.93333, "longitude": 94.0, "state": "Tibet"}, {"city": "Dangchengwan", "latitude": 39.50011, "longitude": 95.04081, "state": "Gansu"}, {"city": "Chongdui", "latitude": 28.15, "longitude": 85.96667, "state": "Tibet"}, {"city": "Coka", "latitude": 30.9054, "longitude": 94.6695, "state": "Tibet"}, {"city": "Cikai", "latitude": 27.76344, "longitude": 98.71105, "state": "Yunnan"}, {"city": "Youdian", "latitude": 24.82894, "longitude": 99.59232, "state": "Yunnan"}, {"city": "Burang", "latitude": 30.29559, "longitude": 81.17511, "state": "Tibet"}, {"city": "Molo", "latitude": 30.86004, "longitude": 98.27297, "state": "Tibet"}, {"city": "Langgar", "latitude": 36.7, "longitude": 81.5, "state": "Xinjiang"}, {"city": "Baoshan", "latitude": 25.11626, "longitude": 99.16366, "state": "Yunnan"}, {"city": "Baohe", "latitude": 27.19582, "longitude": 99.32483, "state": "Yunnan"}, {"city": "Baima", "latitude": 30.05752, "longitude": 96.91852, "state": "Tibet"}, {"city": "Aqqan", "latitude": 36.46667, "longitude": 81.96667, "state": "Xinjiang"}, {"city": "Atush", "latitude": 39.71085, "longitude": 76.17138, "state": "Xinjiang"}, {"city": "Layka", "latitude": 37.07694, "longitude": 79.73167, "state": "Xinjiang"}, {"city": "Saybag", "latitude": 37.14972, "longitude": 79.65833, "state": "Xinjiang"}, {"city": "Arix", "latitude": 36.75541, "longitude": 81.60765, "state": "Xinjiang"}, {"city": "Xambabazar", "latitude": 36.88639, "longitude": 81.50972, "state": "Xinjiang"}, {"city": "Yengibag", "latitude": 36.96583, "longitude": 81.67833, "state": "Xinjiang"}, {"city": "Zhaosu", "latitude": 43.12278, "longitude": 81.07583, "state": "Xinjiang"}, {"city": "Yumen", "latitude": 40.28333, "longitude": 97.2, "state": "Gansu"}, {"city": "Yuli", "latitude": 41.33662, "longitude": 86.25675, "state": "Xinjiang"}, {"city": "Yuanquan", "latitude": 40.5, "longitude": 95.8, "state": "Gansu"}, {"city": "Yining", "latitude": 43.97799, "longitude": 81.51804, "state": "Xinjiang"}, {"city": "Yanqi", "latitude": 42.06204, "longitude": 86.56632, "state": "Xinjiang"}, {"city": "Xinyuan", "latitude": 43.42649, "longitude": 83.24959, "state": "Xinjiang"}, {"city": "Xinhe", "latitude": 41.55028, "longitude": 82.61667, "state": "Xinjiang"}, {"city": "Shayar", "latitude": 41.22642, "longitude": 82.76537, "state": "Xinjiang"}, {"city": "Wushi", "latitude": 41.15167, "longitude": 79.225, "state": "Xinjiang"}, {"city": "Wensu", "latitude": 41.26996, "longitude": 80.23816, "state": "Xinjiang"}, {"city": "Wusu", "latitude": 44.43105, "longitude": 84.67623, "state": "Xinjiang"}, {"city": "\u00dcr\u00fcmqi", "latitude": 43.80096, "longitude": 87.60046, "state": "Xinjiang"}, {"city": "Urho", "latitude": 46.11651, "longitude": 85.67769, "state": "Xinjiang"}, {"city": "Turpan", "latitude": 42.94769, "longitude": 89.17886, "state": "Xinjiang"}, {"city": "Toli", "latitude": 45.93859, "longitude": 83.60056, "state": "Xinjiang"}, {"city": "Toksun", "latitude": 42.79359, "longitude": 88.64163, "state": "Xinjiang"}, {"city": "Temeke", "latitude": 47.22244, "longitude": 89.74276, "state": "Xinjiang"}, {"city": "Tekes", "latitude": 43.21669, "longitude": 81.83973, "state": "Xinjiang"}, {"city": "Tacheng", "latitude": 46.74535, "longitude": 82.95847, "state": "Xinjiang"}, {"city": "Shihezi", "latitude": 44.3023, "longitude": 86.03694, "state": "Xinjiang"}, {"city": "Shanshan", "latitude": 42.8675, "longitude": 90.20463, "state": "Xinjiang"}, {"city": "Sandaohezi", "latitude": 44.32597, "longitude": 85.62009, "state": "Xinjiang"}, {"city": "Qongkur", "latitude": 48.12222, "longitude": 87.1125, "state": "Xinjiang"}, {"city": "Qinghe", "latitude": 46.66725, "longitude": 90.37864, "state": "Xinjiang"}, {"city": "Qapqal", "latitude": 43.80194, "longitude": 81.08722, "state": "Xinjiang"}, {"city": "Qahurt", "latitude": 46.33379, "longitude": 89.59236, "state": "Xinjiang"}, {"city": "Nilka", "latitude": 43.78894, "longitude": 82.49599, "state": "Xinjiang"}, {"city": "Luntai", "latitude": 41.77389, "longitude": 84.24417, "state": "Xinjiang"}, {"city": "Kuytun", "latitude": 44.42707, "longitude": 84.90069, "state": "Xinjiang"}, {"city": "K\u00fcrti", "latitude": 47.20003, "longitude": 89.30531, "state": "Xinjiang"}, {"city": "Kuqa", "latitude": 41.71707, "longitude": 82.93064, "state": "Xinjiang"}, {"city": "Korla", "latitude": 41.76055, "longitude": 86.15231, "state": "Xinjiang"}, {"city": "Hom", "latitude": 48.56472, "longitude": 87.42056, "state": "Xinjiang"}, {"city": "Koktokay", "latitude": 47.21654, "longitude": 89.81724, "state": "Xinjiang"}, {"city": "Karamay", "latitude": 45.58473, "longitude": 84.88724, "state": "Xinjiang"}, {"city": "Kalpin", "latitude": 40.52755, "longitude": 79.06577, "state": "Xinjiang"}, {"city": "Jimsar", "latitude": 43.98334, "longitude": 89.06667, "state": "Xinjiang"}, {"city": "Jelily\u00fczi", "latitude": 43.9749, "longitude": 81.53555, "state": "Xinjiang"}, {"city": "Yili", "latitude": 43.9, "longitude": 81.35, "state": "Xinjiang"}, {"city": "Khutubi", "latitude": 44.19035, "longitude": 86.88521, "state": "Xinjiang"}, {"city": "Hoxut", "latitude": 42.25861, "longitude": 86.85778, "state": "Xinjiang"}, {"city": "Hoxtolgay", "latitude": 46.51872, "longitude": 86.00214, "state": "Xinjiang"}, {"city": "Hejing", "latitude": 42.31639, "longitude": 86.38278, "state": "Xinjiang"}, {"city": "Hami", "latitude": 42.83393, "longitude": 93.50601, "state": "Xinjiang"}, {"city": "Habahe", "latitude": 48.05841, "longitude": 86.41629, "state": "Xinjiang"}, {"city": "Tokkuztara", "latitude": 43.46667, "longitude": 82.14889, "state": "Xinjiang"}, {"city": "Fuyun", "latitude": 46.9919, "longitude": 89.52115, "state": "Xinjiang"}, {"city": "Fukang", "latitude": 44.15874, "longitude": 87.97418, "state": "Xinjiang"}, {"city": "Emin", "latitude": 46.52574, "longitude": 83.63325, "state": "Xinjiang"}, {"city": "Dushanzi", "latitude": 44.33333, "longitude": 84.85, "state": "Xinjiang"}, {"city": "Dure", "latitude": 46.51188, "longitude": 88.53389, "state": "Xinjiang"}, {"city": "Dunhuang", "latitude": 40.16667, "longitude": 94.68333, "state": "Gansu"}, {"city": "Dulayti", "latitude": 47.76649, "longitude": 87.08308, "state": "Xinjiang"}, {"city": "Dabancheng", "latitude": 43.35833, "longitude": 88.32004, "state": "Xinjiang"}, {"city": "Changji", "latitude": 44.00782, "longitude": 87.30461, "state": "Xinjiang"}, {"city": "Burqin", "latitude": 47.70283, "longitude": 86.86375, "state": "Xinjiang"}, {"city": "Bohu", "latitude": 41.98434, "longitude": 86.62198, "state": "Xinjiang"}, {"city": "Barkol", "latitude": 43.59881, "longitude": 93.00862, "state": "Xinjiang"}, {"city": "Baijiantan", "latitude": 45.69298, "longitude": 85.13942, "state": "Xinjiang"}, {"city": "Baicheng", "latitude": 41.77389, "longitude": 81.86889, "state": "Xinjiang"}, {"city": "Aykol", "latitude": 40.95759, "longitude": 80.13574, "state": "Xinjiang"}, {"city": "Awat", "latitude": 40.63837, "longitude": 80.37965, "state": "Xinjiang"}, {"city": "Aral", "latitude": 40.54184, "longitude": 81.26566, "state": "Xinjiang"}, {"city": "Altay", "latitude": 47.84864, "longitude": 88.13361, "state": "Xinjiang"}, {"city": "Aksu", "latitude": 41.18418, "longitude": 80.27921, "state": "Xinjiang"}, {"city": "Aqchi", "latitude": 40.93911, "longitude": 78.4477, "state": "Xinjiang"}, {"city": "Shuimogou", "latitude": 43.82856, "longitude": 87.6382, "state": "Xinjiang"}, {"city": "Sishilichengzi", "latitude": 41.96194, "longitude": 86.47667, "state": "Xinjiang"}, {"city": "Topterek", "latitude": 47.43403, "longitude": 85.87113, "state": "Xinjiang"}, {"city": "Oymak", "latitude": 47.87809, "longitude": 86.98955, "state": "Xinjiang"}, {"city": "Egiztobe", "latitude": 47.85938, "longitude": 87.00466, "state": "Xinjiang"}, {"city": "Kostik", "latitude": 47.78682, "longitude": 87.33078, "state": "Xinjiang"}, {"city": "Alakak", "latitude": 47.74462, "longitude": 87.49813, "state": "Xinjiang"}, {"city": "Turgun", "latitude": 46.97933, "longitude": 89.84335, "state": "Xinjiang"}, {"city": "Kax", "latitude": 43.64111, "longitude": 81.87, "state": "Xinjiang"}, {"city": "Baytokay", "latitude": 43.68167, "longitude": 81.78889, "state": "Xinjiang"}, {"city": "Yengitam", "latitude": 43.74583, "longitude": 81.65694, "state": "Xinjiang"}, {"city": "Dongmazar", "latitude": 43.83139, "longitude": 81.85056, "state": "Xinjiang"}, {"city": "Kipeky\u00fczi", "latitude": 43.94973, "longitude": 81.38951, "state": "Xinjiang"}, {"city": "Dadamtu", "latitude": 43.98028, "longitude": 81.31417, "state": "Xinjiang"}, {"city": "Qulukay", "latitude": 43.95583, "longitude": 81.66222, "state": "Xinjiang"}, {"city": "Yuqunweng", "latitude": 43.87444, "longitude": 81.62056, "state": "Xinjiang"}, {"city": "Panjim", "latitude": 44.00754, "longitude": 81.4247, "state": "Xinjiang"}, {"city": "Xindu", "latitude": 33.33987, "longitude": 120.14594, "state": "Jiangsu"}, {"city": "Beigang", "latitude": 31.79735, "longitude": 119.87857, "state": "Jiangsu"}, {"city": "Liangji", "latitude": 33.96389, "longitude": 117.96944, "state": "Jiangsu"}, {"city": "Lanshan", "latitude": 33.93611, "longitude": 117.725, "state": "Jiangsu"}, {"city": "Qing\u2019an", "latitude": 33.96944, "longitude": 117.88056, "state": "Jiangsu"}, {"city": "Malingshan", "latitude": 34.20351, "longitude": 118.3565, "state": "Jiangsu"}, {"city": "Chenlou", "latitude": 34.38889, "longitude": 118.05, "state": "Jiangsu"}, {"city": "Hegou", "latitude": 34.40833, "longitude": 118.12222, "state": "Jiangsu"}, {"city": "Gangshang", "latitude": 34.52147, "longitude": 118.11835, "state": "Jiangsu"}, {"city": "Zouzhuang", "latitude": 34.6, "longitude": 118.05, "state": "Jiangsu"}, {"city": "Tangzhang", "latitude": 34.14779, "longitude": 117.25395, "state": "Jiangsu"}, {"city": "Hanwang", "latitude": 34.19444, "longitude": 117.08333, "state": "Jiangsu"}, {"city": "Yitang", "latitude": 34.25833, "longitude": 117.88889, "state": "Jiangsu"}, {"city": "Xuzhuang", "latitude": 34.29614, "longitude": 117.45798, "state": "Jiangsu"}, {"city": "Nianzhuang", "latitude": 34.29722, "longitude": 117.77222, "state": "Jiangsu"}, {"city": "Tashan", "latitude": 34.33611, "longitude": 117.56667, "state": "Jiangsu"}, {"city": "Zizhuang", "latitude": 34.36152, "longitude": 117.48816, "state": "Jiangsu"}, {"city": "Liuji", "latitude": 34.35833, "longitude": 117.05278, "state": "Jiangsu"}, {"city": "Jiangzhuang", "latitude": 34.49167, "longitude": 117.39722, "state": "Jiangsu"}, {"city": "Daizhuang", "latitude": 34.51389, "longitude": 117.85278, "state": "Jiangsu"}, {"city": "Zhangzhuang", "latitude": 34.51944, "longitude": 117.00556, "state": "Jiangsu"}, {"city": "Xinglou", "latitude": 34.56667, "longitude": 117.82778, "state": "Jiangsu"}, {"city": "Huzhai", "latitude": 34.66944, "longitude": 117.00833, "state": "Jiangsu"}, {"city": "Heqiao", "latitude": 34.45278, "longitude": 116.9, "state": "Jiangsu"}, {"city": "Fanlou", "latitude": 34.48091, "longitude": 116.85248, "state": "Jiangsu"}, {"city": "Hekou", "latitude": 34.57778, "longitude": 116.81389, "state": "Jiangsu"}, {"city": "Songlou", "latitude": 34.57231, "longitude": 116.60239, "state": "Jiangsu"}, {"city": "Sunlou", "latitude": 34.66667, "longitude": 116.58333, "state": "Jiangsu"}, {"city": "Zhuzhai", "latitude": 34.76111, "longitude": 116.81389, "state": "Jiangsu"}, {"city": "Zhaozhuang", "latitude": 34.73889, "longitude": 116.45556, "state": "Jiangsu"}, {"city": "Anguo", "latitude": 34.83056, "longitude": 116.81944, "state": "Jiangsu"}, {"city": "Shizhai", "latitude": 34.80556, "longitude": 116.63889, "state": "Jiangsu"}, {"city": "Youyupu", "latitude": 27.5517, "longitude": 109.135, "state": "Guizhou"}, {"city": "Zhujiachang", "latitude": 27.3575, "longitude": 108.93833, "state": "Guizhou"}, {"city": "Xujiaba", "latitude": 27.88472, "longitude": 108.11361, "state": "Guizhou"}, {"city": "Qinglong", "latitude": 28.26291, "longitude": 108.11234, "state": "Guizhou"}, {"city": "Sanchahe", "latitude": 28.49528, "longitude": 106.42833, "state": "Guizhou"}, {"city": "Guandou", "latitude": 31.37829, "longitude": 118.39759, "state": "Anhui"}, {"city": "Yushan", "latitude": 31.67265, "longitude": 118.48456, "state": "Anhui"}, {"city": "Yaxing", "latitude": 19.44778, "longitude": 109.26273, "state": "Hainan"}, {"city": "Xianshui", "latitude": 30.99145, "longitude": 101.12701, "state": "Sichuan"}, {"city": "Lintan Chengguanzhen", "latitude": 34.68885, "longitude": 103.35242, "state": "Gansu"}, {"city": "Mengjin Chengguanzhen", "latitude": 34.8269, "longitude": 112.43129, "state": "Henan"}, {"city": "Liaoyang", "latitude": 37.07977, "longitude": 113.33986, "state": "Shanxi"}, {"city": "Zunyi", "latitude": 27.68667, "longitude": 106.90722, "state": "Guizhou"}, {"city": "Zuitou", "latitude": 34.06219, "longitude": 107.31266, "state": "Shaanxi"}, {"city": "Zuitai", "latitude": 33.33083, "longitude": 105.60467, "state": "Gansu"}, {"city": "Zoucheng", "latitude": 35.40056, "longitude": 116.96556, "state": "Shandong"}, {"city": "Zongyang", "latitude": 30.69889, "longitude": 117.20417, "state": "Anhui"}, {"city": "Nima", "latitude": 34.00065, "longitude": 102.07127, "state": "Gansu"}, {"city": "Ziyang Chengguanzhen", "latitude": 32.51917, "longitude": 108.53232, "state": "Shaanxi"}, {"city": "Ziyang", "latitude": 30.12108, "longitude": 104.64811, "state": "Sichuan"}, {"city": "Tangdong", "latitude": 26.00188, "longitude": 113.25379, "state": "Hunan"}, {"city": "Wenchang", "latitude": 31.63625, "longitude": 105.15502, "state": "Sichuan"}, {"city": "Zitong", "latitude": 30.1782, "longitude": 105.82991, "state": "Chongqing"}, {"city": "Zishui", "latitude": 31.41281, "longitude": 108.31465, "state": "Chongqing"}, {"city": "Ziketan", "latitude": 35.58621, "longitude": 99.9879, "state": "Qinghai"}, {"city": "Zigong", "latitude": 29.34162, "longitude": 104.77689, "state": "Sichuan"}, {"city": "Zhuzhoujiang Miaozuxiang", "latitude": 26.67528, "longitude": 110.07194, "state": "Hunan"}, {"city": "Zhuzhou", "latitude": 27.83333, "longitude": 113.15, "state": "Hunan"}, {"city": "Zhuyuan", "latitude": 31.30216, "longitude": 109.25806, "state": "Chongqing"}, {"city": "Zhuyang", "latitude": 29.06423, "longitude": 105.94487, "state": "Chongqing"}, {"city": "Dazhu", "latitude": 30.73597, "longitude": 107.2064, "state": "Sichuan"}, {"city": "Zhuxi Chengguanzhen", "latitude": 32.32569, "longitude": 109.72337, "state": "Hubei"}, {"city": "Zhuxi", "latitude": 29.53614, "longitude": 105.66685, "state": "Chongqing"}, {"city": "Zhutuo", "latitude": 29.0184, "longitude": 105.84877, "state": "Chongqing"}, {"city": "Zhushan Chengguanzhen", "latitude": 32.22179, "longitude": 110.23614, "state": "Hubei"}, {"city": "Jiahe Chengguanzhen", "latitude": 25.55936, "longitude": 112.36352, "state": "Hunan"}, {"city": "Zhuqi", "latitude": 26.1486, "longitude": 119.10216, "state": "Fujian"}, {"city": "Zhuozhou", "latitude": 39.48381, "longitude": 116.00459, "state": "Hebei"}, {"city": "Zhuoyang", "latitude": 26.63003, "longitude": 119.0215, "state": "Fujian"}, {"city": "Zhuoshui", "latitude": 29.30309, "longitude": 108.7702, "state": "Chongqing"}, {"city": "Zhumadian", "latitude": 32.97944, "longitude": 114.02944, "state": "Henan"}, {"city": "Jiangpu", "latitude": 32.06149, "longitude": 118.62399, "state": "Jiangsu"}, {"city": "Zhujiajiao", "latitude": 31.10757, "longitude": 121.05696, "state": "Shanghai"}, {"city": "Shangqiu", "latitude": 34.45, "longitude": 115.65, "state": "Henan"}, {"city": "Zhuji", "latitude": 29.71877, "longitude": 120.24233, "state": "Zhejiang"}, {"city": "Zhouqu Chengguanzhen", "latitude": 33.78417, "longitude": 104.36278, "state": "Gansu"}, {"city": "Zhushi", "latitude": 27.08778, "longitude": 110.67694, "state": "Hunan"}, {"city": "Zhucheng", "latitude": 35.99472, "longitude": 119.3975, "state": "Shandong"}, {"city": "Zhuangtou", "latitude": 39.65778, "longitude": 117.29167, "state": "Tianjin"}, {"city": "Zhuanghe", "latitude": 39.70083, "longitude": 122.99111, "state": "Liaoning"}, {"city": "Zhouzhuang", "latitude": 31.11788, "longitude": 120.84427, "state": "Jiangsu"}, {"city": "Zhouxi", "latitude": 26.48333, "longitude": 107.91667, "state": "Guizhou"}, {"city": "Zhoukou", "latitude": 33.63333, "longitude": 114.63333, "state": "Henan"}, {"city": "Zhoukou", "latitude": 31.03473, "longitude": 106.40113, "state": "Sichuan"}, {"city": "Zhoujia", "latitude": 30.41908, "longitude": 107.53848, "state": "Chongqing"}, {"city": "Zhoucun", "latitude": 36.81667, "longitude": 117.81667, "state": "Shandong"}, {"city": "Yuxi", "latitude": 24.355, "longitude": 102.54222, "state": "Yunnan"}, {"city": "B\u00e1ig\u014dng Ji\u0113d\u00e0o", "latitude": 30.29493, "longitude": 108.03372, "state": "Chongqing"}, {"city": "Zhongzhai", "latitude": 33.19133, "longitude": 104.42009, "state": "Gansu"}, {"city": "Zhongzhai", "latitude": 27.19528, "longitude": 109.26861, "state": "Hunan"}, {"city": "Ningxiang", "latitude": 37.34, "longitude": 111.20523, "state": "Shanxi"}, {"city": "Zhongxinqiao", "latitude": 39.03794, "longitude": 117.56062, "state": "Tianjin"}, {"city": "Zhongxing", "latitude": 33.70389, "longitude": 118.67917, "state": "Jiangsu"}, {"city": "Zhongxin", "latitude": 26.61667, "longitude": 101.27154, "state": "Yunnan"}, {"city": "Zhongwei", "latitude": 37.51129, "longitude": 105.19067, "state": "Ningxia"}, {"city": "Zhongshu", "latitude": 25.0273, "longitude": 103.66298, "state": "Yunnan"}, {"city": "Zhongshu", "latitude": 24.51667, "longitude": 103.76667, "state": "Yunnan"}, {"city": "Zhongshan", "latitude": 24.52913, "longitude": 111.29704, "state": "Guangxi"}, {"city": "Jinzhong", "latitude": 26.37595, "longitude": 103.30639, "state": "Yunnan"}, {"city": "Ning\u2019an", "latitude": 37.49753, "longitude": 105.6765, "state": "Ningxia"}, {"city": "Zhongmu Chengguanzhen", "latitude": 34.71145, "longitude": 113.96559, "state": "Henan"}, {"city": "Kaijiang", "latitude": 31.03959, "longitude": 104.67448, "state": "Sichuan"}, {"city": "Zhonghe", "latitude": 31.17664, "longitude": 108.13155, "state": "Chongqing"}, {"city": "Zhonghe", "latitude": 28.45049, "longitude": 108.98901, "state": "Chongqing"}, {"city": "Zhongfang", "latitude": 27.41139, "longitude": 109.93194, "state": "Hunan"}, {"city": "Zhongfang", "latitude": 26.60083, "longitude": 119.42583, "state": "Fujian"}, {"city": "Zhongduo", "latitude": 28.8466, "longitude": 108.76416, "state": "Chongqing"}, {"city": "Zhongdeng", "latitude": 39.59056, "longitude": 117.35306, "state": "Tianjin"}, {"city": "Gusong", "latitude": 28.3133, "longitude": 105.2377, "state": "Sichuan"}, {"city": "Zhongchao", "latitude": 26.1375, "longitude": 109.22, "state": "Guizhou"}, {"city": "Zhongba", "latitude": 31.77819, "longitude": 104.73932, "state": "Sichuan"}, {"city": "Zhong\u2019ao", "latitude": 29.765, "longitude": 105.66645, "state": "Chongqing"}, {"city": "Zhong\u2019an", "latitude": 25.66667, "longitude": 104.23333, "state": "Yunnan"}, {"city": "Zhijin", "latitude": 26.6668, "longitude": 105.768, "state": "Guizhou"}, {"city": "Zhijiang", "latitude": 27.45814, "longitude": 109.6592, "state": "Hunan"}, {"city": "Zhigou", "latitude": 35.91667, "longitude": 119.21667, "state": "Shandong"}, {"city": "Zhifang", "latitude": 30.35, "longitude": 114.31667, "state": "Hubei"}, {"city": "Zhicheng", "latitude": 31.00751, "longitude": 119.90851, "state": "Zhejiang"}, {"city": "Zhicheng", "latitude": 30.29556, "longitude": 111.50472, "state": "Hubei"}, {"city": "Zhenzhou", "latitude": 32.28034, "longitude": 119.16999, "state": "Jiangsu"}, {"city": "Zhenyuan Chengguanzhen", "latitude": 35.6775, "longitude": 107.19639, "state": "Gansu"}, {"city": "Wufeng", "latitude": 27.45, "longitude": 104.83333, "state": "Yunnan"}, {"city": "Zhenxi", "latitude": 29.89929, "longitude": 107.46452, "state": "Chongqing"}, {"city": "Zhenping Chengguanzhen", "latitude": 33.03314, "longitude": 112.23321, "state": "Henan"}, {"city": "Zhenjiang", "latitude": 32.21086, "longitude": 119.45508, "state": "Jiangsu"}, {"city": "Zhaobaoshan", "latitude": 29.9695, "longitude": 121.68753, "state": "Zhejiang"}, {"city": "Zhenhaicun", "latitude": 24.25894, "longitude": 118.09186, "state": "Fujian"}, {"city": "Zhengzhou", "latitude": 34.75778, "longitude": 113.64861, "state": "Henan"}, {"city": "Zhenyang", "latitude": 32.60361, "longitude": 114.38306, "state": "Henan"}, {"city": "Zhengxing", "latitude": 29.45741, "longitude": 106.12926, "state": "Chongqing"}, {"city": "Zhengkou", "latitude": 37.34986, "longitude": 115.9574, "state": "Hebei"}, {"city": "Zhengji", "latitude": 34.43722, "longitude": 117.03889, "state": "Jiangsu"}, {"city": "Zhengding", "latitude": 38.14501, "longitude": 114.56556, "state": "Hebei"}, {"city": "Zhelou", "latitude": 24.96667, "longitude": 105.81667, "state": "Guizhou"}, {"city": "Zhecheng Chengguanzhen", "latitude": 34.1046, "longitude": 115.3176, "state": "Henan"}, {"city": "Zhaxi", "latitude": 27.85081, "longitude": 104.96874, "state": "Yunnan"}, {"city": "Qianyou", "latitude": 33.6775, "longitude": 109.12333, "state": "Shaanxi"}, {"city": "Zhaozhen", "latitude": 30.8563, "longitude": 104.43606, "state": "Sichuan"}, {"city": "Xinghua", "latitude": 32.93917, "longitude": 119.83417, "state": "Jiangsu"}, {"city": "Zhaozhou", "latitude": 37.75286, "longitude": 114.76913, "state": "Hebei"}, {"city": "Zhaotong", "latitude": 27.31667, "longitude": 103.71667, "state": "Yunnan"}, {"city": "Zhaoren", "latitude": 35.20667, "longitude": 107.79139, "state": "Shaanxi"}, {"city": "Zhaoqing", "latitude": 23.04893, "longitude": 112.46091, "state": "Guangdong"}, {"city": "Zhaoguli", "latitude": 39.16673, "longitude": 117.24191, "state": "Tianjin"}, {"city": "Zhaogezhuang", "latitude": 39.78444, "longitude": 117.19583, "state": "Tianjin"}, {"city": "Zhaogezhuang", "latitude": 39.76538, "longitude": 118.41191, "state": "Hebei"}, {"city": "Chaoge", "latitude": 35.605, "longitude": 114.18861, "state": "Henan"}, {"city": "Zhaodun", "latitude": 34.3027, "longitude": 117.85699, "state": "Jiangsu"}, {"city": "Zhaoyuan", "latitude": 37.36497, "longitude": 120.40997, "state": "Shandong"}, {"city": "Xiping", "latitude": 25.59784, "longitude": 103.79613, "state": "Yunnan"}, {"city": "Zhanjiang", "latitude": 21.23391, "longitude": 110.38749, "state": "Guangdong"}, {"city": "Zhanhe", "latitude": 26.8589, "longitude": 100.914, "state": "Yunnan"}, {"city": "Danzhu", "latitude": 36.1245, "longitude": 112.86101, "state": "Shanxi"}, {"city": "Zhangzhou", "latitude": 24.51333, "longitude": 117.65556, "state": "Fujian"}, {"city": "Zhangzhai", "latitude": 34.61667, "longitude": 116.95, "state": "Jiangsu"}, {"city": "Zhangye", "latitude": 38.93417, "longitude": 100.45167, "state": "Gansu"}, {"city": "Zhangwan", "latitude": 26.71139, "longitude": 119.59194, "state": "Fujian"}, {"city": "Zhangjiapan", "latitude": 37.60157, "longitude": 108.79702, "state": "Shaanxi"}, {"city": "Zhangjiachuan", "latitude": 34.98756, "longitude": 106.20902, "state": "Gansu"}, {"city": "Zhangji", "latitude": 34.1375, "longitude": 117.37556, "state": "Jiangsu"}, {"city": "Zhangguizhuang", "latitude": 39.0902, "longitude": 117.30719, "state": "Tianjin"}, {"city": "Zhanggu", "latitude": 30.86875, "longitude": 101.88848, "state": "Sichuan"}, {"city": "Zibo", "latitude": 36.79056, "longitude": 118.06333, "state": "Shandong"}, {"city": "Anyang", "latitude": 36.096, "longitude": 114.38278, "state": "Henan"}, {"city": "Yongtai", "latitude": 25.8713, "longitude": 118.9277, "state": "Fujian"}, {"city": "Zhan\u2019erxiang", "latitude": 33.77986, "longitude": 106.30034, "state": "Gansu"}, {"city": "Zhancheng", "latitude": 34.17501, "longitude": 117.76291, "state": "Jiangsu"}, {"city": "Zhaishi Miaozu Dongzuxiang", "latitude": 26.50083, "longitude": 110.04444, "state": "Hunan"}, {"city": "Zhabei", "latitude": 31.25861, "longitude": 121.45972, "state": "Shanghai"}, {"city": "Zengjia", "latitude": 32.61957, "longitude": 106.10118, "state": "Sichuan"}, {"city": "Zaozhuang", "latitude": 34.86472, "longitude": 117.55417, "state": "Shandong"}, {"city": "Zaoyang", "latitude": 32.12722, "longitude": 112.75417, "state": "Hubei"}, {"city": "Zaoqiang", "latitude": 37.51177, "longitude": 115.72523, "state": "Hebei"}, {"city": "Zaojiacheng", "latitude": 39.27706, "longitude": 117.43574, "state": "Tianjin"}, {"city": "Zanhuang", "latitude": 37.65813, "longitude": 114.38647, "state": "Hebei"}, {"city": "Zhamashi", "latitude": 38.20389, "longitude": 100.015, "state": "Qinghai"}, {"city": "Zagunao", "latitude": 31.44618, "longitude": 103.17662, "state": "Sichuan"}, {"city": "Yuzhong Chengguanzhen", "latitude": 35.84278, "longitude": 104.1125, "state": "Gansu"}, {"city": "Yuyue", "latitude": 30.0182, "longitude": 113.96325, "state": "Hubei"}, {"city": "Yuyao", "latitude": 30.05, "longitude": 121.14944, "state": "Zhejiang"}, {"city": "Yuzhou", "latitude": 39.83246, "longitude": 114.57594, "state": "Hebei"}, {"city": "Xiushui", "latitude": 38.10379, "longitude": 113.38865, "state": "Shanxi"}, {"city": "Yingchuan", "latitude": 34.16278, "longitude": 113.46389, "state": "Henan"}, {"city": "Yuxia", "latitude": 34.06153, "longitude": 108.62905, "state": "Shaanxi"}, {"city": "Yuxi", "latitude": 30.32392, "longitude": 105.77743, "state": "Chongqing"}, {"city": "Yuxi", "latitude": 28.889, "longitude": 107.594, "state": "Guizhou"}, {"city": "Yutian", "latitude": 39.87861, "longitude": 117.73917, "state": "Hebei"}, {"city": "Jicheng", "latitude": 37.06359, "longitude": 112.95769, "state": "Shanxi"}, {"city": "Yushan", "latitude": 29.53284, "longitude": 108.42504, "state": "Chongqing"}, {"city": "Kunshan", "latitude": 31.37762, "longitude": 120.95431, "state": "Jiangsu"}, {"city": "Yushan", "latitude": 26.90863, "longitude": 118.56713, "state": "Fujian"}, {"city": "Yuping", "latitude": 22.97693, "longitude": 103.71085, "state": "Yunnan"}, {"city": "Yunyang", "latitude": 33.44743, "longitude": 112.71422, "state": "Henan"}, {"city": "Junyang", "latitude": 28.41298, "longitude": 115.37668, "state": "Jiangxi"}, {"city": "Yunxian Chengguanzhen", "latitude": 32.83129, "longitude": 110.80875, "state": "Hubei"}, {"city": "Aihua", "latitude": 24.41667, "longitude": 100.1, "state": "Yunnan"}, {"city": "Yunxixian Chengguanzhen", "latitude": 32.98276, "longitude": 110.42306, "state": "Hubei"}, {"city": "Yunxi", "latitude": 31.2264, "longitude": 105.38614, "state": "Sichuan"}, {"city": "Yunxi", "latitude": 29.47328, "longitude": 113.2458, "state": "Hunan"}, {"city": "Yuntai", "latitude": 33.44634, "longitude": 105.66561, "state": "Gansu"}, {"city": "Yuntai", "latitude": 30.13894, "longitude": 107.20487, "state": "Chongqing"}, {"city": "Yunshan", "latitude": 34.76063, "longitude": 105.79252, "state": "Gansu"}, {"city": "Yunnanyi", "latitude": 25.4245, "longitude": 100.689, "state": "Yunnan"}, {"city": "Yunmeng Chengguanzhen", "latitude": 31.06251, "longitude": 113.76545, "state": "Hubei"}, {"city": "Yunmen", "latitude": 30.08274, "longitude": 106.32376, "state": "Chongqing"}, {"city": "Yunling", "latitude": 23.95384, "longitude": 117.33603, "state": "Fujian"}, {"city": "Jinghong", "latitude": 22.00265, "longitude": 100.7697, "state": "Yunnan"}, {"city": "Yunjin", "latitude": 29.0818, "longitude": 105.64329, "state": "Sichuan"}, {"city": "Pizhou", "latitude": 34.31139, "longitude": 117.95028, "state": "Jiangsu"}, {"city": "Yunhe", "latitude": 26.5601, "longitude": 100.17625, "state": "Yunnan"}, {"city": "Yunfu", "latitude": 22.92787, "longitude": 112.03809, "state": "Guangdong"}, {"city": "Yuncheng", "latitude": 35.59833, "longitude": 115.93472, "state": "Shandong"}, {"city": "Yuncheng", "latitude": 35.02306, "longitude": 110.99278, "state": "Shanxi"}, {"city": "Yulinshi", "latitude": 38.29181, "longitude": 109.73753, "state": "Shaanxi"}, {"city": "Yulin", "latitude": 22.6305, "longitude": 110.14686, "state": "Guangxi"}, {"city": "Yulei", "latitude": 32.84056, "longitude": 105.00806, "state": "Gansu"}, {"city": "Yujin", "latitude": 29.20909, "longitude": 103.94556, "state": "Sichuan"}, {"city": "Wulingyuan", "latitude": 29.34936, "longitude": 110.54407, "state": "Hunan"}, {"city": "Yujia", "latitude": 30.8115, "longitude": 107.95377, "state": "Chongqing"}, {"city": "Yuguzhuang", "latitude": 39.64, "longitude": 117.35889, "state": "Tianjin"}, {"city": "Yueyang", "latitude": 36.2896, "longitude": 111.91454, "state": "Shanxi"}, {"city": "Yuexi", "latitude": 30.91127, "longitude": 108.15926, "state": "Chongqing"}, {"city": "Yuecheng", "latitude": 28.64157, "longitude": 102.5087, "state": "Sichuan"}, {"city": "Yuelai", "latitude": 30.20531, "longitude": 108.26699, "state": "Chongqing"}, {"city": "Jiulong", "latitude": 30.53534, "longitude": 106.44902, "state": "Sichuan"}, {"city": "Yudong", "latitude": 29.385, "longitude": 106.51944, "state": "Chongqing"}, {"city": "Yuci", "latitude": 37.68028, "longitude": 112.73194, "state": "Shanxi"}, {"city": "Yucheng", "latitude": 36.93099, "longitude": 116.65691, "state": "Shandong"}, {"city": "Yucheng", "latitude": 34.92889, "longitude": 116.46528, "state": "Shandong"}, {"city": "Yuanyang", "latitude": 29.66572, "longitude": 106.55749, "state": "Chongqing"}, {"city": "Huaiyang", "latitude": 37.76145, "longitude": 114.51703, "state": "Hebei"}, {"city": "Yuanshang", "latitude": 36.76833, "longitude": 120.34556, "state": "Shandong"}, {"city": "Yuanshan", "latitude": 24.36959, "longitude": 114.48962, "state": "Guangdong"}, {"city": "Yuanping", "latitude": 38.71528, "longitude": 112.7575, "state": "Shanxi"}, {"city": "Yuanmou", "latitude": 25.70589, "longitude": 101.86875, "state": "Yunnan"}, {"city": "Yuanling", "latitude": 28.44861, "longitude": 110.40222, "state": "Hunan"}, {"city": "Qianjiang", "latitude": 30.421, "longitude": 112.8919, "state": "Hubei"}, {"city": "Yuanjiazhuang", "latitude": 33.52319, "longitude": 107.983, "state": "Shaanxi"}, {"city": "Heyuan", "latitude": 23.73333, "longitude": 114.68333, "state": "Guangdong"}, {"city": "Yuanba", "latitude": 32.32563, "longitude": 105.96178, "state": "Sichuan"}, {"city": "Youxian Chengguanzhen", "latitude": 26.99168, "longitude": 113.36062, "state": "Hunan"}, {"city": "Youxi", "latitude": 29.20936, "longitude": 106.14428, "state": "Chongqing"}, {"city": "Youxi", "latitude": 26.17361, "longitude": 118.17889, "state": "Fujian"}, {"city": "Youting", "latitude": 29.43128, "longitude": 105.73757, "state": "Chongqing"}, {"city": "Youguzhuang", "latitude": 39.90583, "longitude": 117.24611, "state": "Tianjin"}, {"city": "Youchou", "latitude": 28.96346, "longitude": 109.14147, "state": "Chongqing"}, {"city": "Yongzhou", "latitude": 26.42389, "longitude": 111.61306, "state": "Hunan"}, {"city": "Yongxing", "latitude": 34.20778, "longitude": 105.32889, "state": "Gansu"}, {"city": "Yongxing", "latitude": 28.98968, "longitude": 106.17612, "state": "Chongqing"}, {"city": "Yongxing Chengguanzhen", "latitude": 26.12408, "longitude": 113.12852, "state": "Hunan"}, {"city": "Yongxin", "latitude": 28.96667, "longitude": 106.53333, "state": "Chongqing"}, {"city": "Yongqing", "latitude": 39.3107, "longitude": 116.49181, "state": "Hebei"}, {"city": "Yongqing", "latitude": 34.74806, "longitude": 106.12694, "state": "Gansu"}, {"city": "Yongning", "latitude": 33.83956, "longitude": 106.18865, "state": "Gansu"}, {"city": "Yongning", "latitude": 28.52449, "longitude": 114.36576, "state": "Jiangxi"}, {"city": "Yongning", "latitude": 27.83333, "longitude": 100.66667, "state": "Yunnan"}, {"city": "Yongning", "latitude": 24.68, "longitude": 118.69, "state": "Fujian"}, {"city": "Yongjia", "latitude": 29.5719, "longitude": 106.00134, "state": "Chongqing"}, {"city": "Yonghe", "latitude": 39.07528, "longitude": 117.47556, "state": "Tianjin"}, {"city": "Zhihe", "latitude": 36.77996, "longitude": 110.63956, "state": "Shanxi"}, {"city": "Yongfu", "latitude": 24.99204, "longitude": 109.99167, "state": "Guangxi"}, {"city": "Yongfeng", "latitude": 27.45493, "longitude": 112.16943, "state": "Hunan"}, {"city": "Yongding", "latitude": 26.04122, "longitude": 101.68642, "state": "Yunnan"}, {"city": "Yongding", "latitude": 25.1986, "longitude": 102.46189, "state": "Yunnan"}, {"city": "Yongdeng Chengguanzhen", "latitude": 36.73361, "longitude": 103.25931, "state": "Gansu"}, {"city": "Yongcong", "latitude": 26.04222, "longitude": 109.13139, "state": "Guizhou"}, {"city": "Yongchun", "latitude": 25.32493, "longitude": 118.28982, "state": "Fujian"}, {"city": "Yongchang Chengguanzhen", "latitude": 38.27053, "longitude": 102.02017, "state": "Gansu"}, {"city": "Yongchuan", "latitude": 29.35376, "longitude": 105.89392, "state": "Chongqing"}, {"city": "Yongbei", "latitude": 26.64623, "longitude": 100.78073, "state": "Yunnan"}, {"city": "Yong\u2019an", "latitude": 31.01894, "longitude": 109.45949, "state": "Chongqing"}, {"city": "Yong\u2019an", "latitude": 25.96367, "longitude": 117.36025, "state": "Fujian"}, {"city": "Yizhuang", "latitude": 34.15651, "longitude": 117.59367, "state": "Jiangsu"}, {"city": "Yi Xian", "latitude": 39.35372, "longitude": 115.49601, "state": "Hebei"}, {"city": "Yizhang Chengguanzhen", "latitude": 25.38323, "longitude": 112.97897, "state": "Hunan"}, {"city": "Yiyang Chengguanzhen", "latitude": 34.51083, "longitude": 112.16222, "state": "Henan"}, {"city": "Yitiaoshan", "latitude": 37.1533, "longitude": 104.062, "state": "Gansu"}, {"city": "Yisuhe", "latitude": 27.76544, "longitude": 112.92683, "state": "Hunan"}, {"city": "Yishui", "latitude": 35.78472, "longitude": 118.62806, "state": "Shandong"}, {"city": "Yishi", "latitude": 35.16497, "longitude": 110.74598, "state": "Shanxi"}, {"city": "Yishan", "latitude": 34.29944, "longitude": 119.25417, "state": "Jiangsu"}, {"city": "Yisa", "latitude": 23.33231, "longitude": 102.44711, "state": "Yunnan"}, {"city": "Yinying", "latitude": 37.93694, "longitude": 113.5575, "state": "Shanxi"}, {"city": "Yinma", "latitude": 36.66083, "longitude": 119.4625, "state": "Shandong"}, {"city": "Yinliu", "latitude": 39.9825, "longitude": 117.39639, "state": "Tianjin"}, {"city": "Eling", "latitude": 28.00045, "longitude": 108.40093, "state": "Guizhou"}, {"city": "Yining", "latitude": 29.03009, "longitude": 114.54001, "state": "Jiangxi"}, {"city": "Zhongxiang", "latitude": 31.16611, "longitude": 112.58306, "state": "Hubei"}, {"city": "Yingxian", "latitude": 39.55912, "longitude": 113.18554, "state": "Shanxi"}, {"city": "Yingtan", "latitude": 28.23333, "longitude": 117.0, "state": "Jiangxi"}, {"city": "Yingshang Chengguanzhen", "latitude": 32.62945, "longitude": 116.27013, "state": "Anhui"}, {"city": "Yinggen", "latitude": 19.03833, "longitude": 109.84, "state": "Hainan"}, {"city": "Yingdu", "latitude": 24.97167, "longitude": 118.24417, "state": "Fujian"}, {"city": "Yingcheng", "latitude": 24.16588, "longitude": 113.41267, "state": "Guangdong"}, {"city": "Chengzhong", "latitude": 30.94454, "longitude": 113.55284, "state": "Hubei"}, {"city": "Yinchuan", "latitude": 38.46806, "longitude": 106.27306, "state": "Ningxia"}, {"city": "Dexing", "latitude": 28.95364, "longitude": 117.57281, "state": "Jiangxi"}, {"city": "Yima", "latitude": 34.73806, "longitude": 111.88389, "state": "Henan"}, {"city": "Yijing", "latitude": 37.83556, "longitude": 113.60194, "state": "Shanxi"}, {"city": "Yigou", "latitude": 35.81139, "longitude": 114.31667, "state": "Henan"}, {"city": "Qingzhou", "latitude": 36.69667, "longitude": 118.47972, "state": "Shandong"}, {"city": "Yichun", "latitude": 27.83333, "longitude": 114.4, "state": "Jiangxi"}, {"city": "Yichuan Chengguanzhen", "latitude": 34.41972, "longitude": 112.41917, "state": "Henan"}, {"city": "Tangxing", "latitude": 35.74521, "longitude": 111.69872, "state": "Shanxi"}, {"city": "Yicheng", "latitude": 31.70472, "longitude": 112.25611, "state": "Hubei"}, {"city": "Yixing", "latitude": 31.36059, "longitude": 119.82016, "state": "Jiangsu"}, {"city": "Yichang", "latitude": 30.71444, "longitude": 111.28472, "state": "Hubei"}, {"city": "Yibin", "latitude": 28.7593, "longitude": 104.63994, "state": "Sichuan"}, {"city": "Yezhou", "latitude": 30.60369, "longitude": 109.72333, "state": "Hubei"}, {"city": "Yeyuan", "latitude": 36.41667, "longitude": 118.5, "state": "Shandong"}, {"city": "Kunyang", "latitude": 33.62, "longitude": 113.345, "state": "Henan"}, {"city": "Yeliguan", "latitude": 34.9644, "longitude": 103.66049, "state": "Gansu"}, {"city": "Yatunpu", "latitude": 26.155, "longitude": 109.62667, "state": "Hunan"}, {"city": "Yatou", "latitude": 37.1566, "longitude": 122.43762, "state": "Shandong"}, {"city": "Yashan", "latitude": 22.1975, "longitude": 109.94194, "state": "Guangxi"}, {"city": "Yaozhou", "latitude": 34.90528, "longitude": 108.97, "state": "Shaanxi"}, {"city": "Yaowan", "latitude": 34.18333, "longitude": 118.06667, "state": "Jiangsu"}, {"city": "Yaoshi", "latitude": 27.63944, "longitude": 109.53028, "state": "Hunan"}, {"city": "Yaoshi", "latitude": 26.29306, "longitude": 110.78917, "state": "Hunan"}, {"city": "Yaoji", "latitude": 34.06667, "longitude": 117.81667, "state": "Jiangsu"}, {"city": "Yaohua", "latitude": 32.12152, "longitude": 118.8717, "state": "Jiangsu"}, {"city": "Yaodu", "latitude": 30.1, "longitude": 117.01667, "state": "Anhui"}, {"city": "Yanzibu", "latitude": 34.50561, "longitude": 117.70222, "state": "Jiangsu"}, {"city": "Yanzhou", "latitude": 35.55278, "longitude": 116.82861, "state": "Shandong"}, {"city": "Yantian", "latitude": 26.85333, "longitude": 119.8575, "state": "Fujian"}, {"city": "Yantan", "latitude": 29.27396, "longitude": 104.8738, "state": "Sichuan"}, {"city": "Yantai", "latitude": 37.47649, "longitude": 121.44081, "state": "Shandong"}, {"city": "Yansi", "latitude": 29.82365, "longitude": 118.33792, "state": "Anhui"}, {"city": "Yanshan", "latitude": 38.05735, "longitude": 117.22466, "state": "Hebei"}, {"city": "Yanmen", "latitude": 27.855, "longitude": 109.74028, "state": "Hunan"}, {"city": "Anling", "latitude": 34.1089, "longitude": 114.16983, "state": "Henan"}, {"city": "Yanling", "latitude": 29.53065, "longitude": 104.66108, "state": "Sichuan"}, {"city": "Yanliang", "latitude": 34.65918, "longitude": 109.22921, "state": "Shaanxi"}, {"city": "Yankou", "latitude": 30.35115, "longitude": 106.28669, "state": "Sichuan"}, {"city": "Yanjing", "latitude": 29.94494, "longitude": 106.35025, "state": "Chongqing"}, {"city": "Yanjing", "latitude": 27.42699, "longitude": 101.50968, "state": "Sichuan"}, {"city": "Yanjin Chengguanzhen", "latitude": 35.14083, "longitude": 114.18778, "state": "Henan"}, {"city": "Yanjing", "latitude": 28.08228, "longitude": 104.19497, "state": "Yunnan"}, {"city": "Heyou", "latitude": 30.08256, "longitude": 107.35174, "state": "Chongqing"}, {"city": "Yanjia", "latitude": 29.82758, "longitude": 106.99734, "state": "Chongqing"}, {"city": "Yangshi", "latitude": 30.81431, "longitude": 109.04568, "state": "Chongqing"}, {"city": "Yangzhou", "latitude": 32.39722, "longitude": 119.43583, "state": "Jiangsu"}, {"city": "Yangzhong", "latitude": 26.70556, "longitude": 119.37444, "state": "Fujian"}, {"city": "Yangxin", "latitude": 37.64472, "longitude": 117.57667, "state": "Shandong"}, {"city": "Yangzhou", "latitude": 33.22192, "longitude": 107.54267, "state": "Shaanxi"}, {"city": "Yuanyang Chengguanzhen", "latitude": 35.05222, "longitude": 113.96389, "state": "Henan"}, {"city": "Yanguan", "latitude": 34.26389, "longitude": 105.46389, "state": "Gansu"}, {"city": "Yangtun", "latitude": 34.88333, "longitude": 116.88333, "state": "Jiangsu"}, {"city": "Yangtou", "latitude": 27.68944, "longitude": 109.41389, "state": "Guizhou"}, {"city": "Yangshuo", "latitude": 24.78081, "longitude": 110.48967, "state": "Guangxi"}, {"city": "Zhangjiagang", "latitude": 31.865, "longitude": 120.53889, "state": "Jiangsu"}, {"city": "Yangsha", "latitude": 34.83155, "longitude": 103.66816, "state": "Gansu"}, {"city": "Yangri", "latitude": 31.73986, "longitude": 110.81493, "state": "Hubei"}, {"city": "Yangquan", "latitude": 37.8575, "longitude": 113.56333, "state": "Shanxi"}, {"city": "Yangpu", "latitude": 31.26193, "longitude": 121.51904, "state": "Shanghai"}, {"city": "Yangliuqing", "latitude": 39.1375, "longitude": 116.99972, "state": "Tianjin"}, {"city": "Yangliujie", "latitude": 26.36667, "longitude": 107.5, "state": "Guizhou"}, {"city": "Yangling", "latitude": 34.27173, "longitude": 108.07891, "state": "Shaanxi"}, {"city": "Yangjinzhuang", "latitude": 39.885, "longitude": 117.39806, "state": "Tianjin"}, {"city": "Yangjiaying", "latitude": 39.48055, "longitude": 111.69301, "state": "Shanxi"}, {"city": "Yangjiapo", "latitude": 39.29417, "longitude": 117.8875, "state": "Tianjin"}, {"city": "Yangjiao", "latitude": 29.3979, "longitude": 107.60649, "state": "Chongqing"}, {"city": "Yangdian", "latitude": 33.93332, "longitude": 106.42656, "state": "Gansu"}, {"city": "Yanghou", "latitude": 26.64083, "longitude": 118.50806, "state": "Fujian"}, {"city": "Yanghe", "latitude": 38.27852, "longitude": 106.24776, "state": "Ningxia"}, {"city": "Yanggu", "latitude": 36.11056, "longitude": 115.77528, "state": "Shandong"}, {"city": "Yangezhuang", "latitude": 39.99639, "longitude": 117.69028, "state": "Tianjin"}, {"city": "Yangcun", "latitude": 39.36389, "longitude": 117.06028, "state": "Tianjin"}, {"city": "Yangcheng", "latitude": 35.4922, "longitude": 112.40428, "state": "Shanxi"}, {"city": "Yandong", "latitude": 26.09861, "longitude": 108.96639, "state": "Guizhou"}, {"city": "Huamachi", "latitude": 37.7852, "longitude": 107.40322, "state": "Ningxia"}, {"city": "Qihe", "latitude": 36.80244, "longitude": 116.75757, "state": "Shandong"}, {"city": "Yancheng Chengguanzhen", "latitude": 33.58472, "longitude": 113.98667, "state": "Henan"}, {"city": "Yancheng", "latitude": 33.3575, "longitude": 120.1573, "state": "Jiangsu"}, {"city": "Yan\u2019an", "latitude": 36.59889, "longitude": 109.49167, "state": "Shaanxi"}, {"city": "Yakoucun", "latitude": 24.67194, "longitude": 118.63722, "state": "Fujian"}, {"city": "Yajiang", "latitude": 29.45477, "longitude": 107.37369, "state": "Chongqing"}, {"city": "Yacheng", "latitude": 34.32278, "longitude": 105.13528, "state": "Gansu"}, {"city": "Yacha", "latitude": 19.23056, "longitude": 109.4475, "state": "Hainan"}, {"city": "Ya'an", "latitude": 29.98521, "longitude": 102.999, "state": "Sichuan"}, {"city": "Tongshan", "latitude": 34.18045, "longitude": 117.15707, "state": "Jiangsu"}, {"city": "Xuyong", "latitude": 28.16992, "longitude": 105.43452, "state": "Sichuan"}, {"city": "Xuyang", "latitude": 29.45941, "longitude": 104.41947, "state": "Sichuan"}, {"city": "Xucheng", "latitude": 20.33025, "longitude": 110.16643, "state": "Guangdong"}, {"city": "Ansu", "latitude": 39.0175, "longitude": 115.65063, "state": "Hebei"}, {"city": "Shangrao", "latitude": 28.45179, "longitude": 117.94287, "state": "Jiangxi"}, {"city": "Xunyi Chengguanzhen", "latitude": 35.11732, "longitude": 108.31275, "state": "Shaanxi"}, {"city": "Xunyang", "latitude": 32.82389, "longitude": 109.36528, "state": "Shaanxi"}, {"city": "Xun Xian Chengguanzhen", "latitude": 35.66473, "longitude": 114.53458, "state": "Henan"}, {"city": "Xunsi", "latitude": 28.10077, "longitude": 104.56063, "state": "Sichuan"}, {"city": "Xunchang", "latitude": 28.45433, "longitude": 104.71498, "state": "Sichuan"}, {"city": "Xujiang", "latitude": 26.83945, "longitude": 116.32011, "state": "Jiangxi"}, {"city": "Xuhui", "latitude": 31.19594, "longitude": 121.44709, "state": "Shanghai"}, {"city": "Funan Chengguanzhen", "latitude": 32.63678, "longitude": 115.61494, "state": "Anhui"}, {"city": "Mingxi", "latitude": 26.35885, "longitude": 117.19694, "state": "Fujian"}, {"city": "Xuchang", "latitude": 34.03189, "longitude": 113.86299, "state": "Henan"}, {"city": "Xuantan", "latitude": 29.20856, "longitude": 105.56974, "state": "Sichuan"}, {"city": "Zhushan", "latitude": 29.99452, "longitude": 109.47907, "state": "Hubei"}, {"city": "Xuanzhou", "latitude": 30.9525, "longitude": 118.75528, "state": "Anhui"}, {"city": "Xiyan", "latitude": 26.61639, "longitude": 110.47361, "state": "Hunan"}, {"city": "Leping", "latitude": 37.61469, "longitude": 113.66499, "state": "Shanxi"}, {"city": "Xixiang", "latitude": 35.16278, "longitude": 112.865, "state": "Henan"}, {"city": "Xixiang", "latitude": 32.98703, "longitude": 107.764, "state": "Shaanxi"}, {"city": "Longquan", "latitude": 36.69525, "longitude": 110.95564, "state": "Shanxi"}, {"city": "Xi Xian Chengguanzhen", "latitude": 32.34361, "longitude": 114.72944, "state": "Henan"}, {"city": "Zijin", "latitude": 33.28917, "longitude": 111.47444, "state": "Henan"}, {"city": "Xixi", "latitude": 27.69375, "longitude": 110.95333, "state": "Hunan"}, {"city": "Xiuying", "latitude": 20.00073, "longitude": 110.29359, "state": "Hainan"}, {"city": "Xiuwu Chengguanzhen", "latitude": 35.23111, "longitude": 113.43806, "state": "Henan"}, {"city": "Xiushan", "latitude": 24.10999, "longitude": 102.76153, "state": "Yunnan"}, {"city": "Xiuqi", "latitude": 31.87737, "longitude": 108.78159, "state": "Chongqing"}, {"city": "Xiulin", "latitude": 29.71667, "longitude": 112.4, "state": "Hubei"}, {"city": "Xiugu", "latitude": 27.91132, "longitude": 116.77637, "state": "Jiangxi"}, {"city": "Xituo", "latitude": 30.40793, "longitude": 108.21732, "state": "Chongqing"}, {"city": "Xitangtuo", "latitude": 39.3224, "longitude": 117.48821, "state": "Tianjin"}, {"city": "Xishan", "latitude": 25.68528, "longitude": 108.96389, "state": "Guizhou"}, {"city": "Xisa", "latitude": 23.45, "longitude": 104.70775, "state": "Yunnan"}, {"city": "Baicheng", "latitude": 33.38639, "longitude": 114.01583, "state": "Henan"}, {"city": "Xiongzhou", "latitude": 38.99159, "longitude": 116.10053, "state": "Hebei"}, {"city": "Xiongzhou", "latitude": 25.11667, "longitude": 114.3, "state": "Guangdong"}, {"city": "Guixi", "latitude": 28.28857, "longitude": 117.21329, "state": "Jiangxi"}, {"city": "Xiongshan", "latitude": 27.36439, "longitude": 118.85711, "state": "Fujian"}, {"city": "Xinzhou", "latitude": 38.40917, "longitude": 112.73333, "state": "Shanxi"}, {"city": "Xinzhou", "latitude": 30.86667, "longitude": 114.8, "state": "Hubei"}, {"city": "Xinzhou", "latitude": 24.87234, "longitude": 105.35117, "state": "Guangxi"}, {"city": "Xinzhou", "latitude": 19.71446, "longitude": 109.31146, "state": "Hainan"}, {"city": "Xinzhi", "latitude": 36.49889, "longitude": 111.70472, "state": "Shanxi"}, {"city": "Xinhualu", "latitude": 34.39633, "longitude": 113.72466, "state": "Henan"}, {"city": "Xinzheng", "latitude": 31.27491, "longitude": 106.28714, "state": "Sichuan"}, {"city": "Xinzhan", "latitude": 28.38833, "longitude": 106.85667, "state": "Guizhou"}, {"city": "Xinzhai", "latitude": 36.4, "longitude": 118.61667, "state": "Shandong"}, {"city": "Xinzhai", "latitude": 33.64387, "longitude": 104.68386, "state": "Gansu"}, {"city": "Xinyu", "latitude": 27.83906, "longitude": 114.84591, "state": "Jiangxi"}, {"city": "Xinyu", "latitude": 27.80429, "longitude": 114.93335, "state": "Jiangxi"}, {"city": "Hancheng", "latitude": 32.51861, "longitude": 112.35222, "state": "Henan"}, {"city": "Xinyang", "latitude": 32.12278, "longitude": 114.06556, "state": "Henan"}, {"city": "Xinxing", "latitude": 36.04917, "longitude": 119.54139, "state": "Shandong"}, {"city": "Xincheng", "latitude": 22.70155, "longitude": 112.22464, "state": "Guangdong"}, {"city": "Xinxiang", "latitude": 35.19033, "longitude": 113.80151, "state": "Henan"}, {"city": "Xinji", "latitude": 31.6232, "longitude": 114.874, "state": "Henan"}, {"city": "Xintian", "latitude": 30.69866, "longitude": 108.40193, "state": "Chongqing"}, {"city": "Longquan", "latitude": 25.90139, "longitude": 112.21167, "state": "Hunan"}, {"city": "Xintai", "latitude": 35.90056, "longitude": 117.75194, "state": "Shandong"}, {"city": "Xinshiba", "latitude": 28.97091, "longitude": 102.77126, "state": "Sichuan"}, {"city": "Xinshi", "latitude": 31.04704, "longitude": 113.14098, "state": "Hubei"}, {"city": "Xinshan", "latitude": 25.13784, "longitude": 115.38625, "state": "Jiangxi"}, {"city": "Fusui", "latitude": 22.63944, "longitude": 107.9075, "state": "Guangxi"}, {"city": "Xinmin", "latitude": 30.90343, "longitude": 109.46682, "state": "Chongqing"}, {"city": "Xinmiao", "latitude": 29.65528, "longitude": 107.04988, "state": "Chongqing"}, {"city": "Xinmian", "latitude": 29.23992, "longitude": 102.37208, "state": "Sichuan"}, {"city": "Xinling", "latitude": 31.04371, "longitude": 110.33213, "state": "Hubei"}, {"city": "Xinli", "latitude": 39.08472, "longitude": 117.33556, "state": "Tianjin"}, {"city": "Xinkaikou", "latitude": 39.67889, "longitude": 117.19028, "state": "Tianjin"}, {"city": "Jingxi", "latitude": 23.13711, "longitude": 106.41316, "state": "Guangxi"}, {"city": "Longxing", "latitude": 35.61297, "longitude": 111.21925, "state": "Shanxi"}, {"city": "Xinji", "latitude": 37.92595, "longitude": 115.21907, "state": "Hebei"}, {"city": "Xining", "latitude": 36.62554, "longitude": 101.75739, "state": "Qinghai"}, {"city": "Xinhuang", "latitude": 27.37359, "longitude": 109.13376, "state": "Hunan"}, {"city": "Shangmei", "latitude": 27.74278, "longitude": 111.29556, "state": "Hunan"}, {"city": "Xinhua", "latitude": 26.88838, "longitude": 102.93324, "state": "Yunnan"}, {"city": "Xinhua", "latitude": 23.6431, "longitude": 105.65317, "state": "Yunnan"}, {"city": "Xinhe", "latitude": 37.52441, "longitude": 115.24288, "state": "Hebei"}, {"city": "Xinhe", "latitude": 36.925, "longitude": 119.59306, "state": "Shandong"}, {"city": "Suohe", "latitude": 34.78722, "longitude": 113.35806, "state": "Henan"}, {"city": "Weifen", "latitude": 38.48064, "longitude": 111.16664, "state": "Shanxi"}, {"city": "Zhongcheng", "latitude": 28.30954, "longitude": 105.23075, "state": "Sichuan"}, {"city": "Longzhou", "latitude": 38.43814, "longitude": 114.54953, "state": "Hebei"}, {"city": "Xingtai", "latitude": 37.06217, "longitude": 114.49272, "state": "Hebei"}, {"city": "Xingren", "latitude": 25.43333, "longitude": 105.23333, "state": "Guizhou"}, {"city": "Xinglong", "latitude": 29.88931, "longitude": 106.70622, "state": "Chongqing"}, {"city": "Xinglong", "latitude": 30.65723, "longitude": 109.44599, "state": "Chongqing"}, {"city": "Xinglong", "latitude": 29.25841, "longitude": 109.03714, "state": "Chongqing"}, {"city": "Xingguo", "latitude": 34.85861, "longitude": 105.66861, "state": "Gansu"}, {"city": "Xingguo", "latitude": 29.92253, "longitude": 115.30208, "state": "Hubei"}, {"city": "Ankang", "latitude": 32.68, "longitude": 109.01722, "state": "Shaanxi"}, {"city": "Xing\u2019an", "latitude": 25.61405, "longitude": 110.66854, "state": "Guangxi"}, {"city": "Xindu", "latitude": 30.82236, "longitude": 104.15742, "state": "Sichuan"}, {"city": "Xindou", "latitude": 31.39648, "longitude": 100.67847, "state": "Sichuan"}, {"city": "Wenfeng", "latitude": 31.40495, "longitude": 109.23459, "state": "Chongqing"}, {"city": "Xindian", "latitude": 36.7975, "longitude": 118.29444, "state": "Shandong"}, {"city": "Xindian", "latitude": 26.12238, "longitude": 119.30153, "state": "Fujian"}, {"city": "Xindian", "latitude": 24.61006, "longitude": 118.24068, "state": "Fujian"}, {"city": "Xindi", "latitude": 29.81667, "longitude": 113.46667, "state": "Hubei"}, {"city": "Feicheng", "latitude": 36.24861, "longitude": 116.76583, "state": "Shandong"}, {"city": "Xincheng", "latitude": 35.3, "longitude": 111.66417, "state": "Shanxi"}, {"city": "Xincheng", "latitude": 34.67431, "longitude": 103.5868, "state": "Gansu"}, {"city": "Xincheng", "latitude": 28.01512, "longitude": 102.84233, "state": "Sichuan"}, {"city": "Gutian", "latitude": 26.58701, "longitude": 118.73581, "state": "Fujian"}, {"city": "Xincheng", "latitude": 24.08613, "longitude": 108.65261, "state": "Guangxi"}, {"city": "Xinshi", "latitude": 29.95996, "longitude": 107.10408, "state": "Chongqing"}, {"city": "Gul\u00fc", "latitude": 32.74389, "longitude": 114.97611, "state": "Henan"}, {"city": "Xin\u2019anjiang", "latitude": 29.47478, "longitude": 119.27148, "state": "Zhejiang"}, {"city": "Xin\u2019an Chengguanzhen", "latitude": 34.7175, "longitude": 112.13556, "state": "Henan"}, {"city": "Xinyi", "latitude": 34.38424, "longitude": 118.34617, "state": "Jiangsu"}, {"city": "Xin\u2019an", "latitude": 32.43799, "longitude": 118.40888, "state": "Anhui"}, {"city": "Xinan", "latitude": 26.72, "longitude": 119.85556, "state": "Fujian"}, {"city": "Sanshui", "latitude": 23.15486, "longitude": 112.89161, "state": "Guangdong"}, {"city": "Xinli", "latitude": 39.84417, "longitude": 108.73472, "state": "Inner Mongolia"}, {"city": "Ximeicun", "latitude": 24.98773, "longitude": 118.3858, "state": "Fujian"}, {"city": "Xiling", "latitude": 26.81444, "longitude": 119.04722, "state": "Fujian"}, {"city": "Xihuachi", "latitude": 35.81639, "longitude": 108.0125, "state": "Gansu"}, {"city": "Wacheng Neighborhood", "latitude": 33.78333, "longitude": 114.51667, "state": "Henan"}, {"city": "Xihe", "latitude": 31.68635, "longitude": 113.46585, "state": "Hubei"}, {"city": "Xigang", "latitude": 38.55258, "longitude": 106.34805, "state": "Ningxia"}, {"city": "Nanjie", "latitude": 35.73556, "longitude": 107.63528, "state": "Gansu"}, {"city": "Xiema", "latitude": 29.77415, "longitude": 106.3688, "state": "Chongqing"}, {"city": "Xiedian", "latitude": 35.42816, "longitude": 110.81181, "state": "Shanxi"}, {"city": "Xidu", "latitude": 26.95629, "longitude": 112.36829, "state": "Hunan"}, {"city": "Xiditou", "latitude": 39.25375, "longitude": 117.34814, "state": "Tianjin"}, {"city": "Xichang", "latitude": 27.89642, "longitude": 102.26341, "state": "Sichuan"}, {"city": "Xichang", "latitude": 21.63333, "longitude": 108.95, "state": "Guangxi"}, {"city": "Xipu", "latitude": 23.69906, "longitude": 117.42511, "state": "Fujian"}, {"city": "Xibing", "latitude": 26.98139, "longitude": 119.72472, "state": "Fujian"}, {"city": "Xiazhuang", "latitude": 36.44917, "longitude": 119.83556, "state": "Shandong"}, {"city": "Xiazhuang", "latitude": 34.91611, "longitude": 118.63889, "state": "Shandong"}, {"city": "Xiazhuang", "latitude": 25.4, "longitude": 100.83333, "state": "Yunnan"}, {"city": "Xiazhen", "latitude": 34.80222, "longitude": 117.11167, "state": "Shandong"}, {"city": "Xiayi Chengguanzhen", "latitude": 34.2368, "longitude": 116.11608, "state": "Henan"}, {"city": "Yaofeng", "latitude": 35.13861, "longitude": 111.21222, "state": "Shanxi"}, {"city": "Xiawuqi", "latitude": 39.61361, "longitude": 117.05333, "state": "Tianjin"}, {"city": "Xiasi", "latitude": 26.51667, "longitude": 107.78333, "state": "Guizhou"}, {"city": "Haining", "latitude": 30.53629, "longitude": 120.68638, "state": "Zhejiang"}, {"city": "Gongyi", "latitude": 34.75534, "longitude": 113.01137, "state": "Henan"}, {"city": "Xiaoxita", "latitude": 30.77135, "longitude": 111.32146, "state": "Hubei"}, {"city": "Xiaoxi", "latitude": 24.35249, "longitude": 117.29071, "state": "Fujian"}, {"city": "Xiaoweizhai", "latitude": 26.19028, "longitude": 107.5125, "state": "Guizhou"}, {"city": "Xiaoshan", "latitude": 30.16746, "longitude": 120.25883, "state": "Zhejiang"}, {"city": "Xiaoshajiang", "latitude": 27.52139, "longitude": 110.74806, "state": "Hunan"}, {"city": "Xiaomian", "latitude": 30.12268, "longitude": 106.53435, "state": "Chongqing"}, {"city": "Xiaolongmen", "latitude": 27.80194, "longitude": 110.16056, "state": "Hunan"}, {"city": "Xiaolingwei", "latitude": 32.03244, "longitude": 118.854, "state": "Jiangsu"}, {"city": "Xiaojiang", "latitude": 22.27296, "longitude": 109.55184, "state": "Guangxi"}, {"city": "Xiaohenglong", "latitude": 27.605, "longitude": 110.51694, "state": "Hunan"}, {"city": "Xiaogang", "latitude": 28.23333, "longitude": 116.58333, "state": "Jiangxi"}, {"city": "Xiaogan", "latitude": 30.92689, "longitude": 113.92221, "state": "Hubei"}, {"city": "Xiaodongzhuang", "latitude": 39.06029, "longitude": 117.41544, "state": "Tianjin"}, {"city": "Xiaodian", "latitude": 39.25412, "longitude": 117.22747, "state": "Tianjin"}, {"city": "Xiaodian", "latitude": 37.73639, "longitude": 112.55639, "state": "Shanxi"}, {"city": "Xiaochuan", "latitude": 33.6806, "longitude": 105.56156, "state": "Gansu"}, {"city": "Xianyang", "latitude": 34.33778, "longitude": 108.70261, "state": "Shaanxi"}, {"city": "Xianxi", "latitude": 26.33472, "longitude": 109.64306, "state": "Hunan"}, {"city": "Leshou", "latitude": 38.18956, "longitude": 116.11984, "state": "Hebei"}, {"city": "Xiantao", "latitude": 30.3708, "longitude": 113.44294, "state": "Hubei"}, {"city": "Xiantan", "latitude": 28.81859, "longitude": 106.1927, "state": "Sichuan"}, {"city": "Xianshuigu", "latitude": 38.985, "longitude": 117.38278, "state": "Tianjin"}, {"city": "Xianrenwan", "latitude": 27.75444, "longitude": 110.32972, "state": "Hunan"}, {"city": "Xiann\u00fc", "latitude": 32.42806, "longitude": 119.56048, "state": "Jiangsu"}, {"city": "Xianning", "latitude": 29.84347, "longitude": 114.32201, "state": "Hubei"}, {"city": "Xianju", "latitude": 28.8547, "longitude": 120.73168, "state": "Zhejiang"}, {"city": "Xiangzhou", "latitude": 36.16444, "longitude": 119.41889, "state": "Shandong"}, {"city": "Xiangzhou", "latitude": 23.97526, "longitude": 109.70081, "state": "Guangxi"}, {"city": "Zhuhai", "latitude": 22.27694, "longitude": 113.56778, "state": "Guangdong"}, {"city": "Xiangcheng", "latitude": 25.46687, "longitude": 100.56248, "state": "Yunnan"}, {"city": "Guhan", "latitude": 36.53547, "longitude": 113.02528, "state": "Shanxi"}, {"city": "Wenxing", "latitude": 28.68208, "longitude": 112.87864, "state": "Hunan"}, {"city": "Xiangxiang", "latitude": 27.73333, "longitude": 112.53333, "state": "Hunan"}, {"city": "Xiangtan", "latitude": 27.85, "longitude": 112.9, "state": "Hunan"}, {"city": "Xiangshui", "latitude": 30.655, "longitude": 108.193, "state": "Chongqing"}, {"city": "Menghai", "latitude": 21.95266, "longitude": 100.4353, "state": "Yunnan"}, {"city": "Changning", "latitude": 35.97983, "longitude": 110.82211, "state": "Shanxi"}, {"city": "Xiangkou", "latitude": 29.32801, "longitude": 107.76417, "state": "Chongqing"}, {"city": "Xianghu", "latitude": 25.8, "longitude": 116.0, "state": "Jiangxi"}, {"city": "Xianghe", "latitude": 39.75845, "longitude": 116.99943, "state": "Hebei"}, {"city": "Zhangwan", "latitude": 32.08326, "longitude": 112.16667, "state": "Hubei"}, {"city": "Xiangyang", "latitude": 32.0422, "longitude": 112.14479, "state": "Hubei"}, {"city": "Xiangdong", "latitude": 27.65207, "longitude": 113.72406, "state": "Jiangxi"}, {"city": "Xiangcheng Chengguanzhen", "latitude": 33.84703, "longitude": 113.4778, "state": "Henan"}, {"city": "Xianfeng", "latitude": 29.21004, "longitude": 106.30012, "state": "Chongqing"}, {"city": "Xiancun", "latitude": 26.93861, "longitude": 119.36028, "state": "Fujian"}, {"city": "Xi\u2019an", "latitude": 34.25833, "longitude": 108.92861, "state": "Shaanxi"}, {"city": "Xiamen", "latitude": 24.47979, "longitude": 118.08187, "state": "Fujian"}, {"city": "Xialiang", "latitude": 32.07673, "longitude": 106.77151, "state": "Sichuan"}, {"city": "Kajiaman", "latitude": 35.08851, "longitude": 102.91393, "state": "Gansu"}, {"city": "Xiajin", "latitude": 36.95922, "longitude": 116.00011, "state": "Shandong"}, {"city": "Xiajiang", "latitude": 25.75556, "longitude": 108.69194, "state": "Guizhou"}, {"city": "Xiahu", "latitude": 26.61056, "longitude": 119.94833, "state": "Fujian"}, {"city": "Xiagezhuang", "latitude": 36.69306, "longitude": 120.43472, "state": "Shandong"}, {"city": "Xiacang", "latitude": 39.78639, "longitude": 117.41667, "state": "Tianjin"}, {"city": "Xiabaishi", "latitude": 26.81528, "longitude": 119.67917, "state": "Fujian"}, {"city": "Wuzhou", "latitude": 23.48054, "longitude": 111.28848, "state": "Guangxi"}, {"city": "Wuzhong", "latitude": 37.9867, "longitude": 106.201, "state": "Ningxia"}, {"city": "Wuzhen", "latitude": 30.74536, "longitude": 120.4851, "state": "Zhejiang"}, {"city": "Yancheng", "latitude": 38.91538, "longitude": 111.86928, "state": "Shanxi"}, {"city": "Wuyun", "latitude": 28.65388, "longitude": 120.06693, "state": "Zhejiang"}, {"city": "Wuyuan", "latitude": 30.51539, "longitude": 120.94856, "state": "Zhejiang"}, {"city": "Wuyuan", "latitude": 29.24972, "longitude": 117.85472, "state": "Jiangxi"}, {"city": "Wuyucun", "latitude": 24.33551, "longitude": 118.14489, "state": "Fujian"}, {"city": "Wuyi", "latitude": 37.79957, "longitude": 115.89058, "state": "Hebei"}, {"city": "Wuquan", "latitude": 33.44408, "longitude": 113.5709, "state": "Henan"}, {"city": "Wuyang", "latitude": 31.9925, "longitude": 116.24722, "state": "Anhui"}, {"city": "Wujin", "latitude": 30.41131, "longitude": 103.81302, "state": "Sichuan"}, {"city": "Wuyang", "latitude": 26.74278, "longitude": 110.32833, "state": "Hunan"}, {"city": "Wuxue", "latitude": 29.85058, "longitude": 115.5525, "state": "Hubei"}, {"city": "Wuxuan", "latitude": 23.59674, "longitude": 109.65914, "state": "Guangxi"}, {"city": "Fengzhou", "latitude": 36.84278, "longitude": 112.85417, "state": "Shanxi"}, {"city": "Wushan", "latitude": 31.07749, "longitude": 109.87639, "state": "Chongqing"}, {"city": "Wuxi", "latitude": 31.56887, "longitude": 120.28857, "state": "Jiangsu"}, {"city": "Wutongshu", "latitude": 38.18333, "longitude": 106.28333, "state": "Ningxia"}, {"city": "Tongxiang", "latitude": 30.63287, "longitude": 120.56081, "state": "Zhejiang"}, {"city": "Taicheng", "latitude": 38.73102, "longitude": 113.228, "state": "Shanxi"}, {"city": "Wushan", "latitude": 34.72083, "longitude": 104.88583, "state": "Gansu"}, {"city": "Sangyuan", "latitude": 37.6265, "longitude": 116.38428, "state": "Hebei"}, {"city": "Wuqiao", "latitude": 30.77967, "longitude": 108.45506, "state": "Chongqing"}, {"city": "Wuqi", "latitude": 36.92631, "longitude": 108.17171, "state": "Shaanxi"}, {"city": "Dongyang", "latitude": 29.26778, "longitude": 120.22528, "state": "Zhejiang"}, {"city": "Wuming", "latitude": 23.16082, "longitude": 108.27296, "state": "Guangxi"}, {"city": "Wuma", "latitude": 33.0635, "longitude": 105.44253, "state": "Gansu"}, {"city": "Huaibin Chengguanzhen", "latitude": 32.46397, "longitude": 115.40812, "state": "Henan"}, {"city": "Wuling", "latitude": 30.50595, "longitude": 108.25884, "state": "Chongqing"}, {"city": "Changde", "latitude": 29.03205, "longitude": 111.69844, "state": "Hunan"}, {"city": "Wujing", "latitude": 36.45, "longitude": 118.4, "state": "Shandong"}, {"city": "Wujiashan", "latitude": 30.61702, "longitude": 114.13166, "state": "Hubei"}, {"city": "Wujia", "latitude": 29.63482, "longitude": 105.3911, "state": "Chongqing"}, {"city": "Wujia", "latitude": 21.76667, "longitude": 109.03333, "state": "Guangxi"}, {"city": "Wuji", "latitude": 38.17677, "longitude": 114.96767, "state": "Hebei"}, {"city": "Wuhu", "latitude": 31.35259, "longitude": 118.42947, "state": "Anhui"}, {"city": "Wuhe Chengguanzhen", "latitude": 33.1386, "longitude": 117.86582, "state": "Anhui"}, {"city": "Wuhan", "latitude": 30.58333, "longitude": 114.26667, "state": "Hubei"}, {"city": "Wuhai", "latitude": 39.68442, "longitude": 106.81583, "state": "Inner Mongolia"}, {"city": "Wugui", "latitude": 29.81882, "longitude": 105.75563, "state": "Chongqing"}, {"city": "Yakou", "latitude": 33.29649, "longitude": 113.52351, "state": "Henan"}, {"city": "Wugang", "latitude": 26.7279, "longitude": 110.63198, "state": "Hunan"}, {"city": "Wufeng", "latitude": 30.2, "longitude": 110.69081, "state": "Hubei"}, {"city": "Wudong", "latitude": 30.2099, "longitude": 107.34127, "state": "Chongqing"}, {"city": "Wuda", "latitude": 39.49944, "longitude": 106.71167, "state": "Inner Mongolia"}, {"city": "Laocheng", "latitude": 37.14278, "longitude": 115.88833, "state": "Shandong"}, {"city": "Wucheng", "latitude": 31.2837, "longitude": 117.90193, "state": "Anhui"}, {"city": "Wucheng", "latitude": 29.60077, "longitude": 118.17495, "state": "Anhui"}, {"city": "Wenzhou", "latitude": 27.99942, "longitude": 120.66682, "state": "Zhejiang"}, {"city": "Wenquan", "latitude": 34.93528, "longitude": 113.07333, "state": "Henan"}, {"city": "Wenxian Chengguanzhen", "latitude": 32.94712, "longitude": 104.68139, "state": "Gansu"}, {"city": "Tongcheng", "latitude": 35.35468, "longitude": 111.21608, "state": "Shanxi"}, {"city": "Fengcheng", "latitude": 37.43278, "longitude": 112.02333, "state": "Shanxi"}, {"city": "Wenshui", "latitude": 28.45056, "longitude": 106.52667, "state": "Guizhou"}, {"city": "Wenshang", "latitude": 35.7275, "longitude": 116.49611, "state": "Shandong"}, {"city": "Wenquan", "latitude": 31.35911, "longitude": 108.52224, "state": "Chongqing"}, {"city": "Wenquan", "latitude": 30.84928, "longitude": 115.6991, "state": "Hubei"}, {"city": "Wenping", "latitude": 27.19306, "longitude": 103.5273, "state": "Yunnan"}, {"city": "Wenling", "latitude": 28.37524, "longitude": 121.38416, "state": "Zhejiang"}, {"city": "Wenlin", "latitude": 29.99814, "longitude": 104.13992, "state": "Sichuan"}, {"city": "Wenjiang", "latitude": 28.38812, "longitude": 104.56339, "state": "Sichuan"}, {"city": "Wenheng", "latitude": 25.66742, "longitude": 116.75429, "state": "Fujian"}, {"city": "Wenfeng", "latitude": 27.19899, "longitude": 115.11963, "state": "Jiangxi"}, {"city": "Tianfu", "latitude": 37.26366, "longitude": 122.05228, "state": "Shandong"}, {"city": "Wenchang", "latitude": 19.55158, "longitude": 110.80279, "state": "Hainan"}, {"city": "Wen\u2019an", "latitude": 38.86502, "longitude": 116.45501, "state": "Hebei"}, {"city": "Weizhou", "latitude": 31.49267, "longitude": 103.58491, "state": "Sichuan"}, {"city": "Weiyuan", "latitude": 36.85316, "longitude": 101.99169, "state": "Qinghai"}, {"city": "Qingyuan", "latitude": 35.13674, "longitude": 104.2221, "state": "Gansu"}, {"city": "Weiyuan", "latitude": 23.46831, "longitude": 100.68354, "state": "Yunnan"}, {"city": "Mingzhou", "latitude": 36.98013, "longitude": 115.26199, "state": "Hebei"}, {"city": "Weixian", "latitude": 36.35651, "longitude": 114.93372, "state": "Hebei"}, {"city": "Weituo", "latitude": 30.03983, "longitude": 106.14701, "state": "Chongqing"}, {"city": "Weitang", "latitude": 30.85021, "longitude": 120.91138, "state": "Zhejiang"}, {"city": "Weishui", "latitude": 38.03361, "longitude": 114.13668, "state": "Hebei"}, {"city": "Weishi Chengguanzhen", "latitude": 34.41361, "longitude": 114.18722, "state": "Henan"}, {"city": "Weishan", "latitude": 25.22912, "longitude": 100.30683, "state": "Yunnan"}, {"city": "Chang\u2019an", "latitude": 34.15111, "longitude": 108.945, "state": "Shaanxi"}, {"city": "Weinan", "latitude": 34.50355, "longitude": 109.50891, "state": "Shaanxi"}, {"city": "Weimiao", "latitude": 34.58333, "longitude": 117.06667, "state": "Jiangsu"}, {"city": "Weiji", "latitude": 34.03333, "longitude": 117.95, "state": "Jiangsu"}, {"city": "Weihai", "latitude": 37.50914, "longitude": 122.11356, "state": "Shandong"}, {"city": "Weifang", "latitude": 36.71, "longitude": 119.10194, "state": "Shandong"}, {"city": "Wayaobu", "latitude": 37.13611, "longitude": 109.65972, "state": "Shaanxi"}, {"city": "Wayao", "latitude": 34.38333, "longitude": 118.23333, "state": "Jiangsu"}, {"city": "Wanzhi", "latitude": 31.14687, "longitude": 118.56708, "state": "Anhui"}, {"city": "Wanxian", "latitude": 30.81601, "longitude": 108.37407, "state": "Chongqing"}, {"city": "Wantouqiao", "latitude": 26.84111, "longitude": 110.61944, "state": "Hunan"}, {"city": "Wanshun", "latitude": 30.04006, "longitude": 106.97159, "state": "Chongqing"}, {"city": "Wanshui", "latitude": 26.73528, "longitude": 107.98722, "state": "Guizhou"}, {"city": "Wansheng", "latitude": 28.9629, "longitude": 106.92844, "state": "Chongqing"}, {"city": "Wanshan", "latitude": 27.5232, "longitude": 109.206, "state": "Guizhou"}, {"city": "Wanning", "latitude": 18.79931, "longitude": 110.3841, "state": "Hainan"}, {"city": "Wanmao", "latitude": 34.8, "longitude": 103.2, "state": "Gansu"}, {"city": "Wangguan", "latitude": 33.45917, "longitude": 105.36167, "state": "Gansu"}, {"city": "Wangwu", "latitude": 19.65623, "longitude": 109.29071, "state": "Hainan"}, {"city": "Wangu", "latitude": 29.68242, "longitude": 105.93551, "state": "Chongqing"}, {"city": "Wangqinzhuang", "latitude": 39.22942, "longitude": 117.08968, "state": "Tianjin"}, {"city": "Wangpu", "latitude": 35.05712, "longitude": 105.43585, "state": "Gansu"}, {"city": "Leiyang", "latitude": 30.12043, "longitude": 116.68292, "state": "Anhui"}, {"city": "Wangji", "latitude": 33.98333, "longitude": 117.75, "state": "Jiangsu"}, {"city": "Yinzhu", "latitude": 35.87861, "longitude": 119.97528, "state": "Shandong"}, {"city": "Wangfen", "latitude": 36.55, "longitude": 118.38333, "state": "Shandong"}, {"city": "Wangdu", "latitude": 38.70461, "longitude": 115.15104, "state": "Hebei"}, {"city": "Wangbuzhuang", "latitude": 39.6775, "longitude": 117.42861, "state": "Tianjin"}, {"city": "Anping", "latitude": 27.86639, "longitude": 110.11611, "state": "Hunan"}, {"city": "Wanchao", "latitude": 26.6, "longitude": 107.85, "state": "Guizhou"}, {"city": "Waina", "latitude": 33.20639, "longitude": 105.04972, "state": "Gansu"}, {"city": "Wafangdian", "latitude": 39.61833, "longitude": 122.00806, "state": "Liaoning"}, {"city": "Ulan", "latitude": 39.09374, "longitude": 107.98022, "state": "Inner Mongolia"}, {"city": "Tuzhai", "latitude": 24.98301, "longitude": 118.83194, "state": "Fujian"}, {"city": "Tuxiang", "latitude": 30.71293, "longitude": 109.15556, "state": "Chongqing"}, {"city": "Tushan", "latitude": 34.22083, "longitude": 117.83694, "state": "Jiangsu"}, {"city": "Tuokou", "latitude": 27.12472, "longitude": 109.62472, "state": "Hunan"}, {"city": "Tuojiang", "latitude": 27.95472, "longitude": 109.56798, "state": "Hunan"}, {"city": "Tuojiang", "latitude": 25.18667, "longitude": 111.57167, "state": "Hunan"}, {"city": "Tuodian", "latitude": 24.66667, "longitude": 101.63333, "state": "Yunnan"}, {"city": "Huangshan", "latitude": 29.71139, "longitude": 118.3125, "state": "Anhui"}, {"city": "Linjiang", "latitude": 36.3275, "longitude": 112.88194, "state": "Shanxi"}, {"city": "Tuncheng", "latitude": 19.36333, "longitude": 110.09778, "state": "Hainan"}, {"city": "Tubu", "latitude": 29.04532, "longitude": 115.81267, "state": "Jiangxi"}, {"city": "Tuanfeng", "latitude": 30.71361, "longitude": 114.91613, "state": "Hubei"}, {"city": "Touying", "latitude": 39.96389, "longitude": 117.21833, "state": "Tianjin"}, {"city": "Tongzi", "latitude": 29.55899, "longitude": 107.95073, "state": "Chongqing"}, {"city": "Loushanguan", "latitude": 28.1368, "longitude": 106.822, "state": "Guizhou"}, {"city": "Tongzhou", "latitude": 39.90395, "longitude": 116.66183, "state": "Beijing"}, {"city": "Tongyang", "latitude": 29.67054, "longitude": 114.59694, "state": "Hubei"}, {"city": "Tongxu Chengguanzhen", "latitude": 34.47722, "longitude": 114.45833, "state": "Henan"}, {"city": "Yuhai", "latitude": 36.98129, "longitude": 105.90606, "state": "Ningxia"}, {"city": "Tongxi", "latitude": 30.00047, "longitude": 106.13043, "state": "Chongqing"}, {"city": "Pingxiang", "latitude": 35.2079, "longitude": 105.25058, "state": "Gansu"}, {"city": "Tongwan", "latitude": 27.58111, "longitude": 110.27722, "state": "Hunan"}, {"city": "Fuding", "latitude": 27.32734, "longitude": 120.21399, "state": "Fujian"}, {"city": "Tongren", "latitude": 27.71722, "longitude": 109.18528, "state": "Guizhou"}, {"city": "Tongquan", "latitude": 25.4, "longitude": 103.56667, "state": "Yunnan"}, {"city": "Tongqian", "latitude": 33.06917, "longitude": 105.76389, "state": "Gansu"}, {"city": "Tongling", "latitude": 30.95, "longitude": 117.78333, "state": "Anhui"}, {"city": "Leye", "latitude": 24.80071, "longitude": 106.55801, "state": "Guangxi"}, {"city": "Tongjing", "latitude": 29.85653, "longitude": 106.8448, "state": "Chongqing"}, {"city": "Tonggu", "latitude": 26.57222, "longitude": 109.30944, "state": "Guizhou"}, {"city": "Linxi", "latitude": 36.86554, "longitude": 115.49474, "state": "Hebei"}, {"city": "Tongchuan", "latitude": 31.09407, "longitude": 105.08731, "state": "Sichuan"}, {"city": "Tongcheng", "latitude": 31.03911, "longitude": 116.97367, "state": "Anhui"}, {"city": "Tongbai Chengguanzhen", "latitude": 32.36417, "longitude": 113.39639, "state": "Henan"}, {"city": "Tingjiang", "latitude": 26.07401, "longitude": 119.50574, "state": "Fujian"}, {"city": "Tingdong", "latitude": 25.82444, "longitude": 108.6125, "state": "Guizhou"}, {"city": "Tieqiao", "latitude": 31.04001, "longitude": 108.13362, "state": "Chongqing"}, {"city": "Tiefu", "latitude": 34.53333, "longitude": 118.03333, "state": "Jiangsu"}, {"city": "Tiaoshi", "latitude": 29.27722, "longitude": 106.6425, "state": "Chongqing"}, {"city": "Tianzhuang", "latitude": 36.79583, "longitude": 119.73667, "state": "Shandong"}, {"city": "Tianzhou", "latitude": 23.74137, "longitude": 106.91311, "state": "Guangxi"}, {"city": "Tiantang", "latitude": 30.85, "longitude": 116.35, "state": "Anhui"}, {"city": "Tiantai Chengguanzhen", "latitude": 29.13633, "longitude": 121.02958, "state": "Zhejiang"}, {"city": "Qincheng", "latitude": 34.58028, "longitude": 105.72722, "state": "Gansu"}, {"city": "Tianshui", "latitude": 34.57952, "longitude": 105.74238, "state": "Gansu"}, {"city": "Tianpeng", "latitude": 30.98664, "longitude": 103.93933, "state": "Sichuan"}, {"city": "Tianliu", "latitude": 37.0, "longitude": 118.78333, "state": "Shandong"}, {"city": "Tianjin", "latitude": 39.14222, "longitude": 117.17667, "state": null}, {"city": "Wuxue Shi", "latitude": 29.91525, "longitude": 115.41432, "state": "Hubei"}, {"city": "Tiandiba", "latitude": 27.70178, "longitude": 103.24806, "state": "Sichuan"}, {"city": "Tiandeng", "latitude": 23.08409, "longitude": 107.13946, "state": "Guangxi"}, {"city": "Tianchi", "latitude": 30.28112, "longitude": 105.02346, "state": "Sichuan"}, {"city": "Tiancheng", "latitude": 29.54022, "longitude": 114.04155, "state": "Hubei"}, {"city": "Tianchang", "latitude": 32.68497, "longitude": 119.00932, "state": "Anhui"}, {"city": "Chengtangcun", "latitude": 35.08357, "longitude": 117.19071, "state": "Shandong"}, {"city": "Tengzhou", "latitude": 23.37974, "longitude": 110.93435, "state": "Guangxi"}, {"city": "Temuli", "latitude": 27.70795, "longitude": 102.80768, "state": "Sichuan"}, {"city": "Taozhuang", "latitude": 34.85, "longitude": 117.33333, "state": "Shandong"}, {"city": "Taozhou", "latitude": 30.90641, "longitude": 119.40865, "state": "Anhui"}, {"city": "Taoyuan", "latitude": 33.85278, "longitude": 117.77028, "state": "Jiangsu"}, {"city": "Zhangjiang", "latitude": 28.91103, "longitude": 111.4799, "state": "Hunan"}, {"city": "Taoyang", "latitude": 35.40135, "longitude": 103.85325, "state": "Gansu"}, {"city": "Taopingxiang", "latitude": 34.16109, "longitude": 104.9528, "state": "Gansu"}, {"city": "Taoluo", "latitude": 35.27389, "longitude": 119.37028, "state": "Shandong"}, {"city": "Taolin", "latitude": 35.80006, "longitude": 119.53395, "state": "Shandong"}, {"city": "Taohuajiang", "latitude": 28.52361, "longitude": 112.12528, "state": "Hunan"}, {"city": "Taohong", "latitude": 27.10107, "longitude": 110.99486, "state": "Hunan"}, {"city": "Daxin", "latitude": 22.83278, "longitude": 107.19646, "state": "Guangxi"}, {"city": "Tanwan", "latitude": 27.96639, "longitude": 110.15028, "state": "Hunan"}, {"city": "Tantou", "latitude": 26.03033, "longitude": 119.59739, "state": "Fujian"}, {"city": "Tanjia", "latitude": 31.45574, "longitude": 108.49861, "state": "Chongqing"}, {"city": "Tangzhai", "latitude": 34.43278, "longitude": 116.59111, "state": "Anhui"}, {"city": "Tangyang Chengguanzhen", "latitude": 35.91446, "longitude": 114.35514, "state": "Henan"}, {"city": "Tangwu", "latitude": 36.44667, "longitude": 118.85972, "state": "Shandong"}, {"city": "Tangshan", "latitude": 39.63333, "longitude": 118.18333, "state": "Hebei"}, {"city": "Tangping", "latitude": 22.03177, "longitude": 111.93537, "state": "Guangdong"}, {"city": "Tangkou", "latitude": 26.95417, "longitude": 119.01278, "state": "Fujian"}, {"city": "Tangjiazhuang", "latitude": 39.74326, "longitude": 118.45099, "state": "Hebei"}, {"city": "Tangjiafang", "latitude": 26.84, "longitude": 110.36472, "state": "Hunan"}, {"city": "Binhe", "latitude": 32.68833, "longitude": 112.8275, "state": "Henan"}, {"city": "Tanggu", "latitude": 39.02111, "longitude": 117.64694, "state": "Tianjin"}, {"city": "Tangdukou", "latitude": 26.96589, "longitude": 111.24138, "state": "Hunan"}, {"city": "Tangba", "latitude": 30.01651, "longitude": 105.7973, "state": "Chongqing"}, {"city": "Tancheng", "latitude": 34.6152, "longitude": 118.338, "state": "Shandong"}, {"city": "Tancheng", "latitude": 25.50808, "longitude": 119.80722, "state": "Fujian"}, {"city": "Guanghe Chengguanzhen", "latitude": 35.48153, "longitude": 103.57604, "state": "Gansu"}, {"city": "Taizhou", "latitude": 32.49069, "longitude": 119.90812, "state": "Jiangsu"}, {"city": "Taiyuan", "latitude": 37.86944, "longitude": 112.56028, "state": "Shanxi"}, {"city": "Taixing", "latitude": 32.16667, "longitude": 120.01361, "state": "Jiangsu"}, {"city": "Taiping", "latitude": 28.14083, "longitude": 106.03771, "state": "Sichuan"}, {"city": "Taipingchang", "latitude": 29.44861, "longitude": 106.97417, "state": "Chongqing"}, {"city": "Taiping", "latitude": 30.26204, "longitude": 107.29287, "state": "Chongqing"}, {"city": "Taikang Chengguanzhen", "latitude": 34.06667, "longitude": 114.86667, "state": "Henan"}, {"city": "Jinxi", "latitude": 30.43226, "longitude": 116.29217, "state": "Anhui"}, {"city": "Shanghe", "latitude": 30.16036, "longitude": 105.93403, "state": "Chongqing"}, {"city": "Taihe Chengguanzhen", "latitude": 33.16552, "longitude": 115.64886, "state": "Anhui"}, {"city": "Taihe", "latitude": 30.87123, "longitude": 105.38454, "state": "Sichuan"}, {"city": "Taihe", "latitude": 30.09949, "longitude": 106.0489, "state": "Chongqing"}, {"city": "Mingxing", "latitude": 37.42639, "longitude": 112.54417, "state": "Shanxi"}, {"city": "Taishan", "latitude": 22.25135, "longitude": 112.7799, "state": "Guangdong"}, {"city": "Taicang", "latitude": 31.44778, "longitude": 121.09389, "state": "Jiangsu"}, {"city": "Tai\u2019an", "latitude": 36.18528, "longitude": 117.12, "state": "Shandong"}, {"city": "Tai\u2019an", "latitude": 30.06603, "longitude": 105.80934, "state": "Chongqing"}, {"city": "Suzhou", "latitude": 33.63611, "longitude": 116.97889, "state": "Anhui"}, {"city": "Suyangshan", "latitude": 34.39278, "longitude": 117.75556, "state": "Jiangsu"}, {"city": "Fuyu", "latitude": 30.15, "longitude": 116.11667, "state": "Anhui"}, {"city": "Suqian", "latitude": 33.94917, "longitude": 118.29583, "state": "Jiangsu"}, {"city": "Suozhen", "latitude": 36.95389, "longitude": 118.10472, "state": "Shandong"}, {"city": "Suonan", "latitude": 35.66653, "longitude": 103.39792, "state": "Gansu"}, {"city": "Suning", "latitude": 38.4253, "longitude": 115.83482, "state": "Hebei"}, {"city": "Suizhou", "latitude": 31.71111, "longitude": 113.36306, "state": "Hubei"}, {"city": "Sui Xian Chengguanzhen", "latitude": 34.44797, "longitude": 115.04439, "state": "Henan"}, {"city": "Suixi", "latitude": 33.89067, "longitude": 116.77473, "state": "Anhui"}, {"city": "Suicheng", "latitude": 21.37951, "longitude": 110.25052, "state": "Guangdong"}, {"city": "Suishan", "latitude": 29.60831, "longitude": 103.48603, "state": "Sichuan"}, {"city": "Quyang", "latitude": 33.14472, "longitude": 113.99028, "state": "Henan"}, {"city": "Suicheng", "latitude": 33.8963, "longitude": 117.93307, "state": "Jiangsu"}, {"city": "Suining", "latitude": 30.50802, "longitude": 105.57332, "state": "Sichuan"}, {"city": "Jianning", "latitude": 26.83448, "longitude": 116.83848, "state": "Fujian"}, {"city": "Sui\u2019an", "latitude": 24.08698, "longitude": 117.60912, "state": "Fujian"}, {"city": "Songyuan", "latitude": 27.62167, "longitude": 119.05917, "state": "Zhejiang"}, {"city": "Songyuan", "latitude": 27.5273, "longitude": 118.77657, "state": "Fujian"}, {"city": "Songyang", "latitude": 25.32511, "longitude": 103.02981, "state": "Yunnan"}, {"city": "Song Xian Chengguanzhen", "latitude": 34.13472, "longitude": 112.0825, "state": "Henan"}, {"city": "Songkan", "latitude": 28.54972, "longitude": 106.85972, "state": "Guizhou"}, {"city": "Songjiang", "latitude": 31.03443, "longitude": 121.22326, "state": "Shanghai"}, {"city": "Songgai", "latitude": 29.05762, "longitude": 105.89209, "state": "Chongqing"}, {"city": "Songcheng", "latitude": 26.88194, "longitude": 120.00111, "state": "Fujian"}, {"city": "Songbai", "latitude": 31.75685, "longitude": 110.67252, "state": "Hubei"}, {"city": "Siyang", "latitude": 27.2116, "longitude": 108.745, "state": "Guizhou"}, {"city": "Shangsi", "latitude": 22.15627, "longitude": 107.97953, "state": "Guangxi"}, {"city": "Sicheng", "latitude": 33.48936, "longitude": 117.85679, "state": "Anhui"}, {"city": "Sitou", "latitude": 36.31275, "longitude": 118.41185, "state": "Shandong"}, {"city": "Sishui", "latitude": 35.64889, "longitude": 117.27583, "state": "Shandong"}, {"city": "Simenqian", "latitude": 27.48722, "longitude": 110.88611, "state": "Hunan"}, {"city": "Simen", "latitude": 34.62222, "longitude": 105.01278, "state": "Gansu"}, {"city": "Simao", "latitude": 22.78863, "longitude": 100.97481, "state": "Yunnan"}, {"city": "Dachang Shandao", "latitude": 39.27556, "longitude": 122.6, "state": "Liaoning"}, {"city": "Sihu", "latitude": 34.62625, "longitude": 117.97139, "state": "Jiangsu"}, {"city": "Sigaozhuang", "latitude": 39.46778, "longitude": 117.25028, "state": "Tianjin"}, {"city": "Si\u2019en", "latitude": 24.84198, "longitude": 108.27162, "state": "Guangxi"}, {"city": "Lingyun", "latitude": 24.34943, "longitude": 106.56174, "state": "Guangxi"}, {"city": "Shucheng", "latitude": 34.12128, "longitude": 118.78078, "state": "Jiangsu"}, {"city": "Shuozhou", "latitude": 39.31583, "longitude": 112.4225, "state": "Shanxi"}, {"city": "Shunhua", "latitude": 26.086, "longitude": 109.25892, "state": "Guizhou"}, {"city": "Shunhe", "latitude": 34.84184, "longitude": 116.55722, "state": "Jiangsu"}, {"city": "Shuizhai", "latitude": 23.92961, "longitude": 115.76499, "state": "Guangdong"}, {"city": "Shuitu", "latitude": 29.78221, "longitude": 106.4974, "state": "Chongqing"}, {"city": "Shuitou", "latitude": 36.97306, "longitude": 111.2091, "state": "Shanxi"}, {"city": "Shuidatian", "latitude": 27.85222, "longitude": 109.60472, "state": "Hunan"}, {"city": "Shuikou", "latitude": 26.3836, "longitude": 118.73027, "state": "Fujian"}, {"city": "Shuikou", "latitude": 25.91278, "longitude": 109.31361, "state": "Guizhou"}, {"city": "Shuikou", "latitude": 23.98372, "longitude": 115.89581, "state": "Guangdong"}, {"city": "Shuijiang", "latitude": 29.2476, "longitude": 107.28443, "state": "Chongqing"}, {"city": "Laixi", "latitude": 36.85917, "longitude": 120.52694, "state": "Shandong"}, {"city": "Shuidong", "latitude": 21.5134, "longitude": 111.00184, "state": "Guangdong"}, {"city": "Shuiche", "latitude": 27.68694, "longitude": 110.99972, "state": "Hunan"}, {"city": "Shuibian", "latitude": 27.60805, "longitude": 115.32636, "state": "Jiangxi"}, {"city": "Shucheng Chengguanzhen", "latitude": 31.47448, "longitude": 116.95207, "state": "Anhui"}, {"city": "Hukou", "latitude": 29.74296, "longitude": 116.22426, "state": "Jiangxi"}, {"city": "Shuangxi", "latitude": 28.86295, "longitude": 115.35194, "state": "Jiangxi"}, {"city": "Shuangxi", "latitude": 27.22833, "longitude": 109.85583, "state": "Hunan"}, {"city": "Shuangxi", "latitude": 27.02248, "longitude": 119.0414, "state": "Fujian"}, {"city": "Shuangshu", "latitude": 39.56389, "longitude": 117.02444, "state": "Tianjin"}, {"city": "Shuangshi", "latitude": 29.40031, "longitude": 105.83781, "state": "Chongqing"}, {"city": "Shuangshipu", "latitude": 33.91705, "longitude": 106.52466, "state": "Shaanxi"}, {"city": "Longbo", "latitude": 25.92922, "longitude": 111.6222, "state": "Hunan"}, {"city": "Shuanglu", "latitude": 29.86429, "longitude": 107.77483, "state": "Chongqing"}, {"city": "Shuanglong", "latitude": 29.95972, "longitude": 107.20356, "state": "Chongqing"}, {"city": "Dongsheng", "latitude": 30.57383, "longitude": 103.92127, "state": "Sichuan"}, {"city": "Shuangjiang", "latitude": 30.92624, "longitude": 108.71044, "state": "Chongqing"}, {"city": "Shuangjiang", "latitude": 30.21754, "longitude": 105.7452, "state": "Chongqing"}, {"city": "Shuangjiang", "latitude": 26.15467, "longitude": 109.7138, "state": "Hunan"}, {"city": "Shuangjiang", "latitude": 25.96667, "longitude": 108.92417, "state": "Guizhou"}, {"city": "Shuangjiang", "latitude": 24.17261, "longitude": 102.40049, "state": "Yunnan"}, {"city": "Shuanghe", "latitude": 29.32074, "longitude": 105.56942, "state": "Chongqing"}, {"city": "Shuanghekou", "latitude": 29.61861, "longitude": 106.91833, "state": "Chongqing"}, {"city": "Shuanghe", "latitude": 29.54932, "longitude": 107.71841, "state": "Chongqing"}, {"city": "Shuanggou", "latitude": 34.03528, "longitude": 117.57806, "state": "Jiangsu"}, {"city": "Shuanggang", "latitude": 39.04395, "longitude": 117.31014, "state": "Tianjin"}, {"city": "Zherong", "latitude": 27.24, "longitude": 119.89444, "state": "Fujian"}, {"city": "Chaoyang", "latitude": 37.90801, "longitude": 113.15044, "state": "Shanxi"}, {"city": "Shouchun", "latitude": 32.58162, "longitude": 116.79291, "state": "Anhui"}, {"city": "Shouxian", "latitude": 34.84648, "longitude": 116.45884, "state": "Jiangsu"}, {"city": "Shoushan", "latitude": 26.96444, "longitude": 119.16167, "state": "Fujian"}, {"city": "Shouguang", "latitude": 36.88, "longitude": 118.7375, "state": "Shandong"}, {"city": "Shizuishan", "latitude": 39.23333, "longitude": 106.76944, "state": "Ningxia"}, {"city": "Shizilu", "latitude": 35.17111, "longitude": 118.82889, "state": "Shandong"}, {"city": "Shiye", "latitude": 28.38168, "longitude": 109.05747, "state": "Chongqing"}, {"city": "Shiyan", "latitude": 32.6475, "longitude": 110.77806, "state": "Hubei"}, {"city": "Shijiang", "latitude": 27.08194, "longitude": 110.79333, "state": "Hunan"}, {"city": "Shixia", "latitude": 33.7834, "longitude": 105.38769, "state": "Gansu"}, {"city": "Shiwan", "latitude": 23.00107, "longitude": 113.077, "state": "Guangdong"}, {"city": "Shiwan", "latitude": 21.75, "longitude": 109.2, "state": "Guangxi"}, {"city": "Shituo", "latitude": 29.71613, "longitude": 107.13564, "state": "Chongqing"}, {"city": "Shitanjing", "latitude": 39.23417, "longitude": 106.34389, "state": "Ningxia"}, {"city": "Qili", "latitude": 30.19906, "longitude": 117.47799, "state": "Anhui"}, {"city": "Shishi", "latitude": 24.74203, "longitude": 118.63638, "state": "Fujian"}, {"city": "Shiquan", "latitude": 33.04083, "longitude": 108.23639, "state": "Shaanxi"}, {"city": "Shiqiaozi", "latitude": 36.16167, "longitude": 119.26306, "state": "Shandong"}, {"city": "Shiqiao", "latitude": 22.9464, "longitude": 113.35769, "state": "Guangdong"}, {"city": "Shiqian", "latitude": 27.5225, "longitude": 108.22806, "state": "Guizhou"}, {"city": "Shiqi", "latitude": 22.51682, "longitude": 113.38521, "state": "Guangdong"}, {"city": "Yilong", "latitude": 23.69137, "longitude": 102.48701, "state": "Yunnan"}, {"city": "Xingye Xian", "latitude": 22.74342, "longitude": 109.87508, "state": "Guangxi"}, {"city": "Chujiang", "latitude": 29.58398, "longitude": 111.36796, "state": "Hunan"}, {"city": "Shimen", "latitude": 29.10037, "longitude": 106.03304, "state": "Chongqing"}, {"city": "Shima", "latitude": 29.63116, "longitude": 105.83065, "state": "Chongqing"}, {"city": "Shima", "latitude": 24.44647, "longitude": 117.81216, "state": "Fujian"}, {"city": "Lingquan", "latitude": 36.99949, "longitude": 110.844, "state": "Shanxi"}, {"city": "Xianglong", "latitude": 30.26125, "longitude": 106.57588, "state": "Chongqing"}, {"city": "Shilong", "latitude": 23.11444, "longitude": 113.84722, "state": "Guangdong"}, {"city": "Shilu", "latitude": 19.25984, "longitude": 109.04884, "state": "Hainan"}, {"city": "Tongchuanshi", "latitude": 35.07474, "longitude": 109.08495, "state": "Shaanxi"}, {"city": "Shilaoren Shequ", "latitude": 36.09798, "longitude": 120.49088, "state": "Shandong"}, {"city": "Shikang", "latitude": 21.76667, "longitude": 109.31667, "state": "Guangxi"}, {"city": "Shijing", "latitude": 24.61956, "longitude": 118.42437, "state": "Fujian"}, {"city": "Shijiazhuang", "latitude": 38.04139, "longitude": 114.47861, "state": "Hebei"}, {"city": "Shijiao", "latitude": 28.92444, "longitude": 106.75611, "state": "Chongqing"}, {"city": "Shijiao", "latitude": 23.86949, "longitude": 113.5284, "state": "Guangdong"}, {"city": "Shijia", "latitude": 30.28653, "longitude": 108.32516, "state": "Chongqing"}, {"city": "Shijia", "latitude": 29.23677, "longitude": 108.61165, "state": "Chongqing"}, {"city": "Shiji", "latitude": 34.2, "longitude": 118.48333, "state": "Jiangsu"}, {"city": "Shihui", "latitude": 29.57177, "longitude": 108.61017, "state": "Chongqing"}, {"city": "Shifang", "latitude": 33.00275, "longitude": 104.57145, "state": "Gansu"}, {"city": "Shidui", "latitude": 36.39333, "longitude": 119.30861, "state": "Shandong"},