[{"city": "Waal", "latitude": 6.88658, "longitude": 46.21508, "state": "Somali"}, {"city": "Fadhigaradle", "latitude": 6.17559, "longitude": 45.29866, "state": "Somali"}, {"city": "Ziway", "latitude": 7.93333, "longitude": 38.71667, "state": "Oromiya"}, {"city": "Yirga Ch\u2019ef\u0113", "latitude": 6.16667, "longitude": 38.2, "state": null}, {"city": "Yirga \u2018Alem", "latitude": 6.75, "longitude": 38.41667, "state": null}, {"city": "Yab\u0113lo", "latitude": 4.88333, "longitude": 38.08333, "state": "Oromiya"}, {"city": "Wik\u2019ro", "latitude": 13.79525, "longitude": 39.60303, "state": "Tigray"}, {"city": "Werota", "latitude": 11.91667, "longitude": 37.7, "state": "Amhara"}, {"city": "Were \u012alu", "latitude": 10.58964, "longitude": 39.43767, "state": "Amhara"}, {"city": "Wenj\u012b", "latitude": 8.45, "longitude": 39.28333, "state": "Oromiya"}, {"city": "Wendo", "latitude": 6.6, "longitude": 38.41667, "state": null}, {"city": "Wenago", "latitude": 6.31667, "longitude": 38.26667, "state": null}, {"city": "Welk\u2019\u012bt\u2019\u0113", "latitude": 8.28333, "longitude": 37.78333, "state": null}, {"city": "Welench\u2019\u012bt\u012b", "latitude": 8.66667, "longitude": 39.43333, "state": "Oromiya"}, {"city": "Weldiya", "latitude": 11.8277, "longitude": 39.59164, "state": "Amhara"}, {"city": "Waka", "latitude": 7.06667, "longitude": 37.16667, "state": null}, {"city": "Turmi", "latitude": 4.96667, "longitude": 36.48333, "state": null}, {"city": "Tulu Bolo", "latitude": 8.66667, "longitude": 38.21667, "state": "Oromiya"}, {"city": "T\u2019\u012bs Isat", "latitude": 11.48333, "longitude": 37.58333, "state": "Amhara"}, {"city": "T\u012bl\u012bl\u012b", "latitude": 10.85, "longitude": 37.01667, "state": "Amhara"}, {"city": "Tikil Dingay", "latitude": 12.98417, "longitude": 37.04417, "state": "Amhara"}, {"city": "T\u0113p\u012b", "latitude": 7.2, "longitude": 35.45, "state": null}, {"city": "Tarch\u2019a Sodo", "latitude": 7.15139, "longitude": 37.17184, "state": null}, {"city": "Suntu", "latitude": 8.1, "longitude": 36.95, "state": "Oromiya"}, {"city": "S\u012br\u0113", "latitude": 8.31667, "longitude": 39.48333, "state": "Oromiya"}, {"city": "Shon\u0113", "latitude": 7.13333, "longitude": 37.95, "state": null}, {"city": "Sheraro", "latitude": 14.40076, "longitude": 37.93399, "state": "Tigray"}, {"city": "Sheno", "latitude": 9.32936, "longitude": 39.29337, "state": "Oromiya"}, {"city": "Shashamane", "latitude": 7.2, "longitude": 38.6, "state": "Oromiya"}, {"city": "Shambu", "latitude": 9.56667, "longitude": 37.1, "state": "Oromiya"}, {"city": "Shakiso", "latitude": 5.76494, "longitude": 38.91006, "state": "Oromiya"}, {"city": "Sendafa", "latitude": 9.15203, "longitude": 39.02335, "state": "Oromiya"}, {"city": "Sek\u2019ot\u2019a", "latitude": 12.63056, "longitude": 39.03472, "state": "Amhara"}, {"city": "Sebeta", "latitude": 8.91667, "longitude": 38.61667, "state": "Oromiya"}, {"city": "Sagur\u0113", "latitude": 7.75, "longitude": 39.15, "state": "Oromiya"}, {"city": "Rob\u012bt", "latitude": 12.01667, "longitude": 39.63333, "state": "Amhara"}, {"city": "Robit", "latitude": 9.99461, "longitude": 39.89693, "state": "Amhara"}, {"city": "Bale Robe", "latitude": 7.12294, "longitude": 40.00412, "state": "Oromiya"}, {"city": "Nek\u2019emt\u0113", "latitude": 9.08333, "longitude": 36.55, "state": "Oromiya"}, {"city": "Nejo", "latitude": 9.5, "longitude": 35.5, "state": "Oromiya"}, {"city": "Neg\u0113l\u0113", "latitude": 5.31667, "longitude": 39.58333, "state": "Oromiya"}, {"city": "Nefas Mewch\u2019a", "latitude": 11.73333, "longitude": 38.46667, "state": "Amhara"}, {"city": "Nazr\u0113t", "latitude": 8.55, "longitude": 39.26667, "state": "Oromiya"}, {"city": "Mot\u2019a", "latitude": 11.08333, "longitude": 37.86667, "state": "Amhara"}, {"city": "Mojo", "latitude": 8.58679, "longitude": 39.12111, "state": "Oromiya"}, {"city": "M\u012bzan Tefer\u012b", "latitude": 6.99865, "longitude": 35.58879, "state": null}, {"city": "M\u012bl\u0113", "latitude": 11.42172, "longitude": 40.76282, "state": "\u0100far"}, {"city": "M\u012b\u2019\u0113so", "latitude": 9.23478, "longitude": 40.75593, "state": "Oromiya"}, {"city": "Metu", "latitude": 8.3, "longitude": 35.58333, "state": "Oromiya"}, {"city": "Metemma", "latitude": 12.95479, "longitude": 36.15549, "state": "Amhara"}, {"city": "Metah\u0101ra", "latitude": 8.9, "longitude": 39.91667, "state": "Oromiya"}, {"city": "Mertule Maryam", "latitude": 10.83333, "longitude": 38.26667, "state": "Amhara"}, {"city": "Mersa", "latitude": 11.66667, "longitude": 39.65, "state": "Amhara"}, {"city": "Mer\u2019\u0101w\u012b", "latitude": 11.41667, "longitude": 37.16667, "state": "Amhara"}, {"city": "Mend\u012b", "latitude": 9.8, "longitude": 35.1, "state": "Oromiya"}, {"city": "Mena", "latitude": 6.41667, "longitude": 39.85, "state": "Oromiya"}, {"city": "Mek\u2019\u012b", "latitude": 8.15, "longitude": 38.81667, "state": "Oromiya"}, {"city": "Mek'ele", "latitude": 13.49667, "longitude": 39.47528, "state": "Tigray"}, {"city": "Mehal M\u0113da", "latitude": 10.3121, "longitude": 39.65888, "state": "Amhara"}, {"city": "M\u0113ga", "latitude": 4.05, "longitude": 38.3, "state": "Oromiya"}, {"city": "Maych\u2019ew", "latitude": 12.7875, "longitude": 39.54222, "state": "Tigray"}, {"city": "Mambuk", "latitude": 11.28333, "longitude": 36.21667, "state": "B\u012bnshangul Gumuz"}, {"city": "Maksenyit", "latitude": 12.38333, "longitude": 37.55, "state": "Amhara"}, {"city": "Lumam\u0113", "latitude": 10.25, "longitude": 37.93333, "state": "Amhara"}, {"city": "Log\u012bya", "latitude": 11.72615, "longitude": 40.9797, "state": "\u0100far"}, {"city": "Lobuni", "latitude": 4.83333, "longitude": 36.1, "state": null}, {"city": "Leku", "latitude": 6.87309, "longitude": 38.44425, "state": null}, {"city": "Lalibela", "latitude": 12.03219, "longitude": 39.04756, "state": "Amhara"}, {"city": "Kuyera", "latitude": 7.3, "longitude": 38.65, "state": "Oromiya"}, {"city": "Korem", "latitude": 12.50583, "longitude": 39.52278, "state": "Tigray"}, {"city": "Konso", "latitude": 5.25, "longitude": 37.48333, "state": null}, {"city": "K\u2019ol\u012bto", "latitude": 7.31667, "longitude": 38.08333, "state": null}, {"city": "K\u2019ola Diba", "latitude": 12.42417, "longitude": 37.325, "state": "Amhara"}, {"city": "Kofel\u0113", "latitude": 7.06667, "longitude": 38.78333, "state": "Oromiya"}, {"city": "Kibre Mengist", "latitude": 5.88333, "longitude": 38.98333, "state": "Oromiya"}, {"city": "Kemis\u0113", "latitude": 10.71668, "longitude": 39.86997, "state": "Amhara"}, {"city": "Kombolcha", "latitude": 11.08155, "longitude": 39.74339, "state": "Amhara"}, {"city": "Kele", "latitude": 6.08333, "longitude": 38.03333, "state": "Oromiya"}, {"city": "Kebri Dahar", "latitude": 6.74, "longitude": 44.27806, "state": "Somali"}, {"city": "Kach\u012bs\u012b", "latitude": 9.6, "longitude": 37.83333, "state": "Oromiya"}, {"city": "Jinka", "latitude": 5.65, "longitude": 36.65, "state": null}, {"city": "Jimma", "latitude": 7.67344, "longitude": 36.83441, "state": "Oromiya"}, {"city": "Jijiga", "latitude": 9.35, "longitude": 42.8, "state": "Somali"}, {"city": "\u012ateya", "latitude": 8.13333, "longitude": 39.23333, "state": "Oromiya"}, {"city": "Intich\u2019o", "latitude": 14.27889, "longitude": 39.15, "state": "Tigray"}, {"city": "Ins\u0113no", "latitude": 8.06667, "longitude": 38.46667, "state": null}, {"city": "Injibara", "latitude": 11.0, "longitude": 36.91667, "state": "Amhara"}, {"city": "Inda Silas\u0113", "latitude": 14.10307, "longitude": 38.28289, "state": "Tigray"}, {"city": "Indabaguna", "latitude": 13.94944, "longitude": 38.18417, "state": "Tigray"}, {"city": "Idaga Hamus", "latitude": 14.18722, "longitude": 39.56389, "state": "Tigray"}, {"city": "Ibnat", "latitude": 12.13333, "longitude": 38.05, "state": "Amhara"}, {"city": "Huruta", "latitude": 8.15, "longitude": 39.35, "state": "Oromiya"}, {"city": "Hosa\u2019ina", "latitude": 7.54978, "longitude": 37.85374, "state": "Central Ethiopia Regional State"}, {"city": "H\u012brna", "latitude": 9.21667, "longitude": 41.1, "state": "Oromiya"}, {"city": "H\u0101yk\u2019", "latitude": 11.3, "longitude": 39.68333, "state": "Amhara"}, {"city": "Hart\u012bsh\u0113k", "latitude": 9.15722, "longitude": 43.35417, "state": "Somali"}, {"city": "Harar", "latitude": 9.31387, "longitude": 42.11815, "state": "Harari"}, {"city": "Harbu", "latitude": 10.9202, "longitude": 39.78714, "state": "Amhara"}, {"city": "H\u0101gere Selam", "latitude": 6.48333, "longitude": 38.51667, "state": null}, {"city": "H\u0101gere Hiywet", "latitude": 8.98333, "longitude": 37.85, "state": "Oromiya"}, {"city": "Hadero", "latitude": 7.2, "longitude": 37.66667, "state": null}, {"city": "El Bahay", "latitude": 6.34656, "longitude": 45.47811, "state": "Somali"}, {"city": "Gurbet\u0113", "latitude": 11.35599, "longitude": 36.95449, "state": "Amhara"}, {"city": "Komtikas", "latitude": 6.95766, "longitude": 35.55746, "state": null}, {"city": "Gor\u0113", "latitude": 8.15, "longitude": 35.53333, "state": "Oromiya"}, {"city": "Gonder", "latitude": 12.6, "longitude": 37.46667, "state": "Amhara"}, {"city": "Gode", "latitude": 5.95056, "longitude": 43.55186, "state": "Somali"}, {"city": "Gob\u0113sa", "latitude": 7.61667, "longitude": 39.5, "state": "Oromiya"}, {"city": "Goba", "latitude": 7.01667, "longitude": 39.98333, "state": "Oromiya"}, {"city": "Waliso", "latitude": 8.53417, "longitude": 37.96515, "state": "Oromiya"}, {"city": "Ghinnir", "latitude": 7.13952, "longitude": 40.71083, "state": "Oromiya"}, {"city": "G\u012bnch\u2019\u012b", "latitude": 9.03333, "longitude": 38.15, "state": "Oromiya"}, {"city": "Gimja B\u0113t Maryam", "latitude": 10.85, "longitude": 36.88333, "state": "Amhara"}, {"city": "G\u012bmb\u012bcho", "latitude": 7.45, "longitude": 37.63333, "state": null}, {"city": "Gimbi", "latitude": 9.17031, "longitude": 35.83491, "state": "Oromiya"}, {"city": "Raqo", "latitude": 6.41919, "longitude": 45.85251, "state": "Somali"}, {"city": "G\u012bdol\u0113", "latitude": 5.65, "longitude": 37.36667, "state": null}, {"city": "Gewan\u0113", "latitude": 10.16658, "longitude": 40.64689, "state": "\u0100far"}, {"city": "Genet", "latitude": 9.06667, "longitude": 38.5, "state": "Oromiya"}, {"city": "Gelemso", "latitude": 8.81667, "longitude": 40.51667, "state": "Oromiya"}, {"city": "G\u0113do", "latitude": 9.01667, "longitude": 37.45, "state": "Oromiya"}, {"city": "Gedeb", "latitude": 9.5725, "longitude": 43.18139, "state": "Somali"}, {"city": "Gebre Guracha", "latitude": 9.8, "longitude": 38.4, "state": "Oromiya"}, {"city": "Gamb\u0113la", "latitude": 8.25, "longitude": 34.58333, "state": "Gambela"}, {"city": "Funyan B\u012bra", "latitude": 9.4025, "longitude": 42.3175, "state": "Oromiya"}, {"city": "Finote Selam", "latitude": 10.7, "longitude": 37.26667, "state": "Amhara"}, {"city": "Filakit", "latitude": 11.66667, "longitude": 38.8, "state": "Amhara"}, {"city": "Fich\u0113", "latitude": 9.8, "longitude": 38.73333, "state": "Oromiya"}, {"city": "Felege Neway", "latitude": 6.3, "longitude": 36.88333, "state": null}, {"city": "Felana", "latitude": 9.46498, "longitude": 42.18447, "state": "Oromiya"}, {"city": "Golwayn", "latitude": 6.50727, "longitude": 45.83493, "state": "Somali"}, {"city": "Duram\u0113", "latitude": 7.23333, "longitude": 37.88333, "state": null}, {"city": "Dubti", "latitude": 11.73292, "longitude": 41.082, "state": "\u0100far"}, {"city": "Dolo", "latitude": 13.49923, "longitude": 39.63723, "state": "Tigray"}, {"city": "Dodola", "latitude": 6.98333, "longitude": 39.18333, "state": "Oromiya"}, {"city": "Dire Dawa", "latitude": 9.59306, "longitude": 41.86611, "state": null}, {"city": "D\u012bla", "latitude": 6.41667, "longitude": 38.31667, "state": null}, {"city": "Dibate", "latitude": 10.65, "longitude": 36.21667, "state": "B\u012bnshangul Gumuz"}, {"city": "Dessie", "latitude": 11.13333, "longitude": 39.63333, "state": "Amhara"}, {"city": "D\u0113ra", "latitude": 8.4, "longitude": 38.85, "state": "Oromiya"}, {"city": "Demb\u012b Dolo", "latitude": 8.53333, "longitude": 34.8, "state": "Oromiya"}, {"city": "Dembech\u2019a", "latitude": 10.55, "longitude": 37.48333, "state": "Amhara"}, {"city": "Dejen", "latitude": 10.16667, "longitude": 38.13333, "state": "Amhara"}, {"city": "Degeh Bur", "latitude": 8.22056, "longitude": 43.55722, "state": "Somali"}, {"city": "Deder", "latitude": 9.31168, "longitude": 41.44301, "state": "Oromiya"}, {"city": "Bishoftu", "latitude": 8.75225, "longitude": 38.97846, "state": "Oromiya"}, {"city": "Debre Werk\u2019", "latitude": 10.66667, "longitude": 38.16667, "state": "Amhara"}, {"city": "Debre Tabor", "latitude": 11.85, "longitude": 38.01667, "state": "Amhara"}, {"city": "Debre S\u012bna", "latitude": 9.84752, "longitude": 39.76027, "state": "Amhara"}, {"city": "Debre Mark\u2019os", "latitude": 10.35, "longitude": 37.73333, "state": "Amhara"}, {"city": "Debre Birhan", "latitude": 9.67954, "longitude": 39.53262, "state": "Amhara"}, {"city": "Debark\u2019", "latitude": 13.15611, "longitude": 37.89806, "state": "Amhara"}, {"city": "Day\u0113", "latitude": 9.88333, "longitude": 38.26667, "state": "Oromiya"}, {"city": "Dangila", "latitude": 11.26667, "longitude": 36.83333, "state": "Amhara"}, {"city": "Dabat", "latitude": 12.98417, "longitude": 37.765, "state": "Amhara"}, {"city": "Ciro", "latitude": 7.83333, "longitude": 38.23333, "state": null}, {"city": "Ch\u2019\u012bna Hasen", "latitude": 9.50528, "longitude": 42.61111, "state": "Somali"}, {"city": "Ch\u2019iko", "latitude": 6.58333, "longitude": 38.33333, "state": null}, {"city": "Sifra", "latitude": 11.60462, "longitude": 40.01662, "state": "\u0100far"}, {"city": "Ch\u2019ench\u2019a", "latitude": 6.25, "longitude": 37.56667, "state": null}, {"city": "Ch\u2019elenk\u2019o", "latitude": 9.40139, "longitude": 41.56, "state": "Oromiya"}, {"city": "Butaj\u012bra", "latitude": 8.11667, "longitude": 38.36667, "state": null}, {"city": "Bur\u0113", "latitude": 10.7, "longitude": 37.06667, "state": "Amhara"}, {"city": "Bonga", "latitude": 7.27235, "longitude": 36.24162, "state": null}, {"city": "Bod\u012bt\u012b", "latitude": 6.96667, "longitude": 37.86667, "state": null}, {"city": "Bichena", "latitude": 10.45, "longitude": 38.2, "state": "Amhara"}, {"city": "Bek\u2019oj\u012b", "latitude": 7.53333, "longitude": 39.25, "state": "Oromiya"}, {"city": "Bed\u0113sa", "latitude": 6.83333, "longitude": 38.08333, "state": null}, {"city": "Bed\u0113sa", "latitude": 8.9, "longitude": 40.78333, "state": "Oromiya"}, {"city": "Bedel\u0113", "latitude": 8.456, "longitude": 36.35302, "state": "Oromiya"}, {"city": "Bat\u012b", "latitude": 11.19152, "longitude": 40.01675, "state": "Amhara"}, {"city": "Bambesi", "latitude": 9.75, "longitude": 34.73333, "state": "B\u012bnshangul Gumuz"}, {"city": "Bako", "latitude": 5.78333, "longitude": 36.56667, "state": null}, {"city": "Bahir Dar", "latitude": 11.59364, "longitude": 37.39077, "state": "Amhara"}, {"city": "Bab\u012bl\u0113", "latitude": 9.22556, "longitude": 42.33222, "state": "Oromiya"}, {"city": "\u0100ykel", "latitude": 12.55, "longitude": 37.06667, "state": "Amhara"}, {"city": "\u0100yana", "latitude": 9.88333, "longitude": 36.61667, "state": "Oromiya"}, {"city": "\u0100wash", "latitude": 8.99364, "longitude": 40.16637, "state": "\u0100far"}, {"city": "Awasa", "latitude": 7.06205, "longitude": 38.47635, "state": "ET.SI"}, {"city": "\u0100t\u2019aye", "latitude": 10.35028, "longitude": 39.93626, "state": "Amhara"}, {"city": "\u0100sosa", "latitude": 10.06667, "longitude": 34.53333, "state": "B\u012bnshangul Gumuz"}, {"city": "\u0100sela", "latitude": 7.95, "longitude": 39.13333, "state": "Oromiya"}, {"city": "\u0100sbe Tefer\u012b", "latitude": 9.08569, "longitude": 40.86708, "state": "Oromiya"}, {"city": "Asaita", "latitude": 11.56838, "longitude": 41.43869, "state": "\u0100far"}, {"city": "\u0100sasa", "latitude": 7.1, "longitude": 39.2, "state": "Oromiya"}, {"city": "Arerti", "latitude": 13.95, "longitude": 40.66667, "state": "\u0100far"}, {"city": "\u0100reka", "latitude": 7.06667, "longitude": 37.7, "state": null}, {"city": "Arba Minch", "latitude": 6.03333, "longitude": 37.55, "state": null}, {"city": "\u0100rab\u012b", "latitude": 9.96278, "longitude": 42.49278, "state": "Somali"}, {"city": "Ara Ali", "latitude": 5.96667, "longitude": 41.03333, "state": "Oromiya"}, {"city": "Amba Giorgis", "latitude": 12.76889, "longitude": 37.62389, "state": "Amhara"}, {"city": "\u2018Alem T\u2019\u0113na", "latitude": 8.3, "longitude": 38.95, "state": "Oromiya"}, {"city": "\u2018Alem Ketema", "latitude": 10.08333, "longitude": 39.03333, "state": "Amhara"}, {"city": "\u2018Alemaya", "latitude": 9.39334, "longitude": 42.00967, "state": "Oromiya"}, {"city": "Alamata", "latitude": 12.416, "longitude": 39.55971, "state": "Tigray"}, {"city": "Aksum", "latitude": 14.12109, "longitude": 38.72337, "state": "Tigray"}, {"city": "Hagere Maryam", "latitude": 5.63418, "longitude": 38.23603, "state": "Oromiya"}, {"city": "\u0100garo", "latitude": 7.85, "longitude": 36.65, "state": "Oromiya"}, {"city": "Adwa", "latitude": 14.16347, "longitude": 38.89924, "state": "Tigray"}, {"city": "\u0100d\u012bs Zemen", "latitude": 12.11667, "longitude": 37.78333, "state": "Amhara"}, {"city": "\u0100d\u012bs K\u2019idam\u0113", "latitude": 11.08333, "longitude": 36.88333, "state": "Amhara"}, {"city": "\u0100d\u012bs \u2018Alem", "latitude": 9.03333, "longitude": 38.4, "state": "Oromiya"}, {"city": "Addis Ababa", "latitude": 9.02497, "longitude": 38.74689, "state": null}, {"city": "\u0100d\u012bgrat", "latitude": 14.277, "longitude": 39.462, "state": "Tigray"}, {"city": "\u0100d\u0113t", "latitude": 11.26667, "longitude": 37.48333, "state": "Amhara"}, {"city": "Abomsa", "latitude": 9.98333, "longitude": 39.98333, "state": "Amhara"}, {"city": "\u0100b\u012by \u0100d\u012b", "latitude": 13.56083, "longitude": 38.97389, "state": "Tigray"}, {"city": "\u0100bderaf\u012b", "latitude": 13.73333, "longitude": 36.45, "state": "Amhara"}, {"city": "Abala", "latitude": 14.23333, "longitude": 37.0, "state": "Tigray"}, {"city": "Qorof", "latitude": 6.58222, "longitude": 46.43333, "state": "Somali"}, {"city": "Kahandhale", "latitude": 5.75279, "longitude": 45.64603, "state": "Somali"}, {"city": "Lasoano", "latitude": 6.25532, "longitude": 45.3853, "state": "Somali"}, {"city": "Neefkuceliye", "latitude": 6.55459, "longitude": 45.38992, "state": "Somali"}, {"city": "Yamarugley", "latitude": 6.80768, "longitude": 46.08482, "state": "Somali"}, {"city": "Duuban", "latitude": 6.67985, "longitude": 46.06619, "state": "Somali"}, {"city": "Semera", "latitude": 11.79342, "longitude": 41.00578, "state": "\u0100far"}, {"city": "Sodo", "latitude": 6.86, "longitude": 37.76159, "state": "South Ethiopia Regional State"}, {"city": "Kobo", "latitude": 10.02798, "longitude": 39.8528, "state": "Amhara"}, {"city": "Arsi Negele", "latitude": 7.3547, "longitude": 38.67465, "state": "Oromiya"}, {"city": "Digih Habar Es", "latitude": 6.44258, "longitude": 45.98329, "state": "Somali"}, {"city": "Chagni", "latitude": 10.95627, "longitude": 36.50456, "state": null}, {"city": "Shendi", "latitude": 10.64061, "longitude": 36.94684, "state": null}, {"city": "Burayu", "latitude": 9.03528, "longitude": 38.66083, "state": "Oromiya"}, {"city": "Guder", "latitude": 8.97054, "longitude": 37.76117, "state": "Oromiya"}, {"city": "May Cadera", "latitude": 14.07294, "longitude": 36.56828, "state": "Tigray"}, {"city": "Mehoni", "latitude": 12.79881, "longitude": 39.64448, "state": "\u0100far"}, {"city": "Shinshicho", "latitude": 7.20556, "longitude": 37.77778, "state": null}, {"city": "Wonji", "latitude": 8.4541, "longitude": 39.21752, "state": "Oromiya"}, {"city": "Worabe", "latitude": 7.85257, "longitude": 38.18529, "state": null}, {"city": "Adebaye", "latitude": 14.20226, "longitude": 36.75955, "state": "Tigray"}, {"city": "Damboya", "latitude": 7.34813, "longitude": 37.95063, "state": null}, {"city": "Ginja Bet", "latitude": 10.85029, "longitude": 36.89277, "state": "Amhara"}, {"city": "Gutin", "latitude": 9.56561, "longitude": 36.63569, "state": "Oromiya"}, {"city": "Kercha", "latitude": 5.78009, "longitude": 38.40887, "state": "Oromiya"}, {"city": "Wacha", "latitude": 7.15109, "longitude": 35.81703, "state": null}, {"city": "Wegeda", "latitude": 11.21566, "longitude": 38.36452, "state": "Amhara"}]