[{"city": "Les Trois-Bassins", "latitude": -21.1, "longitude": 55.3, "state": "R\u00e9union"}, {"city": "Salazie", "latitude": -21.0271, "longitude": 55.5395, "state": "R\u00e9union"}, {"city": "Saint-Pierre", "latitude": -21.3393, "longitude": 55.47811, "state": "R\u00e9union"}, {"city": "Saint-Philippe", "latitude": -21.36086, "longitude": 55.7679, "state": "R\u00e9union"}, {"city": "Saint-Paul", "latitude": -21.00961, "longitude": 55.27134, "state": "R\u00e9union"}, {"city": "Saint-Louis", "latitude": -21.28585, "longitude": 55.41124, "state": "R\u00e9union"}, {"city": "Saint-Leu", "latitude": -21.17059, "longitude": 55.28824, "state": "R\u00e9union"}, {"city": "Saint-Joseph", "latitude": -21.3777, "longitude": 55.61691, "state": "R\u00e9union"}, {"city": "Sainte-Suzanne", "latitude": -20.90616, "longitude": 55.60788, "state": "R\u00e9union"}, {"city": "Sainte-Rose", "latitude": -21.12858, "longitude": 55.79616, "state": "R\u00e9union"}, {"city": "Sainte-Marie", "latitude": -20.89686, "longitude": 55.55056, "state": "R\u00e9union"}, {"city": "Saint-Denis", "latitude": -20.88231, "longitude": 55.4504, "state": "R\u00e9union"}, {"city": "Saint-Beno\u00eet", "latitude": -21.03795, "longitude": 55.71546, "state": "R\u00e9union"}, {"city": "Saint-Andr\u00e9", "latitude": -20.96333, "longitude": 55.65031, "state": "R\u00e9union"}, {"city": "Petite-\u00cele", "latitude": -21.35327, "longitude": 55.56427, "state": "R\u00e9union"}, {"city": "Le Tampon", "latitude": -21.2766, "longitude": 55.51766, "state": "R\u00e9union"}, {"city": "Les Avirons", "latitude": -21.24063, "longitude": 55.33685, "state": "R\u00e9union"}, {"city": "Le Port", "latitude": -20.93752, "longitude": 55.29415, "state": "R\u00e9union"}, {"city": "La Possession", "latitude": -20.92909, "longitude": 55.3348, "state": "R\u00e9union"}, {"city": "La Plaine-des-Palmistes", "latitude": -21.13425, "longitude": 55.62819, "state": "R\u00e9union"}, {"city": "L'\u00c9tang-Sal\u00e9", "latitude": -21.25, "longitude": 55.38333, "state": "R\u00e9union"}, {"city": "Entre-Deux", "latitude": -21.23333, "longitude": 55.46667, "state": "R\u00e9union"}, {"city": "Cilaos", "latitude": -21.13641, "longitude": 55.47187, "state": "R\u00e9union"}, {"city": "Bras-Panon", "latitude": -20.99667, "longitude": 55.67823, "state": "R\u00e9union"}, {"city": "Piton Saint-Leu", "latitude": -21.21962, "longitude": 55.31513, "state": "R\u00e9union"}]