[{"city": "Beloslav", "latitude": 43.18717, "longitude": 27.70352, "state": "Varna"}, {"city": "Zlatograd", "latitude": 41.3795, "longitude": 25.09605, "state": "Smolyan"}, {"city": "Zlatitsa", "latitude": 42.71667, "longitude": 24.13333, "state": "Sofia"}, {"city": "Zlataritsa", "latitude": 43.05, "longitude": 25.9, "state": "Veliko Tarnovo"}, {"city": "Zemen", "latitude": 42.47889, "longitude": 22.74917, "state": "Pernik"}, {"city": "Zelenikovo", "latitude": 42.4, "longitude": 25.08333, "state": "Plovdiv"}, {"city": "Zavet", "latitude": 43.76036, "longitude": 26.68063, "state": "Razgrad"}, {"city": "Yambol", "latitude": 42.48333, "longitude": 26.5, "state": null}, {"city": "Yakoruda", "latitude": 42.02528, "longitude": 23.68417, "state": "Blagoevgrad"}, {"city": "Yakimovo", "latitude": 43.63472, "longitude": 23.3535, "state": "Montana"}, {"city": "Yablanitsa", "latitude": 43.02813, "longitude": 24.10244, "state": "Lovech"}, {"city": "Varshets", "latitude": 43.19356, "longitude": 23.2868, "state": "Montana"}, {"city": "Varbitsa", "latitude": 43.0, "longitude": 26.63333, "state": "Shumen"}, {"city": "Valchidol", "latitude": 43.4, "longitude": 27.55, "state": "Varna"}, {"city": "Valchedram", "latitude": 43.69281, "longitude": 23.44518, "state": "Montana"}, {"city": "Vratsa", "latitude": 43.21, "longitude": 23.5625, "state": null}, {"city": "Sveti Vlas", "latitude": 42.7136, "longitude": 27.75867, "state": "Burgas"}, {"city": "Vidin", "latitude": 43.99159, "longitude": 22.88236, "state": null}, {"city": "Vetrino", "latitude": 43.31667, "longitude": 27.43333, "state": "Varna"}, {"city": "Vetovo", "latitude": 43.7, "longitude": 26.26667, "state": "Ruse"}, {"city": "Venets", "latitude": 43.55, "longitude": 26.93333, "state": "Shumen"}, {"city": "Velingrad", "latitude": 42.02754, "longitude": 23.99155, "state": "Pazardzhik"}, {"city": "Veliko T\u016drnovo", "latitude": 43.08124, "longitude": 25.62904, "state": "Veliko Tarnovo"}, {"city": "Varna", "latitude": 43.21667, "longitude": 27.91667, "state": null}, {"city": "Ugarchin", "latitude": 43.1, "longitude": 24.41667, "state": "Lovech"}, {"city": "Tvarditsa", "latitude": 42.7, "longitude": 25.9, "state": "Sliven"}, {"city": "Tutrakan", "latitude": 44.04906, "longitude": 26.61206, "state": "Silistra"}, {"city": "Targovishte", "latitude": 43.2512, "longitude": 26.57215, "state": null}, {"city": "Tsenovo", "latitude": 43.53588, "longitude": 25.65764, "state": "Ruse"}, {"city": "Tryavna", "latitude": 42.86667, "longitude": 25.5, "state": "Gabrovo"}, {"city": "Tran", "latitude": 42.83528, "longitude": 22.65167, "state": "Pernik"}, {"city": "Troyan", "latitude": 42.89427, "longitude": 24.71589, "state": "Lovech"}, {"city": "Topolovo", "latitude": 41.9, "longitude": 25.0, "state": "Plovdiv"}, {"city": "Topolovgrad", "latitude": 42.08333, "longitude": 26.33333, "state": "Haskovo"}, {"city": "Dobrich", "latitude": 43.56667, "longitude": 27.83333, "state": null}, {"city": "Tochilari", "latitude": 43.85, "longitude": 26.46667, "state": "Razgrad"}, {"city": "Teteven", "latitude": 42.91667, "longitude": 24.26667, "state": "Lovech"}, {"city": "Tervel", "latitude": 43.74789, "longitude": 27.40911, "state": "Dobrich"}, {"city": "Batanovtsi", "latitude": 42.59692, "longitude": 22.95634, "state": "Pernik"}, {"city": "Svoge", "latitude": 42.96667, "longitude": 23.35, "state": "Sofia"}, {"city": "Svishtov", "latitude": 43.61875, "longitude": 25.35033, "state": "Veliko Tarnovo"}, {"city": "Svilengrad", "latitude": 41.76836, "longitude": 26.19775, "state": "Haskovo"}, {"city": "Suvorovo", "latitude": 43.33058, "longitude": 27.59908, "state": "Varna"}, {"city": "Sarnitsa", "latitude": 41.73835, "longitude": 24.02435, "state": "Pazardzhik"}, {"city": "Sungurlare", "latitude": 42.76667, "longitude": 26.78333, "state": "Burgas"}, {"city": "Suhindol", "latitude": 43.19167, "longitude": 25.18111, "state": "Veliko Tarnovo"}, {"city": "Saedinenie", "latitude": 42.26667, "longitude": 24.55, "state": "Plovdiv"}, {"city": "Strumyani", "latitude": 41.63333, "longitude": 23.2, "state": "Blagoevgrad"}, {"city": "Strelcha", "latitude": 42.5, "longitude": 24.31667, "state": "Pazardzhik"}, {"city": "Strazhitsa", "latitude": 43.23333, "longitude": 25.96667, "state": "Veliko Tarnovo"}, {"city": "Straldzha", "latitude": 42.6, "longitude": 26.68333, "state": "Yambol"}, {"city": "Stara Zagora", "latitude": 42.43278, "longitude": 25.64194, "state": null}, {"city": "Stara Kresna", "latitude": 41.8, "longitude": 23.18333, "state": "Blagoevgrad"}, {"city": "Dupnitsa", "latitude": 42.26478, "longitude": 23.11723, "state": "Kyustendil"}, {"city": "Stamboliyski", "latitude": 42.13333, "longitude": 24.53333, "state": "Plovdiv"}, {"city": "Spasovo", "latitude": 43.70168, "longitude": 28.30399, "state": "Dobrich"}, {"city": "Sozopol", "latitude": 42.41801, "longitude": 27.6956, "state": "Burgas"}, {"city": "Sofia", "latitude": 42.69751, "longitude": 23.32415, "state": "Sofia-Capital"}, {"city": "Smyadovo", "latitude": 43.06667, "longitude": 27.01667, "state": "Shumen"}, {"city": "Smolyan", "latitude": 41.57439, "longitude": 24.71204, "state": null}, {"city": "Slivo Pole", "latitude": 43.94248, "longitude": 26.20464, "state": "Ruse"}, {"city": "Slivnitsa", "latitude": 42.85182, "longitude": 23.03792, "state": "Sofia"}, {"city": "Sliven", "latitude": 42.68583, "longitude": 26.32917, "state": null}, {"city": "Slavyanovo", "latitude": 43.46667, "longitude": 24.86667, "state": "Pleven"}, {"city": "Sitovo", "latitude": 44.0273, "longitude": 27.01982, "state": "Silistra"}, {"city": "Simitli", "latitude": 41.88333, "longitude": 23.11667, "state": "Blagoevgrad"}, {"city": "Simeonovgrad", "latitude": 42.03333, "longitude": 25.83333, "state": "Haskovo"}, {"city": "Silistra", "latitude": 44.1171, "longitude": 27.26056, "state": null}, {"city": "Shumen", "latitude": 43.27064, "longitude": 26.92286, "state": null}, {"city": "Shipka", "latitude": 42.71172, "longitude": 25.3353, "state": "Stara Zagora"}, {"city": "Shabla", "latitude": 43.53983, "longitude": 28.53429, "state": "Dobrich"}, {"city": "Sevlievo", "latitude": 43.02295, "longitude": 25.10364, "state": "Gabrovo"}, {"city": "Septemvri", "latitude": 42.22016, "longitude": 24.11854, "state": "Pazardzhik"}, {"city": "Senovo", "latitude": 43.65, "longitude": 26.36667, "state": "Ruse"}, {"city": "Satovcha", "latitude": 41.61667, "longitude": 23.98333, "state": "Blagoevgrad"}, {"city": "Sarafovo", "latitude": 42.56079, "longitude": 27.52195, "state": "Burgas"}, {"city": "Sapareva Banya", "latitude": 42.28923, "longitude": 23.26313, "state": "Kyustendil"}, {"city": "Sandanski", "latitude": 41.56667, "longitude": 23.28333, "state": "Blagoevgrad"}, {"city": "Samuil", "latitude": 43.51667, "longitude": 26.75, "state": "Razgrad"}, {"city": "Samokov", "latitude": 42.33855, "longitude": 23.55805, "state": "Sofia"}, {"city": "Sadovo", "latitude": 42.13178, "longitude": 24.93999, "state": "Plovdiv"}, {"city": "Ruzhintsi", "latitude": 43.62179, "longitude": 22.83286, "state": "Vidin"}, {"city": "Ruse", "latitude": 43.84872, "longitude": 25.9534, "state": null}, {"city": "Ruen", "latitude": 42.8, "longitude": 27.28333, "state": "Burgas"}, {"city": "Rudozem", "latitude": 41.48751, "longitude": 24.84945, "state": "Smolyan"}, {"city": "Roman", "latitude": 43.15, "longitude": 23.91667, "state": "Vratsa"}, {"city": "Rila", "latitude": 42.12625, "longitude": 23.13283, "state": "Kyustendil"}, {"city": "Razlog", "latitude": 41.8863, "longitude": 23.46714, "state": "Blagoevgrad"}, {"city": "Razgrad", "latitude": 43.53333, "longitude": 26.51667, "state": null}, {"city": "Ravda", "latitude": 42.64185, "longitude": 27.67713, "state": "Burgas"}, {"city": "Rakovski", "latitude": 42.27408, "longitude": 24.94083, "state": "Plovdiv"}, {"city": "Rakitovo", "latitude": 41.99012, "longitude": 24.0873, "state": "Pazardzhik"}, {"city": "Radomir", "latitude": 42.54565, "longitude": 22.96553, "state": "Pernik"}, {"city": "Radnevo", "latitude": 42.3, "longitude": 25.93333, "state": "Stara Zagora"}, {"city": "Parvomaytsi", "latitude": 43.15, "longitude": 25.65, "state": "Veliko Tarnovo"}, {"city": "Parvomay", "latitude": 42.1, "longitude": 25.21667, "state": "Plovdiv"}, {"city": "Provadia", "latitude": 43.18333, "longitude": 27.43333, "state": "Varna"}, {"city": "Primorsko", "latitude": 42.26791, "longitude": 27.75611, "state": "Burgas"}, {"city": "Veliki Preslav", "latitude": 43.16667, "longitude": 26.81667, "state": "Shumen"}, {"city": "Pravets", "latitude": 42.89163, "longitude": 23.91525, "state": "Sofia"}, {"city": "Pordim", "latitude": 43.38333, "longitude": 24.85, "state": "Pleven"}, {"city": "Popovo", "latitude": 43.35, "longitude": 26.23333, "state": "Targovishte"}, {"city": "Pomorie", "latitude": 42.56326, "longitude": 27.62986, "state": "Burgas"}, {"city": "Polski Trambesh", "latitude": 43.37233, "longitude": 25.63525, "state": "Veliko Tarnovo"}, {"city": "Plovdiv", "latitude": 42.15, "longitude": 24.75, "state": null}, {"city": "Pliska", "latitude": 43.36667, "longitude": 27.11667, "state": "Shumen"}, {"city": "Pleven", "latitude": 43.41667, "longitude": 24.61667, "state": null}, {"city": "Pirdop", "latitude": 42.7, "longitude": 24.18333, "state": "Sofia"}, {"city": "Petrich", "latitude": 41.39846, "longitude": 23.20702, "state": "Blagoevgrad"}, {"city": "Peshtera", "latitude": 42.03372, "longitude": 24.29995, "state": "Pazardzhik"}, {"city": "Perushtitsa", "latitude": 42.05, "longitude": 24.55, "state": "Plovdiv"}, {"city": "Pernik", "latitude": 42.6, "longitude": 23.03333, "state": null}, {"city": "Iskar", "latitude": 43.45963, "longitude": 24.25739, "state": "Pleven"}, {"city": "Pazardzhik", "latitude": 42.2, "longitude": 24.33333, "state": null}, {"city": "Pavlikeni", "latitude": 43.24278, "longitude": 25.32194, "state": "Veliko Tarnovo"}, {"city": "Pavel Banya", "latitude": 42.6, "longitude": 25.2, "state": "Stara Zagora"}, {"city": "Panagyurishte", "latitude": 42.49518, "longitude": 24.19021, "state": "Pazardzhik"}, {"city": "Oryahovo", "latitude": 43.73805, "longitude": 23.95874, "state": "Vratsa"}, {"city": "Opaka", "latitude": 43.45, "longitude": 26.16667, "state": "Targovishte"}, {"city": "Omurtag", "latitude": 43.1, "longitude": 26.41667, "state": "Targovishte"}, {"city": "Obzor", "latitude": 42.81998, "longitude": 27.88007, "state": "Burgas"}, {"city": "Novo Selo", "latitude": 44.16214, "longitude": 22.78376, "state": "Vidin"}, {"city": "Novi Pazar", "latitude": 43.35, "longitude": 27.2, "state": "Shumen"}, {"city": "Nova Zagora", "latitude": 42.48333, "longitude": 26.01667, "state": "Sliven"}, {"city": "Nikopol", "latitude": 43.70528, "longitude": 24.89521, "state": "Pleven"}, {"city": "Nikolaevo", "latitude": 42.63333, "longitude": 25.8, "state": "Stara Zagora"}, {"city": "Nevestino", "latitude": 42.25465, "longitude": 22.84899, "state": "Kyustendil"}, {"city": "Nesebar", "latitude": 42.65921, "longitude": 27.73602, "state": "Burgas"}, {"city": "Nedelino", "latitude": 41.45602, "longitude": 25.08008, "state": "Smolyan"}, {"city": "Rupite", "latitude": 41.44245, "longitude": 23.24168, "state": "Blagoevgrad"}, {"city": "Maglizh", "latitude": 42.6, "longitude": 25.55, "state": "Stara Zagora"}, {"city": "Mizia", "latitude": 43.68623, "longitude": 23.85371, "state": "Vratsa"}, {"city": "Mirkovo", "latitude": 42.7, "longitude": 23.98333, "state": "Sofia"}, {"city": "Mineralni Bani", "latitude": 41.91667, "longitude": 25.35, "state": "Haskovo"}, {"city": "Montana", "latitude": 43.4125, "longitude": 23.225, "state": null}, {"city": "Tsarevo", "latitude": 42.16955, "longitude": 27.84541, "state": "Burgas"}, {"city": "Mezdra", "latitude": 43.15, "longitude": 23.7, "state": "Vratsa"}, {"city": "Medovene", "latitude": 43.76667, "longitude": 26.51667, "state": "Razgrad"}, {"city": "Medkovets", "latitude": 43.62403, "longitude": 23.16876, "state": "Montana"}, {"city": "Malko Tarnovo", "latitude": 41.97958, "longitude": 27.52477, "state": "Burgas"}, {"city": "Makresh", "latitude": 43.76794, "longitude": 22.66406, "state": "Vidin"}, {"city": "Madzharovo", "latitude": 41.63461, "longitude": 25.86439, "state": "Haskovo"}, {"city": "Madan", "latitude": 41.49869, "longitude": 24.93973, "state": "Smolyan"}, {"city": "Lyubimets", "latitude": 41.84432, "longitude": 26.08115, "state": "Haskovo"}, {"city": "Lyaskovets", "latitude": 43.11111, "longitude": 25.72833, "state": "Veliko Tarnovo"}, {"city": "Lukovit", "latitude": 43.2, "longitude": 24.16667, "state": "Lovech"}, {"city": "Laki", "latitude": 41.85, "longitude": 24.81667, "state": "Plovdiv"}, {"city": "Loznitsa", "latitude": 43.36667, "longitude": 26.6, "state": "Razgrad"}, {"city": "Lovech", "latitude": 43.13333, "longitude": 24.71667, "state": null}, {"city": "Lom", "latitude": 43.8317, "longitude": 23.23793, "state": "Montana"}, {"city": "Levski", "latitude": 43.36667, "longitude": 25.13333, "state": "Pleven"}, {"city": "Letnitsa", "latitude": 43.31167, "longitude": 25.07333, "state": "Lovech"}, {"city": "Lesichovo", "latitude": 42.35626, "longitude": 24.1119, "state": "Pazardzhik"}, {"city": "Lakatnik", "latitude": 43.05, "longitude": 23.4, "state": "Sofia"}, {"city": "Kyustendil", "latitude": 42.28389, "longitude": 22.69111, "state": null}, {"city": "Kardzhali", "latitude": 41.65, "longitude": 25.36667, "state": null}, {"city": "Kula", "latitude": 43.8879, "longitude": 22.52241, "state": "Vidin"}, {"city": "Kubrat", "latitude": 43.79658, "longitude": 26.50063, "state": "Razgrad"}, {"city": "Krushari", "latitude": 43.81675, "longitude": 27.75552, "state": "Dobrich"}, {"city": "Krumovgrad", "latitude": 41.47127, "longitude": 25.65485, "state": "Kardzhali"}, {"city": "Krivodol", "latitude": 43.37444, "longitude": 23.48444, "state": "Vratsa"}, {"city": "Krichim", "latitude": 42.05, "longitude": 24.46667, "state": "Plovdiv"}, {"city": "Kresna", "latitude": 41.73333, "longitude": 23.15, "state": "Blagoevgrad"}, {"city": "Kozloduy", "latitude": 43.77691, "longitude": 23.73001, "state": "Vratsa"}, {"city": "Koynare", "latitude": 43.35, "longitude": 24.13333, "state": "Pleven"}, {"city": "Kotel", "latitude": 42.88333, "longitude": 26.45, "state": "Sliven"}, {"city": "Kostinbrod", "latitude": 42.81667, "longitude": 23.21667, "state": "Sofia"}, {"city": "Koprivshtitsa", "latitude": 42.63333, "longitude": 24.35, "state": "Sofia"}, {"city": "Kolarovo", "latitude": 41.36385, "longitude": 23.10669, "state": "Blagoevgrad"}, {"city": "Kocherinovo", "latitude": 42.08439, "longitude": 23.0571, "state": "Kyustendil"}, {"city": "Knezha", "latitude": 43.5, "longitude": 24.08333, "state": "Pleven"}, {"city": "Klisura", "latitude": 42.69334, "longitude": 24.45019, "state": "Plovdiv"}, {"city": "Kiten", "latitude": 43.08333, "longitude": 27.31667, "state": "Varna"}, {"city": "Kiten", "latitude": 42.23424, "longitude": 27.7749, "state": "Burgas"}, {"city": "Kirkovo", "latitude": 41.32715, "longitude": 25.36379, "state": "Kardzhali"}, {"city": "Kilifarevo", "latitude": 42.98333, "longitude": 25.63333, "state": "Veliko Tarnovo"}, {"city": "Tsar Kaloyan", "latitude": 43.61667, "longitude": 26.25, "state": "Razgrad"}, {"city": "Hisarya", "latitude": 42.5, "longitude": 24.7, "state": "Plovdiv"}, {"city": "Hayredin", "latitude": 43.60193, "longitude": 23.66135, "state": "Vratsa"}, {"city": "Haskovo", "latitude": 41.93415, "longitude": 25.55557, "state": null}, {"city": "Harmanli", "latitude": 41.93233, "longitude": 25.90172, "state": "Haskovo"}, {"city": "Hadzhidimovo", "latitude": 41.52222, "longitude": 23.86861, "state": "Blagoevgrad"}, {"city": "Kermen", "latitude": 42.5, "longitude": 26.25, "state": "Sliven"}, {"city": "Kazanlak", "latitude": 42.61667, "longitude": 25.4, "state": "Stara Zagora"}, {"city": "Kaynardzha", "latitude": 43.99278, "longitude": 27.50713, "state": "Silistra"}, {"city": "Kavarna", "latitude": 43.43601, "longitude": 28.33953, "state": "Dobrich"}, {"city": "Kaspichan", "latitude": 43.31667, "longitude": 27.16667, "state": "Shumen"}, {"city": "Karnobat", "latitude": 42.65, "longitude": 26.98333, "state": "Burgas"}, {"city": "Karlovo", "latitude": 42.63333, "longitude": 24.8, "state": "Plovdiv"}, {"city": "Kaolinovo", "latitude": 43.61667, "longitude": 27.11667, "state": "Shumen"}, {"city": "Kameno", "latitude": 42.57084, "longitude": 27.29875, "state": "Burgas"}, {"city": "Kaloyanovo", "latitude": 42.35, "longitude": 24.73333, "state": "Plovdiv"}, {"city": "Kalofer", "latitude": 42.61667, "longitude": 24.98333, "state": "Plovdiv"}, {"city": "Ivaylovgrad", "latitude": 41.52672, "longitude": 26.1249, "state": "Haskovo"}, {"city": "Ivanovo", "latitude": 43.68568, "longitude": 25.95565, "state": "Ruse"}, {"city": "Isperih", "latitude": 43.71667, "longitude": 26.83333, "state": "Razgrad"}, {"city": "Iskar", "latitude": 43.6708, "longitude": 24.45233, "state": "Pleven"}, {"city": "Ihtiman", "latitude": 42.43821, "longitude": 23.81608, "state": "Sofia"}, {"city": "Garmen", "latitude": 41.6, "longitude": 23.81667, "state": "Blagoevgrad"}, {"city": "Gurkovo", "latitude": 42.66667, "longitude": 25.8, "state": "Stara Zagora"}, {"city": "Gulyantsi", "latitude": 43.64109, "longitude": 24.69368, "state": "Pleven"}, {"city": "G\u016dl\u016dbovo", "latitude": 42.13333, "longitude": 25.85, "state": "Stara Zagora"}, {"city": "Sredets", "latitude": 42.34747, "longitude": 27.17898, "state": "Burgas"}, {"city": "Gramada", "latitude": 43.83738, "longitude": 22.65279, "state": "Vidin"}, {"city": "Gyovren", "latitude": 41.66326, "longitude": 24.37557, "state": "Smolyan"}, {"city": "Gotse Delchev", "latitude": 41.56667, "longitude": 23.73333, "state": "Blagoevgrad"}, {"city": "Gorna Oryahovitsa", "latitude": 43.12778, "longitude": 25.70167, "state": "Veliko Tarnovo"}, {"city": "Gorna Malina", "latitude": 42.68333, "longitude": 23.7, "state": "Sofia"}, {"city": "Gorichevo", "latitude": 43.85, "longitude": 26.45, "state": "Razgrad"}, {"city": "Godech", "latitude": 43.01682, "longitude": 23.04852, "state": "Sofia"}, {"city": "Glavinitsa", "latitude": 43.91667, "longitude": 26.83333, "state": "Silistra"}, {"city": "Dolni Chiflik", "latitude": 42.99296, "longitude": 27.71596, "state": "Varna"}, {"city": "General Toshevo", "latitude": 43.70123, "longitude": 28.03787, "state": "Dobrich"}, {"city": "Gara Hitrino", "latitude": 43.43333, "longitude": 26.91667, "state": "Shumen"}, {"city": "Gabrovo", "latitude": 42.87472, "longitude": 25.33417, "state": null}, {"city": "Gabrovo", "latitude": 41.8, "longitude": 25.26667, "state": "Kardzhali"}, {"city": "Etropole", "latitude": 42.8328, "longitude": 23.99636, "state": "Sofia"}, {"city": "Elkhovo", "latitude": 42.57572, "longitude": 25.74801, "state": "Stara Zagora"}, {"city": "Elhovo", "latitude": 42.16667, "longitude": 26.56667, "state": "Yambol"}, {"city": "Elin Pelin", "latitude": 42.66667, "longitude": 23.6, "state": "Sofia"}, {"city": "Elena", "latitude": 42.93333, "longitude": 25.88333, "state": "Veliko Tarnovo"}, {"city": "Dzhebel", "latitude": 41.49566, "longitude": 25.30363, "state": "Kardzhali"}, {"city": "Dve Mogili", "latitude": 43.59258, "longitude": 25.87486, "state": "Ruse"}, {"city": "Dunavtsi", "latitude": 43.92111, "longitude": 22.82111, "state": "Vidin"}, {"city": "Dulovo", "latitude": 43.81667, "longitude": 27.15, "state": "Silistra"}, {"city": "Dalgopol", "latitude": 43.05, "longitude": 27.35, "state": "Varna"}, {"city": "Dryanovo", "latitude": 42.97897, "longitude": 25.4785, "state": "Gabrovo"}, {"city": "Dragoman", "latitude": 42.92191, "longitude": 22.93109, "state": "Sofia"}, {"city": "Dospat", "latitude": 41.64462, "longitude": 24.15857, "state": "Smolyan"}, {"city": "Dolni Dabnik", "latitude": 43.4, "longitude": 24.43333, "state": "Pleven"}, {"city": "Dolna Mitropolia", "latitude": 43.46667, "longitude": 24.53333, "state": "Pleven"}, {"city": "Dolna Banya", "latitude": 42.31093, "longitude": 23.76459, "state": "Sofia"}, {"city": "Dimovo", "latitude": 43.74167, "longitude": 22.72694, "state": "Vidin"}, {"city": "Dimitrovgrad", "latitude": 42.05, "longitude": 25.6, "state": "Haskovo"}, {"city": "Devnya", "latitude": 43.22222, "longitude": 27.56944, "state": "Varna"}, {"city": "Devin", "latitude": 41.74327, "longitude": 24.40003, "state": "Smolyan"}, {"city": "Debelets", "latitude": 43.03333, "longitude": 25.61667, "state": "Veliko Tarnovo"}, {"city": "Chuprene", "latitude": 43.51806, "longitude": 22.66611, "state": "Vidin"}, {"city": "Chirpan", "latitude": 42.2, "longitude": 25.33333, "state": "Stara Zagora"}, {"city": "Chiprovtsi", "latitude": 43.38417, "longitude": 22.88083, "state": "Montana"}, {"city": "Cherven Bryag", "latitude": 43.27884, "longitude": 24.08251, "state": "Pleven"}, {"city": "Chernomorets", "latitude": 42.44408, "longitude": 27.63902, "state": "Burgas"}, {"city": "Chepelare", "latitude": 41.73333, "longitude": 24.68333, "state": "Smolyan"}, {"city": "Chelopech", "latitude": 42.7, "longitude": 24.08333, "state": "Sofia"}, {"city": "Chavdar", "latitude": 42.65, "longitude": 24.05, "state": "Sofia"}, {"city": "Byala Slatina", "latitude": 43.46667, "longitude": 23.93333, "state": "Vratsa"}, {"city": "Byala Cherkva", "latitude": 43.2, "longitude": 25.3, "state": "Veliko Tarnovo"}, {"city": "Byala", "latitude": 42.87426, "longitude": 27.88865, "state": "Varna"}, {"city": "Burgas", "latitude": 42.50606, "longitude": 27.46781, "state": null}, {"city": "Buhovo", "latitude": 42.76667, "longitude": 23.56667, "state": "Sofia-Capital"}, {"city": "Brusartsi", "latitude": 43.66325, "longitude": 23.06692, "state": "Montana"}, {"city": "Brezovo", "latitude": 42.34666, "longitude": 25.07618, "state": "Plovdiv"}, {"city": "Breznik", "latitude": 42.74085, "longitude": 22.90723, "state": "Pernik"}, {"city": "Bregovo", "latitude": 44.15191, "longitude": 22.63877, "state": "Vidin"}, {"city": "Bratsigovo", "latitude": 42.02391, "longitude": 24.37557, "state": "Pazardzhik"}, {"city": "Bozhurishte", "latitude": 42.76305, "longitude": 23.19733, "state": "Sofia"}, {"city": "Boynitsa", "latitude": 43.9573, "longitude": 22.53238, "state": "Vidin"}, {"city": "Boychinovtsi", "latitude": 43.47058, "longitude": 23.33499, "state": "Montana"}, {"city": "Bov", "latitude": 43.03257, "longitude": 23.37751, "state": "Sofia"}, {"city": "Botevgrad", "latitude": 42.90799, "longitude": 23.79274, "state": "Sofia"}, {"city": "Borovo", "latitude": 43.49802, "longitude": 25.8082, "state": "Ruse"}, {"city": "Borovan", "latitude": 43.42959, "longitude": 23.75331, "state": "Vratsa"}, {"city": "Borino", "latitude": 41.68534, "longitude": 24.29023, "state": "Smolyan"}, {"city": "Bolyarovo", "latitude": 42.14868, "longitude": 26.81022, "state": "Yambol"}, {"city": "Bobov Dol", "latitude": 42.36378, "longitude": 22.99827, "state": "Kyustendil"}, {"city": "Boboshevo", "latitude": 42.15323, "longitude": 23.00037, "state": "Kyustendil"}, {"city": "Blagoevgrad", "latitude": 42.01667, "longitude": 23.1, "state": null}, {"city": "Berkovitsa", "latitude": 43.23741, "longitude": 23.12509, "state": "Montana"}, {"city": "Belovo", "latitude": 42.21395, "longitude": 24.01733, "state": "Pazardzhik"}, {"city": "Belogradchik", "latitude": 43.62722, "longitude": 22.68361, "state": "Vidin"}, {"city": "Belitsa", "latitude": 41.95077, "longitude": 23.55831, "state": "Blagoevgrad"}, {"city": "Belene", "latitude": 43.65062, "longitude": 25.1343, "state": "Pleven"}, {"city": "Batak", "latitude": 41.94307, "longitude": 24.21833, "state": "Pazardzhik"}, {"city": "Bata", "latitude": 42.73816, "longitude": 27.49722, "state": "Burgas"}, {"city": "Bansko", "latitude": 41.8361, "longitude": 23.48745, "state": "Blagoevgrad"}, {"city": "Banite", "latitude": 41.61667, "longitude": 25.01667, "state": "Smolyan"}, {"city": "Balchik", "latitude": 43.42166, "longitude": 28.15848, "state": "Dobrich"}, {"city": "Aytos", "latitude": 42.70322, "longitude": 27.25464, "state": "Burgas"}, {"city": "Asparuhovo", "latitude": 43.18067, "longitude": 27.88823, "state": "Varna"}, {"city": "Asenovgrad", "latitude": 42.01667, "longitude": 24.86667, "state": "Plovdiv"}, {"city": "Ardino", "latitude": 41.58322, "longitude": 25.13371, "state": "Kardzhali"}, {"city": "Apriltsi", "latitude": 42.84142, "longitude": 24.91759, "state": "Lovech"}, {"city": "Antonovo", "latitude": 43.15022, "longitude": 26.16032, "state": "Targovishte"}, {"city": "Anton", "latitude": 42.73501, "longitude": 24.25958, "state": "Sofia"}, {"city": "Alfatar", "latitude": 43.94691, "longitude": 27.28587, "state": "Silistra"}, {"city": "Aksakovo", "latitude": 43.25907, "longitude": 27.81755, "state": "Varna"}, {"city": "Ahtopol", "latitude": 42.10013, "longitude": 27.94361, "state": "Burgas"}, {"city": "Zlatni Pyasatsi", "latitude": 43.285, "longitude": 28.0418, "state": "Varna"}, {"city": "Aheloy", "latitude": 42.64987, "longitude": 27.64838, "state": "Burgas"}, {"city": "Balgarevo", "latitude": 43.40296, "longitude": 28.41189, "state": "Varna"}]