[{"city": "Udomlya", "latitude": 57.87597, "longitude": 35.00702, "state": "Tver Oblast"}, {"city": "Sosnovka", "latitude": 60.01667, "longitude": 30.35, "state": "St.-Petersburg"}, {"city": "Sasovo", "latitude": 54.35369, "longitude": 41.91986, "state": "Ryazan Oblast"}, {"city": "Novozavidovskiy", "latitude": 56.55, "longitude": 36.43333, "state": "Tver Oblast"}, {"city": "Krasnolesnyy", "latitude": 51.8829, "longitude": 39.5771, "state": "Voronezh Oblast"}, {"city": "Kosterevo", "latitude": 55.9299, "longitude": 39.61438, "state": "Vladimir Oblast"}, {"city": "Zyuzino", "latitude": 55.65608, "longitude": 37.56846, "state": "Moscow"}, {"city": "Zyukayka", "latitude": 58.20416, "longitude": 54.70784, "state": "Perm Krai"}, {"city": "Zykovo", "latitude": 54.06853, "longitude": 45.08633, "state": "Mordoviya Republic"}, {"city": "Zyablikovo", "latitude": 55.61667, "longitude": 37.76667, "state": "Moscow"}, {"city": "Zvony", "latitude": 56.62409, "longitude": 28.81604, "state": "Pskov Oblast"}, {"city": "Zverevo", "latitude": 48.02108, "longitude": 40.12282, "state": "Rostov"}, {"city": "Zvenigovo", "latitude": 55.97484, "longitude": 48.0178, "state": "Mariy-El Republic"}, {"city": "Zvenigorod", "latitude": 55.73401, "longitude": 36.85918, "state": "Moscow Oblast"}, {"city": "Zuyevka", "latitude": 58.40244, "longitude": 51.13227, "state": "Kirov Oblast"}, {"city": "Zubtsov", "latitude": 56.17533, "longitude": 34.58935, "state": "Tver Oblast"}, {"city": "Zubovo", "latitude": 60.3181, "longitude": 36.9709, "state": "Vologda Oblast"}, {"city": "Zubova Polyana", "latitude": 54.07813, "longitude": 42.83645, "state": "Mordoviya Republic"}, {"city": "Zolotukhino", "latitude": 52.08706, "longitude": 36.37896, "state": "Kursk Oblast"}, {"city": "Zolotkovo", "latitude": 55.5281, "longitude": 41.1053, "state": "Vladimir Oblast"}, {"city": "Zol\u2019noye", "latitude": 53.4421, "longitude": 49.7978, "state": "Samara Oblast"}, {"city": "Znamenskoye", "latitude": 53.27644, "longitude": 35.6845, "state": "Oryol oblast"}, {"city": "Znamenskoye", "latitude": 43.67669, "longitude": 45.12751, "state": "Chechnya"}, {"city": "Znamensk", "latitude": 54.61403, "longitude": 21.22722, "state": "Kaliningrad Oblast"}, {"city": "Znamenka", "latitude": 52.89789, "longitude": 35.97703, "state": "Oryol oblast"}, {"city": "Znamenka", "latitude": 52.41836, "longitude": 41.43166, "state": "Tambov Oblast"}, {"city": "Zmiy\u00ebvka", "latitude": 52.66568, "longitude": 36.37741, "state": "Oryol oblast"}, {"city": "Zmeyskaya", "latitude": 43.33617, "longitude": 44.15733, "state": "North Ossetia\u2013Alania"}, {"city": "Zlynka", "latitude": 52.42679, "longitude": 31.73859, "state": "Bryansk Oblast"}, {"city": "Zlatoust", "latitude": 55.17111, "longitude": 59.65083, "state": "Chelyabinsk"}, {"city": "Zirgan", "latitude": 53.2222, "longitude": 55.9185, "state": "Bashkortostan Republic"}, {"city": "Zimovniki", "latitude": 47.1474, "longitude": 42.4721, "state": "Rostov"}, {"city": "Zilair", "latitude": 52.2332, "longitude": 57.4392, "state": "Bashkortostan Republic"}, {"city": "Zhulebino", "latitude": 55.7, "longitude": 37.85, "state": "Moscow"}, {"city": "Zhukovsky", "latitude": 55.59528, "longitude": 38.12028, "state": "Moscow Oblast"}, {"city": "Zhukov", "latitude": 55.02381, "longitude": 36.7422, "state": "Kaluga Oblast"}, {"city": "Zhukovka", "latitude": 56.48333, "longitude": 37.51667, "state": "Moscow Oblast"}, {"city": "Zhukovka", "latitude": 53.53381, "longitude": 33.73075, "state": "Bryansk Oblast"}, {"city": "Zhizdra", "latitude": 53.74596, "longitude": 34.73951, "state": "Kaluga Oblast"}, {"city": "Zhiryatino", "latitude": 53.22659, "longitude": 33.72612, "state": "Bryansk Oblast"}, {"city": "Zhirnovsk", "latitude": 50.98448, "longitude": 44.77347, "state": "Volgograd Oblast"}, {"city": "Zhirnov", "latitude": 48.17089, "longitude": 41.12608, "state": "Rostov"}, {"city": "Zhil\u00ebvo", "latitude": 55.01408, "longitude": 38.01106, "state": "Moscow Oblast"}, {"city": "Zhiletovo", "latitude": 54.69216, "longitude": 36.02225, "state": "Kaluga Oblast"}, {"city": "Zhiguli", "latitude": 53.3579, "longitude": 49.301, "state": "Samara Oblast"}, {"city": "Zhigulevsk", "latitude": 53.39972, "longitude": 49.49528, "state": "Samara Oblast"}, {"city": "Zheshart", "latitude": 62.07314, "longitude": 49.57335, "state": "Komi"}, {"city": "Zherdevka", "latitude": 51.85429, "longitude": 41.45488, "state": "Tambov Oblast"}, {"city": "Zhemtala", "latitude": 43.28408, "longitude": 43.65586, "state": "Kabardino-Balkariya Republic"}, {"city": "Zheleznovodsk", "latitude": 44.14318, "longitude": 43.00475, "state": "Stavropol Kray"}, {"city": "Zheleznogorsk", "latitude": 52.34198, "longitude": 35.35917, "state": "Kursk Oblast"}, {"city": "Zheleznodorozhnyy", "latitude": 55.744, "longitude": 38.01684, "state": "Moscow Oblast"}, {"city": "Zheleznodorozhnyy", "latitude": 54.36013, "longitude": 21.30597, "state": "Kaliningrad Oblast"}, {"city": "Zhdankovskiy", "latitude": 53.75321, "longitude": 38.17951, "state": "Tula Oblast"}, {"city": "Zhavoronki", "latitude": 55.64943, "longitude": 37.10101, "state": "Moscow Oblast"}, {"city": "Zharkovskiy", "latitude": 55.84907, "longitude": 32.267, "state": "Tver Oblast"}, {"city": "Zhankhoteko", "latitude": 43.56417, "longitude": 43.21056, "state": "Kabardino-Balkariya Republic"}, {"city": "Zhadovka", "latitude": 53.57464, "longitude": 46.94985, "state": "Ulyanovsk"}, {"city": "Zernograd", "latitude": 46.84518, "longitude": 40.30834, "state": "Rostov"}, {"city": "Zenzeli", "latitude": 45.92407, "longitude": 47.04739, "state": "Astrakhan Oblast"}, {"city": "Zemlyansk", "latitude": 51.9041, "longitude": 38.7334, "state": "Voronezh Oblast"}, {"city": "Zemetchino", "latitude": 53.4973, "longitude": 42.61632, "state": "Penza Oblast"}, {"city": "Zelyony Gorod", "latitude": 56.17833, "longitude": 44.0744, "state": "Nizhny Novgorod Oblast"}, {"city": "Zelenokumsk", "latitude": 44.41044, "longitude": 43.88007, "state": "Stavropol Kray"}, {"city": "Zelenogradskiy", "latitude": 56.1, "longitude": 37.91667, "state": "Moscow Oblast"}, {"city": "Zelenogradsk", "latitude": 54.95893, "longitude": 20.47668, "state": "Kaliningrad Oblast"}, {"city": "Zelenograd", "latitude": 55.9825, "longitude": 37.18139, "state": "Moscow"}, {"city": "Zelenogorsk", "latitude": 60.19968, "longitude": 29.70183, "state": "St.-Petersburg"}, {"city": "Zelenodolsk", "latitude": 55.84376, "longitude": 48.51784, "state": "Tatarstan Republic"}, {"city": "Zelenoborskiy", "latitude": 66.845, "longitude": 32.36222, "state": "Murmansk"}, {"city": "Zelenets", "latitude": 61.88485, "longitude": 50.74892, "state": "Komi"}, {"city": "Zelenchukskaya", "latitude": 43.85495, "longitude": 41.59019, "state": "Karachayevo-Cherkesiya Republic"}, {"city": "Zayukovo", "latitude": 43.61611, "longitude": 43.33389, "state": "Kabardino-Balkariya Republic"}, {"city": "Zaymishche", "latitude": 52.7264, "longitude": 32.2334, "state": "Bryansk Oblast"}, {"city": "Zav\u2019yalovo", "latitude": 56.79196, "longitude": 53.37612, "state": "Udmurtiya Republic"}, {"city": "Zavoronezhskoye", "latitude": 52.8801, "longitude": 40.5526, "state": "Tambov Oblast"}, {"city": "Zavolzh\u2019ye", "latitude": 56.64051, "longitude": 43.39446, "state": "Nizhny Novgorod Oblast"}, {"city": "Zavolzhsk", "latitude": 57.48198, "longitude": 42.13821, "state": "Ivanovo Oblast"}, {"city": "Masalovka", "latitude": 48.40372, "longitude": 40.26064, "state": "Rostov"}, {"city": "Zavidovo", "latitude": 56.53333, "longitude": 36.53333, "state": "Tver Oblast"}, {"city": "Zavety Il\u2019icha", "latitude": 56.04284, "longitude": 37.85153, "state": "Moscow Oblast"}, {"city": "Zavetnoye", "latitude": 47.11944, "longitude": 43.89028, "state": "Rostov"}, {"city": "Zavetnoye", "latitude": 44.7492, "longitude": 41.5995, "state": "Stavropol Kray"}, {"city": "Zaterechnyy", "latitude": 44.79306, "longitude": 45.20972, "state": "Stavropol Kray"}, {"city": "Zasosna", "latitude": 50.63072, "longitude": 38.3965, "state": "Belgorod Oblast"}, {"city": "Zasechnoye", "latitude": 53.1092, "longitude": 45.07936, "state": "Penza Oblast"}, {"city": "Zarubino", "latitude": 58.735, "longitude": 33.47556, "state": "Novgorod Oblast"}, {"city": "Zarechnyy", "latitude": 57.46931, "longitude": 42.28431, "state": "Ivanovo Oblast"}, {"city": "Zarechnyy", "latitude": 53.7306, "longitude": 39.59437, "state": "Ryazan Oblast"}, {"city": "Zarechnyy", "latitude": 53.20356, "longitude": 45.19227, "state": "Penza Oblast"}, {"city": "Zaraysk", "latitude": 54.76327, "longitude": 38.88076, "state": "Moscow Oblast"}, {"city": "Zaprudnya", "latitude": 56.56667, "longitude": 37.43333, "state": "Moscow Oblast"}, {"city": "Zapolyarnyy", "latitude": 69.41541, "longitude": 30.81355, "state": "Murmansk"}, {"city": "Zaplavnoye", "latitude": 48.7048, "longitude": 45.0229, "state": "Volgograd Oblast"}, {"city": "Zapadnaya Dvina", "latitude": 56.25901, "longitude": 32.07454, "state": "Tver Oblast"}, {"city": "Zaokskiy", "latitude": 54.73028, "longitude": 37.39729, "state": "Tula Oblast"}, {"city": "Zandak", "latitude": 43.0571, "longitude": 46.45566, "state": "Chechnya"}, {"city": "Zamoskvorech\u2019ye", "latitude": 55.73333, "longitude": 37.63333, "state": "Moscow"}, {"city": "Zamishevo", "latitude": 52.5395, "longitude": 32.0129, "state": "Bryansk Oblast"}, {"city": "Zalukokoazhe", "latitude": 43.90063, "longitude": 43.2143, "state": "Kabardino-Balkariya Republic"}, {"city": "Zalegoshch\u2019", "latitude": 52.89907, "longitude": 36.88961, "state": "Oryol oblast"}, {"city": "Zakharovo", "latitude": 54.36821, "longitude": 39.27678, "state": "Ryazan Oblast"}, {"city": "Zakan-Yurt", "latitude": 43.26224, "longitude": 45.42307, "state": "Chechnya"}, {"city": "Zainsk", "latitude": 55.3195, "longitude": 52.06942, "state": "Tatarstan Republic"}, {"city": "Zagoryanskiy", "latitude": 55.9325, "longitude": 37.95806, "state": "Moscow Oblast"}, {"city": "Zadonsk", "latitude": 52.3904, "longitude": 38.9261, "state": "Lipetsk Oblast"}, {"city": "Zabolotovka", "latitude": 50.27798, "longitude": 39.31439, "state": "Voronezh Oblast"}, {"city": "Yuzhnyy-Kospashskiy", "latitude": 58.9725, "longitude": 57.759, "state": "Perm Krai"}, {"city": "Yuzhno-Sukhokumsk", "latitude": 44.66033, "longitude": 45.6475, "state": "Dagestan"}, {"city": "Yuzha", "latitude": 56.58374, "longitude": 42.01177, "state": "Ivanovo Oblast"}, {"city": "Yus\u2019va", "latitude": 58.96521, "longitude": 54.96012, "state": "Perm Krai"}, {"city": "Yushkozero", "latitude": 64.7505, "longitude": 32.10756, "state": "Karelia"}, {"city": "Yushkovo", "latitude": 55.55741, "longitude": 36.97176, "state": "Moscow Oblast"}, {"city": "Yuryuzan\u2019", "latitude": 54.86333, "longitude": 58.42194, "state": "Chelyabinsk"}, {"city": "Yur\u2019yev-Pol\u2019skiy", "latitude": 56.5046, "longitude": 39.67931, "state": "Vladimir Oblast"}, {"city": "Yur\u2019yevets", "latitude": 57.31213, "longitude": 43.10395, "state": "Ivanovo Oblast"}, {"city": "Yur\u2019ya", "latitude": 59.04453, "longitude": 49.27533, "state": "Kirov Oblast"}, {"city": "Yurovka", "latitude": 45.1147, "longitude": 37.41882, "state": "Krasnodar Krai"}, {"city": "Yurla", "latitude": 59.32379, "longitude": 54.32209, "state": "Perm Krai"}, {"city": "Yurino", "latitude": 56.29441, "longitude": 46.30198, "state": "Mariy-El Republic"}, {"city": "Yumaguzino", "latitude": 52.90412, "longitude": 56.39329, "state": "Bashkortostan Republic"}, {"city": "Yukhnov", "latitude": 54.74403, "longitude": 35.23233, "state": "Kaluga Oblast"}, {"city": "Yukamenskoye", "latitude": 57.8878, "longitude": 52.245, "state": "Udmurtiya Republic"}, {"city": "Yugo-Kamskiy", "latitude": 57.7026, "longitude": 55.5904, "state": "Perm Krai"}, {"city": "Yuganets", "latitude": 56.2508, "longitude": 43.23069, "state": "Nizhny Novgorod Oblast"}, {"city": "Yug", "latitude": 57.7293, "longitude": 56.172, "state": "Perm Krai"}, {"city": "Yubileynyy", "latitude": 58.7794, "longitude": 57.7822, "state": "Perm Krai"}, {"city": "Yoshkar-Ola", "latitude": 56.63877, "longitude": 47.89078, "state": "Mariy-El Republic"}, {"city": "Y\u00ebrzovka", "latitude": 48.93655, "longitude": 44.64554, "state": "Volgograd Oblast"}, {"city": "Yeyskoye Ukrepleniye", "latitude": 46.70675, "longitude": 38.61348, "state": "Krasnodar Krai"}, {"city": "Yeysk", "latitude": 46.7055, "longitude": 38.2739, "state": "Krasnodar Krai"}, {"city": "Yessentukskaya", "latitude": 44.02583, "longitude": 42.87491, "state": "Stavropol Kray"}, {"city": "Yessentuki", "latitude": 44.04826, "longitude": 42.85638, "state": "Stavropol Kray"}, {"city": "Yertsevo", "latitude": 60.7966, "longitude": 40.086, "state": "Arkhangelskaya"}, {"city": "Yershovo", "latitude": 55.76911, "longitude": 36.85929, "state": "Moscow Oblast"}, {"city": "Yershov", "latitude": 51.3513, "longitude": 48.2766, "state": "Saratov Oblast"}, {"city": "Yershichi", "latitude": 53.6727, "longitude": 32.75484, "state": "Smolensk Oblast"}, {"city": "Yermolino", "latitude": 56.14887, "longitude": 37.49112, "state": "Moscow Oblast"}, {"city": "Yermolino", "latitude": 55.19489, "longitude": 36.59513, "state": "Kaluga Oblast"}, {"city": "Yermolayevo", "latitude": 52.71667, "longitude": 55.8, "state": "Bashkortostan Republic"}, {"city": "Yermish\u2019", "latitude": 54.76847, "longitude": 42.26738, "state": "Ryazan Oblast"}, {"city": "Yermekeyevo", "latitude": 54.07614, "longitude": 53.67125, "state": "Bashkortostan Republic"}, {"city": "Yepifan\u2019", "latitude": 53.82526, "longitude": 38.55181, "state": "Tula Oblast"}, {"city": "Yenotayevka", "latitude": 47.24332, "longitude": 47.02898, "state": "Astrakhan Oblast"}, {"city": "Yemva", "latitude": 62.5879, "longitude": 50.8634, "state": "Komi"}, {"city": "Yemtsa", "latitude": 63.07337, "longitude": 40.33285, "state": "Arkhangelskaya"}, {"city": "Yemetsk", "latitude": 63.47191, "longitude": 41.78023, "state": "Arkhangelskaya"}, {"city": "Yelshanka", "latitude": 51.81389, "longitude": 46.39972, "state": "Saratov Oblast"}, {"city": "Yelovo", "latitude": 57.05226, "longitude": 54.92049, "state": "Perm Krai"}, {"city": "Yel\u2019nya", "latitude": 54.57735, "longitude": 33.18474, "state": "Smolensk Oblast"}, {"city": "Yel\u2019niki", "latitude": 54.62069, "longitude": 43.88242, "state": "Mordoviya Republic"}, {"city": "Y\u00eblkino", "latitude": 58.6922, "longitude": 59.832, "state": "Sverdlovsk Oblast"}, {"city": "Yelkhovka", "latitude": 53.86668, "longitude": 50.28319, "state": "Samara Oblast"}, {"city": "Yelizavetinskoye", "latitude": 45.00722, "longitude": 43.34944, "state": "Stavropol Kray"}, {"city": "Yelizavetinskaya", "latitude": 45.04616, "longitude": 38.79491, "state": "Krasnodar Krai"}, {"city": "Yelizavetino", "latitude": 59.49173, "longitude": 29.78153, "state": "Leningradskaya Oblast'"}, {"city": "Yelizavetinka", "latitude": 51.76732, "longitude": 59.74245, "state": "Orenburg Oblast"}, {"city": "Yelets", "latitude": 52.61435, "longitude": 38.50935, "state": "Lipetsk Oblast"}, {"city": "Yel\u2019digino", "latitude": 56.11667, "longitude": 37.81667, "state": "Moscow Oblast"}, {"city": "Yelat\u2019ma", "latitude": 54.9675, "longitude": 41.75083, "state": "Ryazan Oblast"}, {"city": "Yelan\u2019-Kolenovskiy", "latitude": 51.1632, "longitude": 41.151, "state": "Voronezh Oblast"}, {"city": "Yelan\u2019-Koleno", "latitude": 51.1523, "longitude": 41.2306, "state": "Voronezh Oblast"}, {"city": "Yelan\u2019", "latitude": 50.949, "longitude": 43.73781, "state": "Volgograd Oblast"}, {"city": "Yelabuga", "latitude": 55.76127, "longitude": 52.06493, "state": "Tatarstan Republic"}, {"city": "Yekimovichi", "latitude": 54.11285, "longitude": 33.29648, "state": "Smolensk Oblast"}, {"city": "Yekaterinovka", "latitude": 52.05083, "longitude": 44.34515, "state": "Saratov Oblast"}, {"city": "Yegor\u2019yevsk", "latitude": 55.37952, "longitude": 39.04122, "state": "Moscow Oblast"}, {"city": "Yegorlykskaya", "latitude": 46.56564, "longitude": 40.65621, "state": "Rostov"}, {"city": "Yefremov", "latitude": 53.13762, "longitude": 38.11856, "state": "Tula Oblast"}, {"city": "Yefimovskiy", "latitude": 59.49639, "longitude": 34.67222, "state": "Leningradskaya Oblast'"}, {"city": "Yedrovo", "latitude": 57.91306, "longitude": 33.62028, "state": "Novgorod Oblast"}, {"city": "Yazykovo", "latitude": 55.21988, "longitude": 56.13532, "state": "Bashkortostan Republic"}, {"city": "Yazykovo", "latitude": 54.2922, "longitude": 47.3891, "state": "Ulyanovsk"}, {"city": "Yayva", "latitude": 59.3347, "longitude": 57.2592, "state": "Perm Krai"}, {"city": "Yavas", "latitude": 54.4159, "longitude": 42.8491, "state": "Mordoviya Republic"}, {"city": "Yasnyy", "latitude": 51.0333, "longitude": 59.8742, "state": "Orenburg Oblast"}, {"city": "Yasnogorsk", "latitude": 54.48091, "longitude": 37.6982, "state": "Tula Oblast"}, {"city": "Yashkul\u2019", "latitude": 46.1711, "longitude": 45.3435, "state": "Kalmykiya Republic"}, {"city": "Yashalta", "latitude": 46.3395, "longitude": 42.2762, "state": "Kalmykiya Republic"}, {"city": "Yasenskaya", "latitude": 46.35753, "longitude": 38.26863, "state": "Krasnodar Krai"}, {"city": "Yasenevo", "latitude": 55.60686, "longitude": 37.51991, "state": "Moscow"}, {"city": "Yartsevo", "latitude": 55.06491, "longitude": 32.69693, "state": "Smolensk Oblast"}, {"city": "Yaroslavskaya", "latitude": 44.61056, "longitude": 40.46417, "state": "Krasnodar Krai"}, {"city": "Yaroslavl", "latitude": 57.62987, "longitude": 39.87368, "state": "Yaroslavl Oblast"}, {"city": "Yaroslavichi", "latitude": 60.49275, "longitude": 34.50806, "state": "Leningradskaya Oblast'"}, {"city": "Yaropolets", "latitude": 56.13333, "longitude": 35.83317, "state": "Moscow Oblast"}, {"city": "Yarensk", "latitude": 62.17359, "longitude": 49.0978, "state": "Arkhangelskaya"}, {"city": "Yarega", "latitude": 63.43543, "longitude": 53.5765, "state": "Komi"}, {"city": "Yaransk", "latitude": 57.30496, "longitude": 47.87387, "state": "Kirov Oblast"}, {"city": "Yar", "latitude": 58.2458, "longitude": 52.1054, "state": "Udmurtiya Republic"}, {"city": "Yantikovo", "latitude": 55.82158, "longitude": 47.91036, "state": "Chuvash Republic"}, {"city": "Yanis\u2019yarvi", "latitude": 61.89127, "longitude": 30.94849, "state": "Karelia"}, {"city": "Yanishpole", "latitude": 62.11095, "longitude": 34.27013, "state": "Karelia"}, {"city": "Yandyki", "latitude": 45.76913, "longitude": 47.12577, "state": "Astrakhan Oblast"}, {"city": "Yanaul", "latitude": 56.2751, "longitude": 54.9338, "state": "Bashkortostan Republic"}, {"city": "Novaya Maka", "latitude": 41.77173, "longitude": 48.36149, "state": "Dagestan"}, {"city": "Yamkino", "latitude": 55.92088, "longitude": 38.40417, "state": "Moscow Oblast"}, {"city": "Yambirno", "latitude": 54.1231, "longitude": 42.0911, "state": "Ryazan Oblast"}, {"city": "Yam", "latitude": 55.48785, "longitude": 37.74458, "state": "Moscow Oblast"}, {"city": "Yalkhoy-Mokhk", "latitude": 43.10528, "longitude": 46.19045, "state": "Chechnya"}, {"city": "Yakshur-Bod\u2019ya", "latitude": 57.184, "longitude": 53.16117, "state": "Udmurtiya Republic"}, {"city": "Yaksatovo", "latitude": 46.24343, "longitude": 48.01514, "state": "Astrakhan Oblast"}, {"city": "Yakovlevskoye", "latitude": 55.44194, "longitude": 37.94806, "state": "Moscow Oblast"}, {"city": "Yakovlevo", "latitude": 60.29409, "longitude": 29.488, "state": "Leningradskaya Oblast'"}, {"city": "Yakovlevo", "latitude": 50.85475, "longitude": 36.44614, "state": "Belgorod Oblast"}, {"city": "Yakhroma", "latitude": 56.3, "longitude": 37.48333, "state": "Moscow Oblast"}, {"city": "Yagry", "latitude": 64.59417, "longitude": 39.81028, "state": "Arkhangelskaya"}, {"city": "Yadrin", "latitude": 55.94052, "longitude": 46.20622, "state": "Chuvash Republic"}, {"city": "Yablonovskiy", "latitude": 44.98901, "longitude": 38.94324, "state": "Adygeya Republic"}, {"city": "Vyyezdnoye", "latitude": 55.38154, "longitude": 43.78638, "state": "Nizhny Novgorod Oblast"}, {"city": "Vytegra", "latitude": 61.00636, "longitude": 36.44811, "state": "Vologda Oblast"}, {"city": "Vysotskoye", "latitude": 45.025, "longitude": 42.90639, "state": "Stavropol Kray"}, {"city": "Vysotsk", "latitude": 60.62879, "longitude": 28.57048, "state": "Leningradskaya Oblast'"}, {"city": "Vysokovsk", "latitude": 56.31667, "longitude": 36.55, "state": "Moscow Oblast"}, {"city": "Vysokinichi", "latitude": 54.90928, "longitude": 36.93148, "state": "Kaluga Oblast"}, {"city": "Vysokaya Gora", "latitude": 55.91278, "longitude": 49.30167, "state": "Tatarstan Republic"}, {"city": "Vyshniy Voloch\u00ebk", "latitude": 57.5888, "longitude": 34.56854, "state": "Tver Oblast"}, {"city": "Vyshneye Dolgoye", "latitude": 52.06302, "longitude": 37.40518, "state": "Oryol oblast"}, {"city": "Vyshkov", "latitude": 52.4764, "longitude": 31.6873, "state": "Bryansk Oblast"}, {"city": "Vysha", "latitude": 53.84768, "longitude": 42.37766, "state": "Mordoviya Republic"}, {"city": "Vyselki", "latitude": 45.58121, "longitude": 39.66045, "state": "Krasnodar Krai"}, {"city": "Vyritsa", "latitude": 59.40778, "longitude": 30.34806, "state": "Leningradskaya Oblast'"}, {"city": "Vypolzovo", "latitude": 57.87667, "longitude": 33.69861, "state": "Tver Oblast"}, {"city": "Vyl\u2019gort", "latitude": 61.62423, "longitude": 50.75724, "state": "Komi"}, {"city": "Vyksa", "latitude": 55.32058, "longitude": 42.17402, "state": "Nizhny Novgorod Oblast"}, {"city": "Vykhino-Zhulebino", "latitude": 55.70196, "longitude": 37.81178, "state": "Moscow"}, {"city": "Vygonichi", "latitude": 53.09978, "longitude": 34.06741, "state": "Bryansk Oblast"}, {"city": "Vydropuzhsk", "latitude": 57.3647, "longitude": 34.84287, "state": "Tver Oblast"}, {"city": "Vychegodskiy", "latitude": 61.24702, "longitude": 46.89842, "state": "Arkhangelskaya"}, {"city": "Vyborg", "latitude": 60.70763, "longitude": 28.75283, "state": "Leningradskaya Oblast'"}, {"city": "Vybor", "latitude": 57.22716, "longitude": 29.1663, "state": "Pskov Oblast"}, {"city": "Vyazovaya", "latitude": 54.905, "longitude": 58.35611, "state": "Chelyabinsk"}, {"city": "Vyazniki", "latitude": 56.24227, "longitude": 42.14911, "state": "Vladimir Oblast"}, {"city": "Vyaz\u2019ma", "latitude": 55.20997, "longitude": 34.29695, "state": "Smolensk Oblast"}, {"city": "Vyatskiye Polyany", "latitude": 56.22912, "longitude": 51.06098, "state": "Kirov Oblast"}, {"city": "Vyartsilya", "latitude": 62.17645, "longitude": 30.69296, "state": "Karelia"}, {"city": "Vurnary", "latitude": 55.49044, "longitude": 46.96479, "state": "Chuvash Republic"}, {"city": "Vuktyl", "latitude": 63.8478, "longitude": 57.30987, "state": "Komi"}, {"city": "Vsevolozhsk", "latitude": 60.01512, "longitude": 30.67314, "state": "Leningradskaya Oblast'"}, {"city": "Voznesen\u2019ye", "latitude": 61.0106, "longitude": 35.47813, "state": "Leningradskaya Oblast'"}, {"city": "Voznesenskoye", "latitude": 54.88979, "longitude": 42.75703, "state": "Nizhny Novgorod Oblast"}, {"city": "Voznesenskaya", "latitude": 44.5527, "longitude": 41.0318, "state": "Krasnodar Krai"}, {"city": "Voznesenskaya", "latitude": 43.54379, "longitude": 44.74614, "state": "Ingushetiya Republic"}, {"city": "Vozhega", "latitude": 60.47246, "longitude": 40.22134, "state": "Vologda Oblast"}, {"city": "Voyvozh", "latitude": 62.89198, "longitude": 54.96346, "state": "Komi"}, {"city": "Voyskovitsy", "latitude": 59.53266, "longitude": 29.9362, "state": "Leningradskaya Oblast'"}, {"city": "Votkinsk", "latitude": 57.04867, "longitude": 53.9872, "state": "Udmurtiya Republic"}, {"city": "Vostryakovo", "latitude": 55.66667, "longitude": 37.45, "state": "Moscow Oblast"}, {"city": "Vostryakovo", "latitude": 55.39934, "longitude": 37.80829, "state": "Moscow Oblast"}, {"city": "Vostochnyy", "latitude": 58.78811, "longitude": 52.24513, "state": "Kirov Oblast"}, {"city": "Vostochnyy", "latitude": 55.81667, "longitude": 37.86667, "state": "Moscow"}, {"city": "Voskresenskoye", "latitude": 56.83816, "longitude": 45.4322, "state": "Nizhny Novgorod Oblast"}, {"city": "Voskresenskoye", "latitude": 53.12336, "longitude": 56.14664, "state": "Bashkortostan Republic"}, {"city": "Voskresenskoye", "latitude": 51.82478, "longitude": 46.93508, "state": "Saratov Oblast"}, {"city": "Voskresensk", "latitude": 55.29092, "longitude": 38.67556, "state": "Moscow Oblast"}, {"city": "Vorsma", "latitude": 55.99062, "longitude": 43.27249, "state": "Nizhny Novgorod Oblast"}, {"city": "Vorsha", "latitude": 56.0491, "longitude": 40.07966, "state": "Vladimir Oblast"}, {"city": "Vorotynets", "latitude": 56.061, "longitude": 45.86522, "state": "Nizhny Novgorod Oblast"}, {"city": "Voroshn\u00ebvo", "latitude": 51.652, "longitude": 36.05, "state": "Kursk Oblast"}, {"city": "Vorontsovka", "latitude": 50.6132, "longitude": 40.3549, "state": "Voronezh Oblast"}, {"city": "Vorontsovka", "latitude": 46.6529, "longitude": 38.0787, "state": "Krasnodar Krai"}, {"city": "Voronezh", "latitude": 51.67204, "longitude": 39.1843, "state": "Voronezh Oblast"}, {"city": "Altuf\u2019yevskiy", "latitude": 55.88333, "longitude": 37.58333, "state": "Moscow"}, {"city": "Vorob\u2019yovo", "latitude": 55.71667, "longitude": 37.53333, "state": "Moscow"}, {"city": "Vorobyovka", "latitude": 50.6481, "longitude": 40.95028, "state": "Voronezh Oblast"}, {"city": "Volzhskiy", "latitude": 53.43058, "longitude": 50.119, "state": "Samara Oblast"}, {"city": "Volzhsky", "latitude": 48.78583, "longitude": 44.77973, "state": "Volgograd Oblast"}, {"city": "Volzhsk", "latitude": 55.86661, "longitude": 48.35931, "state": "Mariy-El Republic"}, {"city": "Volya", "latitude": 51.7696, "longitude": 39.5359, "state": "Voronezh Oblast"}, {"city": "Vol\u2019sk", "latitude": 52.04541, "longitude": 47.37993, "state": "Saratov Oblast"}, {"city": "Volovo", "latitude": 52.02684, "longitude": 37.88204, "state": "Lipetsk Oblast"}, {"city": "Volot", "latitude": 57.92778, "longitude": 30.7025, "state": "Novgorod Oblast"}, {"city": "Volosovo", "latitude": 59.44525, "longitude": 29.48911, "state": "Leningradskaya Oblast'"}, {"city": "Voloshka", "latitude": 61.33139, "longitude": 40.08583, "state": "Arkhangelskaya"}, {"city": "Volokonovka", "latitude": 50.4827, "longitude": 37.8563, "state": "Belgorod Oblast"}, {"city": "Volokolamsk", "latitude": 56.03361, "longitude": 35.96944, "state": "Moscow Oblast"}, {"city": "Vologda", "latitude": 59.2239, "longitude": 39.88398, "state": "Vologda Oblast"}, {"city": "Volodarskogo", "latitude": 55.50349, "longitude": 37.94174, "state": "Moscow Oblast"}, {"city": "Volodarskiy", "latitude": 46.40431, "longitude": 48.53899, "state": "Astrakhan Oblast"}, {"city": "Volodarsk", "latitude": 56.22547, "longitude": 43.17585, "state": "Nizhny Novgorod Oblast"}, {"city": "Volochayevskoye", "latitude": 54.70034, "longitude": 20.21966, "state": "Kaliningrad Oblast"}, {"city": "Vol\u2019nyy Aul", "latitude": 43.47861, "longitude": 43.6275, "state": "Kabardino-Balkariya Republic"}, {"city": "Volkhovskiy", "latitude": 58.58, "longitude": 31.31641, "state": "Novgorod Oblast"}, {"city": "Volkhov", "latitude": 59.92335, "longitude": 32.33966, "state": "Leningradskaya Oblast'"}, {"city": "Nagornyy", "latitude": 55.65, "longitude": 37.61667, "state": "Moscow"}, {"city": "Volgorechensk", "latitude": 57.44441, "longitude": 41.16335, "state": "Kostroma Oblast"}, {"city": "Volgo-Kaspiyskiy", "latitude": 46.20306, "longitude": 47.91869, "state": "Astrakhan Oblast"}, {"city": "Volgograd", "latitude": 48.71939, "longitude": 44.50183, "state": "Volgograd Oblast"}, {"city": "Volgodonsk", "latitude": 47.51361, "longitude": 42.15139, "state": "Rostov"}, {"city": "Vol\u2019ginskiy", "latitude": 55.942, "longitude": 39.247, "state": "Vladimir Oblast"}, {"city": "Volga", "latitude": 57.95157, "longitude": 38.38785, "state": "Yaroslavl Oblast"}, {"city": "Vokhtoga", "latitude": 58.80949, "longitude": 41.06245, "state": "Vologda Oblast"}, {"city": "Vokhma", "latitude": 58.93091, "longitude": 46.75927, "state": "Kostroma Oblast"}, {"city": "Vodstroy", "latitude": 48.84165, "longitude": 44.55793, "state": "Volgograd Oblast"}, {"city": "Yutsa", "latitude": 43.95639, "longitude": 43.01278, "state": "Stavropol Kray"}, {"city": "Vodnyy", "latitude": 63.50464, "longitude": 53.40947, "state": "Komi"}, {"city": "Vlasikha", "latitude": 55.68423, "longitude": 37.19661, "state": "Moscow Oblast"}, {"city": "Novovladykino", "latitude": 55.85, "longitude": 37.58333, "state": "Moscow"}, {"city": "Vladimirskoye", "latitude": 56.82002, "longitude": 45.11843, "state": "Nizhny Novgorod Oblast"}, {"city": "Vladimirskaya", "latitude": 44.5455, "longitude": 40.7933, "state": "Krasnodar Krai"}, {"city": "Vladimir", "latitude": 56.13655, "longitude": 40.39658, "state": "Vladimir Oblast"}, {"city": "Vladikavkaz", "latitude": 43.03667, "longitude": 44.66778, "state": "North Ossetia\u2013Alania"}, {"city": "Vizinga", "latitude": 61.07321, "longitude": 50.07756, "state": "Komi"}, {"city": "Vityazevo", "latitude": 45.0013, "longitude": 37.28211, "state": "Krasnodar Krai"}, {"city": "Vistino", "latitude": 59.77558, "longitude": 28.47708, "state": "Leningradskaya Oblast'"}, {"city": "Visim", "latitude": 57.6488, "longitude": 59.5014, "state": "Sverdlovsk Oblast"}, {"city": "Vishnyakovskiye Dachi", "latitude": 55.7647, "longitude": 38.13334, "state": "Moscow Oblast"}, {"city": "Vinsady", "latitude": 44.08083, "longitude": 42.96528, "state": "Stavropol Kray"}, {"city": "Vinogradovo", "latitude": 56.93333, "longitude": 37.55, "state": "Moscow Oblast"}, {"city": "Vinogradnyy", "latitude": 45.0561, "longitude": 37.32125, "state": "Krasnodar Krai"}, {"city": "Vinnitsy", "latitude": 60.62867, "longitude": 34.77302, "state": "Leningradskaya Oblast'"}, {"city": "Vilya", "latitude": 55.24556, "longitude": 42.20889, "state": "Nizhny Novgorod Oblast"}, {"city": "Vilovatovo", "latitude": 56.1724, "longitude": 46.60134, "state": "Mariy-El Republic"}, {"city": "Vilenka", "latitude": 54.2693, "longitude": 38.91663, "state": "Ryazan Oblast"}, {"city": "Vidnoye", "latitude": 55.5523, "longitude": 37.70885, "state": "Moscow Oblast"}, {"city": "Vichuga", "latitude": 57.2145, "longitude": 41.92555, "state": "Ivanovo Oblast"}, {"city": "Veydelevka", "latitude": 50.1521, "longitude": 38.4492, "state": "Belgorod Oblast"}, {"city": "Vetluzhskiy", "latitude": 58.39016, "longitude": 45.46543, "state": "Kostroma Oblast"}, {"city": "Vetluzhskiy", "latitude": 57.17355, "longitude": 45.12272, "state": "Nizhny Novgorod Oblast"}, {"city": "Vetluga", "latitude": 57.85516, "longitude": 45.77773, "state": "Nizhny Novgorod Oblast"}, {"city": "Ves\u2019yegonsk", "latitude": 58.66769, "longitude": 37.26365, "state": "Tver Oblast"}, {"city": "Veshnyaki", "latitude": 55.72393, "longitude": 37.81952, "state": "Moscow"}, {"city": "Veshkayma", "latitude": 54.0472, "longitude": 47.13, "state": "Ulyanovsk"}, {"city": "Veshenskaya", "latitude": 49.6352, "longitude": 41.7245, "state": "Rostov"}, {"city": "Veshchevo", "latitude": 60.73107, "longitude": 29.18305, "state": "Leningradskaya Oblast'"}, {"city": "Ves\u00eblyy", "latitude": 47.09338, "longitude": 40.7422, "state": "Rostov"}, {"city": "Verkhozim", "latitude": 52.71221, "longitude": 45.41803, "state": "Penza Oblast"}, {"city": "Verkhov\u2019ye", "latitude": 52.81025, "longitude": 37.24187, "state": "Oryol oblast"}, {"city": "Verkhovazh\u2019ye", "latitude": 60.74717, "longitude": 42.04652, "state": "Vologda Oblast"}, {"city": "Verkhoshizhem\u2019ye", "latitude": 58.00814, "longitude": 49.1066, "state": "Kirov Oblast"}, {"city": "Verkhnyaya Tura", "latitude": 58.36083, "longitude": 59.80667, "state": "Sverdlovsk Oblast"}, {"city": "Verkhnyaya Toyma", "latitude": 62.23712, "longitude": 45.00404, "state": "Arkhangelskaya"}, {"city": "Verkhnyaya Tishanka", "latitude": 51.3249, "longitude": 40.5299, "state": "Voronezh Oblast"}, {"city": "Verkhnyaya Maksakovka", "latitude": 61.63504, "longitude": 50.9674, "state": "Komi"}, {"city": "Kishcha", "latitude": 42.17677, "longitude": 47.58117, "state": "Dagestan"}, {"city": "Verkhnyaya Khava", "latitude": 51.83652, "longitude": 39.93313, "state": "Voronezh Oblast"}, {"city": "Verkhnyaya Balkariya", "latitude": 43.12545, "longitude": 43.45687, "state": "Kabardino-Balkariya Republic"}, {"city": "Verkhniy Uslon", "latitude": 55.7701, "longitude": 48.9823, "state": "Tatarstan Republic"}, {"city": "Verkhniy Tagil", "latitude": 57.37416, "longitude": 59.95422, "state": "Sverdlovsk Oblast"}, {"city": "Lakkha N\u00ebvre", "latitude": 43.61033, "longitude": 45.24542, "state": "Chechnya"}, {"city": "Verkhniy Mamon", "latitude": 50.1635, "longitude": 40.3832, "state": "Voronezh Oblast"}, {"city": "Verkhniy Lomov", "latitude": 53.46778, "longitude": 43.55111, "state": "Penza Oblast"}, {"city": "Verkhniy Landekh", "latitude": 56.83955, "longitude": 42.59731, "state": "Ivanovo Oblast"}, {"city": "Verkhniy Kurkuzhin", "latitude": 43.69556, "longitude": 43.27472, "state": "Kabardino-Balkariya Republic"}, {"city": "Tyrnyauz", "latitude": 43.40578, "longitude": 42.92744, "state": "Kabardino-Balkariya Republic"}, {"city": "Verkhniy Fiagdon", "latitude": 42.83454, "longitude": 44.30604, "state": "North Ossetia\u2013Alania"}, {"city": "Verkhniye Tatyshly", "latitude": 56.29117, "longitude": 55.8575, "state": "Bashkortostan Republic"}, {"city": "Verkhniye Sergi", "latitude": 56.64694, "longitude": 59.55556, "state": "Sverdlovsk Oblast"}, {"city": "Verkhniye Osel\u2019ki", "latitude": 60.24948, "longitude": 30.44938, "state": "Leningradskaya Oblast'"}, {"city": "Verkhniye Kigi", "latitude": 55.40833, "longitude": 58.60444, "state": "Bashkortostan Republic"}, {"city": "Verkhniye Achaluki", "latitude": 43.34694, "longitude": 44.6975, "state": "Ingushetiya Republic"}, {"city": "Verkhniy Baskunchak", "latitude": 48.22564, "longitude": 46.72169, "state": "Astrakhan Oblast"}, {"city": "Verkhniy Avzyan", "latitude": 53.52889, "longitude": 57.53722, "state": "Bashkortostan Republic"}, {"city": "Verkhneye Kazanishche", "latitude": 42.73547, "longitude": 47.1378, "state": "Dagestan"}, {"city": "Verkhneyarkeyevo", "latitude": 55.45046, "longitude": 54.31455, "state": "Bashkortostan Republic"}, {"city": "Verkhneural\u2019sk", "latitude": 53.87694, "longitude": 59.21056, "state": "Chelyabinsk"}, {"city": "Verkhnetulomskiy", "latitude": 68.60727, "longitude": 31.79621, "state": "Murmansk"}, {"city": "Verkhnedneprovskiy", "latitude": 54.98131, "longitude": 33.34573, "state": "Smolensk Oblast"}, {"city": "Verkhnechusovskiye Gorodki", "latitude": 58.1671, "longitude": 57.1086, "state": "Perm Krai"}, {"city": "Vereya", "latitude": 55.77373, "longitude": 39.09766, "state": "Moscow Oblast"}, {"city": "Vereya", "latitude": 55.61472, "longitude": 38.03917, "state": "Moscow Oblast"}, {"city": "Vereya", "latitude": 55.34472, "longitude": 36.17194, "state": "Moscow Oblast"}, {"city": "Vereshchagino", "latitude": 58.07815, "longitude": 54.65648, "state": "Perm Krai"}, {"city": "Verbilki", "latitude": 56.53333, "longitude": 37.6, "state": "Moscow Oblast"}, {"city": "Ventsy", "latitude": 45.37639, "longitude": 40.83583, "state": "Krasnodar Krai"}, {"city": "Ven\u00ebv", "latitude": 54.35074, "longitude": 38.26304, "state": "Tula Oblast"}, {"city": "Vel\u2019ye", "latitude": 56.97005, "longitude": 28.57883, "state": "Pskov Oblast"}, {"city": "Vel\u2019sk", "latitude": 61.06919, "longitude": 42.0992, "state": "Arkhangelskaya"}, {"city": "Velizh", "latitude": 55.60448, "longitude": 31.1986, "state": "Smolensk Oblast"}, {"city": "Velikovechnoye", "latitude": 44.93402, "longitude": 39.75499, "state": "Krasnodar Krai"}, {"city": "Velikooktyabr\u2019skiy", "latitude": 57.43333, "longitude": 33.81595, "state": "Tver Oblast"}, {"city": "Velikodvorskiy", "latitude": 55.24996, "longitude": 40.6678, "state": "Vladimir Oblast"}, {"city": "Velikiy Ustyug", "latitude": 60.76186, "longitude": 46.31352, "state": "Vologda Oblast"}, {"city": "Velikiye Luki", "latitude": 56.34063, "longitude": 30.54377, "state": "Pskov Oblast"}, {"city": "Velikent", "latitude": 42.18762, "longitude": 48.06366, "state": "Dagestan"}, {"city": "Vedeno", "latitude": 42.971, "longitude": 46.09719, "state": "Chechnya"}, {"city": "Vazhiny", "latitude": 60.96444, "longitude": 34.02222, "state": "Leningradskaya Oblast'"}, {"city": "Vavozh", "latitude": 56.77513, "longitude": 51.93098, "state": "Udmurtiya Republic"}, {"city": "Vatutino", "latitude": 55.88441, "longitude": 37.69055, "state": "Moscow"}, {"city": "Vatutinki", "latitude": 55.4965, "longitude": 37.32988, "state": "Moscow"}, {"city": "Vasyurinskaya", "latitude": 45.11809, "longitude": 39.42399, "state": "Krasnodar Krai"}, {"city": "Vaskelovo", "latitude": 60.39571, "longitude": 30.35419, "state": "Leningradskaya Oblast'"}, {"city": "Vasil\u2019yevskiy Mokh", "latitude": 57.01316, "longitude": 35.91897, "state": "Tver Oblast"}, {"city": "Vasil\u2019sursk", "latitude": 56.13139, "longitude": 46.016, "state": "Nizhny Novgorod Oblast"}, {"city": "Varygino", "latitude": 56.76268, "longitude": 28.53495, "state": "Pskov Oblast"}, {"city": "Varnavino", "latitude": 57.40169, "longitude": 45.08937, "state": "Nizhny Novgorod Oblast"}, {"city": "Varlamovo", "latitude": 53.1897, "longitude": 48.4226, "state": "Samara Oblast"}, {"city": "Varenikovskaya", "latitude": 45.12085, "longitude": 37.64171, "state": "Krasnodar Krai"}, {"city": "Vardane", "latitude": 43.73179, "longitude": 39.55428, "state": "Krasnodar Krai"}, {"city": "Valuyki", "latitude": 50.2035, "longitude": 38.1067, "state": "Belgorod Oblast"}, {"city": "Valerik", "latitude": 43.17972, "longitude": 45.40806, "state": "Chechnya"}, {"city": "Valerianovsk", "latitude": 58.7608, "longitude": 59.5596, "state": "Sverdlovsk Oblast"}, {"city": "Valday", "latitude": 57.97729, "longitude": 33.25153, "state": "Novgorod Oblast"}, {"city": "Vakhtan", "latitude": 57.96592, "longitude": 46.68886, "state": "Nizhny Novgorod Oblast"}, {"city": "Vakhrushi", "latitude": 58.68472, "longitude": 50.02611, "state": "Kirov Oblast"}, {"city": "Vagonoremont", "latitude": 55.9, "longitude": 37.55, "state": "Moscow"}, {"city": "Vadinsk", "latitude": 53.69157, "longitude": 43.05744, "state": "Penza Oblast"}, {"city": "Vad", "latitude": 55.53022, "longitude": 44.20671, "state": "Nizhny Novgorod Oblast"}, {"city": "Vachi", "latitude": 42.07381, "longitude": 47.21474, "state": "Dagestan"}, {"city": "Vacha", "latitude": 55.80029, "longitude": 42.77455, "state": "Nizhny Novgorod Oblast"}, {"city": "Uzunovo", "latitude": 54.53858, "longitude": 38.61734, "state": "Moscow Oblast"}, {"city": "Uzlovaya", "latitude": 53.9839, "longitude": 38.15984, "state": "Tula Oblast"}, {"city": "Uyemskiy", "latitude": 64.4743, "longitude": 40.8524, "state": "Arkhangelskaya"}, {"city": "Uvary", "latitude": 46.04575, "longitude": 48.03558, "state": "Astrakhan Oblast"}, {"city": "Uvarovo", "latitude": 51.982, "longitude": 42.26175, "state": "Tambov Oblast"}, {"city": "Uvarovka", "latitude": 55.52925, "longitude": 35.60714, "state": "Moscow Oblast"}, {"city": "Uva", "latitude": 56.99081, "longitude": 52.18517, "state": "Udmurtiya Republic"}, {"city": "Utsmiyurt", "latitude": 43.53481, "longitude": 46.46952, "state": "Dagestan"}, {"city": "Utorgosh", "latitude": 58.28127, "longitude": 30.25344, "state": "Novgorod Oblast"}, {"city": "Utevka", "latitude": 52.9035, "longitude": 50.9495, "state": "Samara Oblast"}, {"city": "Utamysh", "latitude": 42.40718, "longitude": 47.75109, "state": "Dagestan"}, {"city": "Usvyaty", "latitude": 55.74283, "longitude": 30.75194, "state": "Pskov Oblast"}, {"city": "Usukhchay", "latitude": 41.42245, "longitude": 47.91318, "state": "Dagestan"}, {"city": "Ustyuzhna", "latitude": 58.8394, "longitude": 36.4321, "state": "Vologda Oblast"}, {"city": "Ust\u2019ye", "latitude": 59.63043, "longitude": 39.73596, "state": "Vologda Oblast"}, {"city": "Ust-Tsilma", "latitude": 65.44104, "longitude": 52.14978, "state": "Komi"}, {"city": "Ust\u2019-Shonosha", "latitude": 61.1531, "longitude": 41.343, "state": "Arkhangelskaya"}, {"city": "Ust\u2019-Luga", "latitude": 59.66755, "longitude": 28.28713, "state": "Leningradskaya Oblast'"}, {"city": "Ust\u2019-Labinsk", "latitude": 45.21077, "longitude": 39.68914, "state": "Krasnodar Krai"}, {"city": "Ust\u2019-Kulom", "latitude": 61.68754, "longitude": 53.68938, "state": "Komi"}, {"city": "Ust\u2019-Kishert\u2019", "latitude": 57.36635, "longitude": 57.24837, "state": "Perm Krai"}, {"city": "Ust\u2019-Katav", "latitude": 54.9366, "longitude": 58.1757, "state": "Chelyabinsk"}, {"city": "Ust\u2019-Kachka", "latitude": 58.0038, "longitude": 55.6721, "state": "Perm Krai"}, {"city": "Ust\u2019-Izhora", "latitude": 59.81194, "longitude": 30.58139, "state": "St.-Petersburg"}, {"city": "Ust\u2019-Dzheguta", "latitude": 44.0834, "longitude": 41.9763, "state": "Karachayevo-Cherkesiya Republic"}, {"city": "Ust\u2019-Donetskiy", "latitude": 47.64189, "longitude": 40.87182, "state": "Rostov"}, {"city": "Uspenskoye", "latitude": 44.8311, "longitude": 41.3927, "state": "Krasnodar Krai"}, {"city": "Uspenskaya", "latitude": 45.76448, "longitude": 41.06696, "state": "Krasnodar Krai"}, {"city": "Usol\u2019ye", "latitude": 59.42209, "longitude": 56.68413, "state": "Perm Krai"}, {"city": "Usogorsk", "latitude": 63.41064, "longitude": 48.68722, "state": "Komi"}, {"city": "Usman\u2019", "latitude": 52.04479, "longitude": 39.72569, "state": "Lipetsk Oblast"}, {"city": "Usisha", "latitude": 42.25111, "longitude": 47.39278, "state": "Dagestan"}, {"city": "Urzhum", "latitude": 57.11442, "longitude": 49.99925, "state": "Kirov Oblast"}, {"city": "Uryv-Pokrovka", "latitude": 51.1159, "longitude": 39.16394, "state": "Voronezh Oblast"}, {"city": "Uryupinsk", "latitude": 50.8047, "longitude": 42.0138, "state": "Volgograd Oblast"}, {"city": "Urvan\u2019", "latitude": 43.48936, "longitude": 43.76379, "state": "Kabardino-Balkariya Republic"}, {"city": "Urussu", "latitude": 54.59812, "longitude": 53.46313, "state": "Tatarstan Republic"}, {"city": "Urus-Martan", "latitude": 43.13053, "longitude": 45.53791, "state": "Chechnya"}, {"city": "Urukh", "latitude": 43.29335, "longitude": 44.02647, "state": "Kabardino-Balkariya Republic"}, {"city": "Urshel\u2019skiy", "latitude": 55.67833, "longitude": 40.21692, "state": "Vladimir Oblast"}, {"city": "Urozhaynoye", "latitude": 44.78833, "longitude": 44.92278, "state": "Stavropol Kray"}, {"city": "Urmary", "latitude": 55.67894, "longitude": 47.94396, "state": "Chuvash Republic"}, {"city": "Urman", "latitude": 54.88314, "longitude": 56.87417, "state": "Bashkortostan Republic"}, {"city": "Urma", "latitude": 42.53894, "longitude": 47.28639, "state": "Dagestan"}, {"city": "Urkarakh", "latitude": 42.16292, "longitude": 47.6303, "state": "Dagestan"}, {"city": "Uritsk", "latitude": 59.83889, "longitude": 30.17528, "state": "St.-Petersburg"}, {"city": "Uren\u2019", "latitude": 57.46125, "longitude": 45.78558, "state": "Nizhny Novgorod Oblast"}, {"city": "Urdoma", "latitude": 61.75335, "longitude": 48.5442, "state": "Arkhangelskaya"}, {"city": "Urazovo", "latitude": 50.0836, "longitude": 38.0395, "state": "Belgorod Oblast"}, {"city": "Urazovka", "latitude": 55.40068, "longitude": 45.61552, "state": "Nizhny Novgorod Oblast"}, {"city": "Ural\u2019skiy", "latitude": 57.9349, "longitude": 55.5513, "state": "Perm Krai"}, {"city": "Uralets", "latitude": 57.6614, "longitude": 59.6497, "state": "Sverdlovsk Oblast"}, {"city": "Upornaya", "latitude": 44.3914, "longitude": 41.0196, "state": "Krasnodar Krai"}, {"city": "Untsukul\u2019", "latitude": 42.71149, "longitude": 46.78663, "state": "Dagestan"}, {"city": "Uni", "latitude": 57.75545, "longitude": 51.48927, "state": "Kirov Oblast"}, {"city": "Undory", "latitude": 54.60849, "longitude": 48.39276, "state": "Ulyanovsk"}, {"city": "Unecha", "latitude": 52.84294, "longitude": 32.68761, "state": "Bryansk Oblast"}, {"city": "Umet", "latitude": 54.11611, "longitude": 42.6975, "state": "Mordoviya Republic"}, {"city": "Um\u00ebt", "latitude": 52.5628, "longitude": 42.97214, "state": "Tambov Oblast"}, {"city": "Umba", "latitude": 66.68706, "longitude": 34.34291, "state": "Murmansk"}, {"city": "Ulyanovsk", "latitude": 54.32824, "longitude": 48.38657, "state": null}, {"city": "Ul\u2019yanovka", "latitude": 59.63944, "longitude": 30.76472, "state": "Leningradskaya Oblast'"}, {"city": "Ulu-Telyak", "latitude": 54.9157, "longitude": 56.9827, "state": "Bashkortostan Republic"}, {"city": "Ulukulevo", "latitude": 54.4355, "longitude": 56.3221, "state": "Bashkortostan Republic"}, {"city": "Ullubiyaul", "latitude": 42.59689, "longitude": 47.71825, "state": "Dagestan"}, {"city": "Ulluaya", "latitude": 42.37377, "longitude": 47.37451, "state": "Dagestan"}, {"city": "Ukhta", "latitude": 63.56904, "longitude": 53.69141, "state": "Komi"}, {"city": "Ukholovo", "latitude": 53.79212, "longitude": 40.48658, "state": "Ryazan Oblast"}, {"city": "Uinskoye", "latitude": 56.88085, "longitude": 56.58056, "state": "Perm Krai"}, {"city": "Ugra", "latitude": 54.77775, "longitude": 34.32674, "state": "Smolensk Oblast"}, {"city": "Uglyanets", "latitude": 51.8205, "longitude": 39.5955, "state": "Voronezh Oblast"}, {"city": "Uglovka", "latitude": 58.23917, "longitude": 33.51083, "state": "Novgorod Oblast"}, {"city": "Uglich", "latitude": 57.52322, "longitude": 38.32258, "state": "Yaroslavl Oblast"}, {"city": "Ugleural\u2019skiy", "latitude": 58.9443, "longitude": 57.5937, "state": "Perm Krai"}, {"city": "Uglerodovskiy", "latitude": 48.14558, "longitude": 40.06352, "state": "Rostov"}, {"city": "Uglegorskiy", "latitude": 48.24274, "longitude": 41.2531, "state": "Rostov"}, {"city": "Ufimskiy", "latitude": 56.7084, "longitude": 58.0517, "state": "Sverdlovsk Oblast"}, {"city": "Ufa", "latitude": 54.74306, "longitude": 55.96779, "state": "Bashkortostan Republic"}, {"city": "Udobnaya", "latitude": 44.1932, "longitude": 41.5529, "state": "Krasnodar Krai"}, {"city": "Udimskiy", "latitude": 61.14171, "longitude": 45.91443, "state": "Arkhangelskaya"}, {"city": "Udel\u2019naya", "latitude": 60.01636, "longitude": 30.31815, "state": "Leningradskaya Oblast'"}, {"city": "Udel\u2019naya", "latitude": 55.62536, "longitude": 38.00285, "state": "Moscow Oblast"}, {"city": "Uchkulan", "latitude": 43.45705, "longitude": 42.09643, "state": "Karachayevo-Cherkesiya Republic"}, {"city": "Uchkeken", "latitude": 43.94508, "longitude": 42.51652, "state": "Karachayevo-Cherkesiya Republic"}, {"city": "Uchaly", "latitude": 54.35806, "longitude": 59.43611, "state": "Bashkortostan Republic"}, {"city": "Tyulyachi", "latitude": 55.89125, "longitude": 50.23992, "state": "Tatarstan Republic"}, {"city": "Tyul\u2019gan", "latitude": 52.34049, "longitude": 56.16604, "state": "Orenburg Oblast"}, {"city": "Tyrnyauz", "latitude": 43.38278, "longitude": 42.91833, "state": "Kabardino-Balkariya Republic"}, {"city": "Tyarlevo", "latitude": 59.70777, "longitude": 30.44543, "state": "St.-Petersburg"}, {"city": "Tver", "latitude": 56.85836, "longitude": 35.90057, "state": "Tver Oblast"}, {"city": "Tuzha", "latitude": 57.60638, "longitude": 47.93533, "state": "Kirov Oblast"}, {"city": "Tuymazy", "latitude": 54.60666, "longitude": 53.7097, "state": "Bashkortostan Republic"}, {"city": "Tutayev", "latitude": 57.87292, "longitude": 39.52969, "state": "Yaroslavl Oblast"}, {"city": "Turki", "latitude": 51.98703, "longitude": 43.2731, "state": "Saratov Oblast"}, {"city": "Turgenevo", "latitude": 54.84555, "longitude": 46.32968, "state": "Mordoviya Republic"}, {"city": "Tunoshna", "latitude": 57.54589, "longitude": 40.12543, "state": "Yaroslavl Oblast"}, {"city": "Tumbotino", "latitude": 55.99926, "longitude": 43.02359, "state": "Nizhny Novgorod Oblast"}, {"city": "Tumak", "latitude": 46.23436, "longitude": 48.50627, "state": "Astrakhan Oblast"}, {"city": "Tuma", "latitude": 55.14798, "longitude": 40.55374, "state": "Ryazan Oblast"}, {"city": "Tul\u2019skiy", "latitude": 44.51665, "longitude": 40.17725, "state": "Adygeya Republic"}, {"city": "Tula", "latitude": 54.19609, "longitude": 37.61822, "state": "Tula Oblast"}, {"city": "Tukan", "latitude": 53.8409, "longitude": 57.4552, "state": "Bashkortostan Republic"}, {"city": "Tugolesskiy Bor", "latitude": 55.55051, "longitude": 39.82422, "state": "Moscow Oblast"}, {"city": "Tuchkovo", "latitude": 55.60111, "longitude": 36.46806, "state": "Moscow Oblast"}, {"city": "Tubinskiy", "latitude": 52.88917, "longitude": 58.2225, "state": "Bashkortostan Republic"}, {"city": "Tuapse", "latitude": 44.1053, "longitude": 39.0802, "state": "Krasnodar Krai"}, {"city": "Tsurib", "latitude": 42.23826, "longitude": 46.8343, "state": "Dagestan"}, {"city": "Tsivil\u2019sk", "latitude": 55.86974, "longitude": 47.47874, "state": "Chuvash Republic"}, {"city": "Tsimlyansk", "latitude": 47.64611, "longitude": 42.10194, "state": "Rostov"}, {"city": "Tsil\u2019na", "latitude": 54.59533, "longitude": 48.1414, "state": "Ulyanovsk"}, {"city": "Tsentral\u2019nyy", "latitude": 56.297, "longitude": 42.78869, "state": "Nizhny Novgorod Oblast"}, {"city": "Tsentoroy", "latitude": 43.00658, "longitude": 46.22235, "state": "Chechnya"}, {"city": "Tselina", "latitude": 46.53381, "longitude": 41.03284, "state": "Rostov"}, {"city": "Tsagan Aman", "latitude": 47.5639, "longitude": 46.7218, "state": "Kalmykiya Republic"}, {"city": "Trunovskoye", "latitude": 45.48778, "longitude": 42.13583, "state": "Stavropol Kray"}, {"city": "Trudobelikovskiy", "latitude": 45.26853, "longitude": 38.15376, "state": "Krasnodar Krai"}, {"city": "Trudfront", "latitude": 45.9346, "longitude": 47.66929, "state": "Astrakhan Oblast"}, {"city": "Trubchevsk", "latitude": 52.58031, "longitude": 33.76574, "state": "Bryansk Oblast"}, {"city": "Troyel\u2019ga", "latitude": 57.4642, "longitude": 56.5362, "state": "Perm Krai"}, {"city": "Trosna", "latitude": 52.44482, "longitude": 35.78014, "state": "Oryol oblast"}, {"city": "Tropar\u00ebvo", "latitude": 55.65625, "longitude": 37.48496, "state": "Moscow"}, {"city": "Troitskoye", "latitude": 55.3, "longitude": 38.53333, "state": "Moscow Oblast"}, {"city": "Troitskoye", "latitude": 46.4206, "longitude": 44.2591, "state": "Kalmykiya Republic"}, {"city": "Troitskoye", "latitude": 43.76219, "longitude": 44.68415, "state": "North Ossetia\u2013Alania"}, {"city": "Troitsko-Pechorsk", "latitude": 62.71934, "longitude": 56.17172, "state": "Komi"}, {"city": "Troitskiy", "latitude": 51.35885, "longitude": 37.5253, "state": "Belgorod Oblast"}, {"city": "Troitskaya", "latitude": 45.13493, "longitude": 38.12544, "state": "Krasnodar Krai"}, {"city": "Troitskaya", "latitude": 43.30664, "longitude": 44.98395, "state": "Ingushetiya Republic"}, {"city": "Troitsk", "latitude": 55.48498, "longitude": 37.30736, "state": "Moscow"}, {"city": "Tpig", "latitude": 41.78061, "longitude": 47.58907, "state": "Dagestan"}, {"city": "Tovarkovskiy", "latitude": 53.68217, "longitude": 38.2092, "state": "Tula Oblast"}, {"city": "Tovarkovo", "latitude": 54.67617, "longitude": 35.9386, "state": "Kaluga Oblast"}, {"city": "Totskoye", "latitude": 52.52478, "longitude": 52.76228, "state": "Orenburg Oblast"}, {"city": "Tot\u2019ma", "latitude": 59.97375, "longitude": 42.76487, "state": "Vologda Oblast"}, {"city": "Tosno", "latitude": 59.54, "longitude": 30.8775, "state": "Leningradskaya Oblast'"}, {"city": "Torzhok", "latitude": 57.0436, "longitude": 34.96221, "state": "Tver Oblast"}, {"city": "Toropets", "latitude": 56.49954, "longitude": 31.6392, "state": "Tver Oblast"}, {"city": "Torfyanoy", "latitude": 58.4916, "longitude": 49.19786, "state": "Kirov Oblast"}, {"city": "Torbeyevo", "latitude": 54.07743, "longitude": 43.24993, "state": "Mordoviya Republic"}, {"city": "Tonshayevo", "latitude": 57.73622, "longitude": 47.01226, "state": "Nizhny Novgorod Oblast"}, {"city": "Tonkino", "latitude": 57.37138, "longitude": 46.45823, "state": "Nizhny Novgorod Oblast"}, {"city": "Tomsino", "latitude": 56.45202, "longitude": 28.53917, "state": "Pskov Oblast"}, {"city": "Tomilino", "latitude": 55.65619, "longitude": 37.94713, "state": "Moscow Oblast"}, {"city": "Tomarovka", "latitude": 50.68337, "longitude": 36.23443, "state": "Belgorod Oblast"}, {"city": "Tolyatti", "latitude": 53.5303, "longitude": 49.3461, "state": "Samara Oblast"}, {"city": "Tolstoy-Yurt", "latitude": 43.4444, "longitude": 45.7794, "state": "Chechnya"}, {"city": "Tolstopal\u2019tsevo", "latitude": 55.61026, "longitude": 37.21834, "state": "Moscow"}, {"city": "Tolmachevo", "latitude": 58.85621, "longitude": 29.90923, "state": "Leningradskaya Oblast'"}, {"city": "Tolbazy", "latitude": 54.02408, "longitude": 55.88248, "state": "Bashkortostan Republic"}, {"city": "Toksovo", "latitude": 60.15323, "longitude": 30.51646, "state": "Leningradskaya Oblast'"}, {"city": "Tokaryovka", "latitude": 52.00014, "longitude": 41.14972, "state": "Tambov Oblast"}, {"city": "Tlyustenkhabl\u2019", "latitude": 44.982, "longitude": 39.09773, "state": "Adygeya Republic"}, {"city": "Tlyarata", "latitude": 42.10552, "longitude": 46.35416, "state": "Dagestan"}, {"city": "Tishchenskoye", "latitude": 45.46056, "longitude": 41.67382, "state": "Stavropol Kray"}, {"city": "Tirlyanskiy", "latitude": 54.2109, "longitude": 58.5806, "state": "Bashkortostan Republic"}, {"city": "Timashyovsk", "latitude": 45.61694, "longitude": 38.94528, "state": "Krasnodar Krai"}, {"city": "Tim", "latitude": 51.62576, "longitude": 37.12733, "state": "Kursk Oblast"}, {"city": "Tikhvin", "latitude": 59.63937, "longitude": 33.52967, "state": "Leningradskaya Oblast'"}, {"city": "Tikhoretsk", "latitude": 45.85472, "longitude": 40.12528, "state": "Krasnodar Krai"}, {"city": "Teykovo", "latitude": 56.85853, "longitude": 40.54028, "state": "Ivanovo Oblast"}, {"city": "Adygeysk", "latitude": 44.88524, "longitude": 39.19059, "state": "Adygeya Republic"}, {"city": "Tetyushi", "latitude": 54.93821, "longitude": 48.83656, "state": "Tatarstan Republic"}, {"city": "Teryayevo", "latitude": 56.16974, "longitude": 36.12545, "state": "Moscow Oblast"}, {"city": "Terskol", "latitude": 43.2568, "longitude": 42.51481, "state": "Kabardino-Balkariya Republic"}, {"city": "Terskaya", "latitude": 43.72376, "longitude": 44.72442, "state": "North Ossetia\u2013Alania"}, {"city": "Tersa", "latitude": 52.08671, "longitude": 47.53936, "state": "Saratov Oblast"}, {"city": "Ternevskaya", "latitude": 45.8513, "longitude": 40.4125, "state": "Krasnodar Krai"}, {"city": "Ternovka", "latitude": 51.67523, "longitude": 41.63294, "state": "Voronezh Oblast"}, {"city": "Terib\u00ebrka", "latitude": 69.16088, "longitude": 35.14527, "state": "Murmansk"}, {"city": "Tereze", "latitude": 43.93608, "longitude": 42.4434, "state": "Karachayevo-Cherkesiya Republic"}, {"city": "Teren\u2019ga", "latitude": 53.7168, "longitude": 48.3723, "state": "Ulyanovsk"}, {"city": "Terekli-Mekteb", "latitude": 44.16606, "longitude": 45.8719, "state": "Dagestan"}, {"city": "Terek", "latitude": 43.48329, "longitude": 44.13781, "state": "Kabardino-Balkariya Republic"}, {"city": "Terbuny", "latitude": 52.14526, "longitude": 38.28114, "state": "Lipetsk Oblast"}, {"city": "Tyoply Stan", "latitude": 55.62047, "longitude": 37.49338, "state": "Moscow"}, {"city": "T\u00ebploye", "latitude": 53.61691, "longitude": 37.5887, "state": "Tula Oblast"}, {"city": "T\u00ebplaya Gora", "latitude": 58.52444, "longitude": 59.07278, "state": "Perm Krai"}, {"city": "Ten\u2019gushevo", "latitude": 54.76878, "longitude": 42.72005, "state": "Mordoviya Republic"}, {"city": "Temyasovo", "latitude": 52.99333, "longitude": 58.10139, "state": "Bashkortostan Republic"}, {"city": "Temryuk", "latitude": 45.27055, "longitude": 37.38716, "state": "Krasnodar Krai"}, {"city": "Temnikov", "latitude": 54.63059, "longitude": 43.21918, "state": "Mordoviya Republic"}, {"city": "T\u00ebmkino", "latitude": 55.10917, "longitude": 35.01389, "state": "Smolensk Oblast"}, {"city": "T\u00ebmkino", "latitude": 55.08251, "longitude": 35.00877, "state": "Smolensk Oblast"}, {"city": "Temizhbekskaya", "latitude": 45.45078, "longitude": 41.03866, "state": "Stavropol Kray"}, {"city": "Temizhbekskaya", "latitude": 45.44556, "longitude": 40.845, "state": "Krasnodar Krai"}, {"city": "Temirgoyevskaya", "latitude": 45.11414, "longitude": 40.28027, "state": "Krasnodar Krai"}, {"city": "Temiraul", "latitude": 43.25322, "longitude": 46.8254, "state": "Dagestan"}, {"city": "Tekstil\u2019shchiki", "latitude": 55.70033, "longitude": 37.74271, "state": "Moscow"}, {"city": "Tbilisskaya", "latitude": 45.36333, "longitude": 40.19, "state": "Krasnodar Krai"}, {"city": "Taytsy", "latitude": 59.66444, "longitude": 30.11472, "state": "Leningradskaya Oblast'"}, {"city": "Tatsinskiy", "latitude": 48.19677, "longitude": 41.27558, "state": "Rostov"}, {"city": "Tatishchevo", "latitude": 51.67028, "longitude": 45.59528, "state": "Saratov Oblast"}, {"city": "Tatarskaya Pishlya", "latitude": 54.06085, "longitude": 44.89978, "state": "Mordoviya Republic"}, {"city": "Tatarskaya Kargala", "latitude": 51.94952, "longitude": 55.17314, "state": "Orenburg Oblast"}, {"city": "Tatarka", "latitude": 44.95889, "longitude": 41.95171, "state": "Stavropol Kray"}, {"city": "Tashla", "latitude": 51.77157, "longitude": 52.7427, "state": "Orenburg Oblast"}, {"city": "Tarusa", "latitude": 54.72467, "longitude": 37.1722, "state": "Kaluga Oblast"}, {"city": "Tarumovka", "latitude": 44.07611, "longitude": 46.53602, "state": "Dagestan"}, {"city": "Tarskoye", "latitude": 42.96606, "longitude": 44.7754, "state": "North Ossetia\u2013Alania"}, {"city": "Tarnogskiy Gorodok", "latitude": 60.49972, "longitude": 43.57611, "state": "Vologda Oblast"}, {"city": "Tarki", "latitude": 42.94423, "longitude": 47.49527, "state": "Dagestan"}, {"city": "Tarkhovka", "latitude": 60.06687, "longitude": 29.97435, "state": "St.-Petersburg"}, {"city": "Taremskoye", "latitude": 55.92889, "longitude": 43.04433, "state": "Nizhny Novgorod Oblast"}, {"city": "Tarasovskiy", "latitude": 48.72727, "longitude": 40.36267, "state": "Rostov"}, {"city": "Tarasovka", "latitude": 55.95722, "longitude": 37.84333, "state": "Moscow Oblast"}, {"city": "Tambovka", "latitude": 47.31528, "longitude": 47.37773, "state": "Astrakhan Oblast"}, {"city": "Tambov", "latitude": 52.73169, "longitude": 41.44326, "state": "Tambov Oblast"}, {"city": "Taman\u2019", "latitude": 45.2117, "longitude": 36.71609, "state": "Krasnodar Krai"}, {"city": "Tamala", "latitude": 52.54097, "longitude": 43.25145, "state": "Penza Oblast"}, {"city": "Talovyy", "latitude": 47.80765, "longitude": 40.10943, "state": "Rostov"}, {"city": "Talovskiy", "latitude": 51.1157, "longitude": 40.7257, "state": "Voronezh Oblast"}, {"city": "Talitsy", "latitude": 56.52801, "longitude": 42.3323, "state": "Ivanovo Oblast"}, {"city": "Taldom", "latitude": 56.73097, "longitude": 37.52824, "state": "Moscow Oblast"}, {"city": "Talashkino", "latitude": 54.65471, "longitude": 32.18325, "state": "Smolensk Oblast"}, {"city": "Agidel\u2019", "latitude": 55.9077, "longitude": 53.9355, "state": "Bashkortostan Republic"}, {"city": "Taganrog", "latitude": 47.23627, "longitude": 38.9053, "state": "Rostov"}, {"city": "Taganskiy", "latitude": 55.73333, "longitude": 37.66667, "state": "Moscow"}, {"city": "Syzran", "latitude": 53.1585, "longitude": 48.4681, "state": "Samara Oblast"}, {"city": "Syumsi", "latitude": 57.11108, "longitude": 51.61494, "state": "Udmurtiya Republic"}, {"city": "Syrtych", "latitude": 41.83388, "longitude": 48.22901, "state": "Dagestan"}, {"city": "Syrskoye", "latitude": 52.57437, "longitude": 39.4966, "state": "Lipetsk Oblast"}, {"city": "Syrostan", "latitude": 55.0634, "longitude": 59.9002, "state": "Chelyabinsk"}, {"city": "Syntul", "latitude": 55.00327, "longitude": 41.29711, "state": "Ryazan Oblast"}, {"city": "Synya", "latitude": 65.37185, "longitude": 58.03874, "state": "Komi"}, {"city": "Sylva", "latitude": 58.0327, "longitude": 56.7713, "state": "Perm Krai"}, {"city": "Sylva", "latitude": 57.3092, "longitude": 58.7734, "state": "Sverdlovsk Oblast"}, {"city": "Syktyvkar", "latitude": 61.68523, "longitude": 50.80819, "state": "Komi"}, {"city": "Sych\u00ebvo", "latitude": 55.95771, "longitude": 36.22785, "state": "Moscow Oblast"}, {"city": "Sych\u00ebvo", "latitude": 55.06196, "longitude": 38.71384, "state": "Moscow Oblast"}, {"city": "Sych\u00ebvka", "latitude": 55.82956, "longitude": 34.27699, "state": "Smolensk Oblast"}, {"city": "Syava", "latitude": 58.01457, "longitude": 46.32216, "state": "Nizhny Novgorod Oblast"}, {"city": "Syas\u2019stroy", "latitude": 60.13669, "longitude": 32.56906, "state": "Leningradskaya Oblast'"}, {"city": "Syamzha", "latitude": 60.01577, "longitude": 41.06139, "state": "Vologda Oblast"}, {"city": "Svobody", "latitude": 44.02556, "longitude": 43.05028, "state": "Stavropol Kray"}, {"city": "Svobodnyy", "latitude": 52.33039, "longitude": 46.37122, "state": "Saratov Oblast"}, {"city": "Sviyazhsk", "latitude": 55.77329, "longitude": 48.66051, "state": "Tatarstan Republic"}, {"city": "Sviblovo", "latitude": 55.85, "longitude": 37.63333, "state": "Moscow"}, {"city": "Svetogorsk", "latitude": 61.11213, "longitude": 28.86321, "state": "Leningradskaya Oblast'"}, {"city": "Svetlyy Yar", "latitude": 48.4748, "longitude": 44.78096, "state": "Volgograd Oblast"}, {"city": "Svetlyy", "latitude": 54.67501, "longitude": 20.13473, "state": "Kaliningrad Oblast"}, {"city": "Svetlograd", "latitude": 45.32736, "longitude": 42.8562, "state": "Stavropol Kray"}, {"city": "Svetlogorsk", "latitude": 54.93987, "longitude": 20.15479, "state": "Kaliningrad Oblast"}, {"city": "Sverdlovskiy", "latitude": 55.90968, "longitude": 38.14978, "state": "Moscow Oblast"}, {"city": "Sven\u2019", "latitude": 53.18222, "longitude": 34.55111, "state": "Bryansk Oblast"}, {"city": "Svecha", "latitude": 58.27795, "longitude": 47.51226, "state": "Kirov Oblast"}, {"city": "Svatkovo", "latitude": 56.38333, "longitude": 38.21667, "state": "Moscow Oblast"}, {"city": "Suz\u00ebmka", "latitude": 52.31834, "longitude": 34.07899, "state": "Bryansk Oblast"}, {"city": "Suzdal\u2019", "latitude": 56.42408, "longitude": 40.44978, "state": "Vladimir Oblast"}, {"city": "Suvorovskaya", "latitude": 44.1901, "longitude": 42.6595, "state": "Stavropol Kray"}, {"city": "Suvorov", "latitude": 54.1223, "longitude": 36.49657, "state": "Tula Oblast"}, {"city": "Suslonger", "latitude": 56.31556, "longitude": 48.25306, "state": "Mariy-El Republic"}, {"city": "Susanino", "latitude": 58.15017, "longitude": 41.59428, "state": "Kostroma Oblast"}, {"city": "Surskoye", "latitude": 54.4821, "longitude": 46.7214, "state": "Ulyanovsk"}, {"city": "Sursk", "latitude": 53.07542, "longitude": 45.68461, "state": "Penza Oblast"}, {"city": "Surovikino", "latitude": 48.60734, "longitude": 42.84621, "state": "Volgograd Oblast"}, {"city": "Surovatikha", "latitude": 55.76516, "longitude": 43.89845, "state": "Nizhny Novgorod Oblast"}, {"city": "Surkhakhi", "latitude": 43.1875, "longitude": 44.90194, "state": "Ingushetiya Republic"}, {"city": "Surgut", "latitude": 53.92498, "longitude": 51.20348, "state": "Samara Oblast"}, {"city": "Surazh", "latitude": 53.01747, "longitude": 32.39178, "state": "Bryansk Oblast"}, {"city": "Sura", "latitude": 53.88786, "longitude": 45.74192, "state": "Penza Oblast"}, {"city": "Suponevo", "latitude": 53.20492, "longitude": 34.29597, "state": "Bryansk Oblast"}, {"city": "Suoyarvi", "latitude": 62.08807, "longitude": 32.37327, "state": "Karelia"}, {"city": "Sunzha", "latitude": 43.05862, "longitude": 44.82281, "state": "North Ossetia\u2013Alania"}, {"city": "Suna", "latitude": 57.83233, "longitude": 50.0591, "state": "Kirov Oblast"}, {"city": "Sulak", "latitude": 43.27342, "longitude": 47.51463, "state": "Dagestan"}, {"city": "Suksun", "latitude": 57.14508, "longitude": 57.39514, "state": "Perm Krai"}, {"city": "Sukkozero", "latitude": 63.17018, "longitude": 32.34436, "state": "Karelia"}, {"city": "Sukko", "latitude": 44.79945, "longitude": 37.42145, "state": "Krasnodar Krai"}, {"city": "Sukhodol", "latitude": 53.90063, "longitude": 51.2117, "state": "Samara Oblast"}, {"city": "Sukhobezvodnoye", "latitude": 57.04913, "longitude": 44.88909, "state": "Nizhny Novgorod Oblast"}, {"city": "Sukhinichi", "latitude": 54.09989, "longitude": 35.34254, "state": "Kaluga Oblast"}, {"city": "Sukhaya Buyvola", "latitude": 45.15333, "longitude": 42.99556, "state": "Stavropol Kray"}, {"city": "Sudzha", "latitude": 51.19891, "longitude": 35.26335, "state": "Kursk Oblast"}, {"city": "Sudogda", "latitude": 55.95171, "longitude": 40.87354, "state": "Vladimir Oblast"}, {"city": "Sudislavl\u2019", "latitude": 57.88201, "longitude": 41.70745, "state": "Kostroma Oblast"}, {"city": "Suda", "latitude": 59.15254, "longitude": 37.5582, "state": "Vologda Oblast"}, {"city": "Subkhankulovo", "latitude": 54.55741, "longitude": 53.81153, "state": "Bashkortostan Republic"}, {"city": "Stupino", "latitude": 54.89735, "longitude": 38.06796, "state": "Moscow Oblast"}, {"city": "Stulovo", "latitude": 58.7225, "longitude": 50.14389, "state": "Kirov Oblast"}, {"city": "Strunino", "latitude": 56.37328, "longitude": 38.58321, "state": "Vladimir Oblast"}, {"city": "Strugi-Krasnyye", "latitude": 58.2707, "longitude": 29.11172, "state": "Pskov Oblast"}, {"city": "Stromyn\u2019", "latitude": 56.04347, "longitude": 38.48318, "state": "Moscow Oblast"}, {"city": "Stroitel", "latitude": 50.78816, "longitude": 36.47751, "state": "Belgorod Oblast"}, {"city": "Strogino", "latitude": 55.81838, "longitude": 37.41224, "state": "Moscow"}, {"city": "Strizhi", "latitude": 58.465, "longitude": 49.261, "state": "Kirov Oblast"}, {"city": "Strel'na", "latitude": 59.85189, "longitude": 30.03611, "state": "St.-Petersburg"}, {"city": "Strelka", "latitude": 45.20633, "longitude": 37.2865, "state": "Krasnodar Krai"}, {"city": "Strelitsa", "latitude": 51.60538, "longitude": 38.90601, "state": "Voronezh Oblast"}, {"city": "Storozhevaya", "latitude": 43.87886, "longitude": 41.45143, "state": "Karachayevo-Cherkesiya Republic"}, {"city": "Stolbovaya", "latitude": 55.25021, "longitude": 37.49249, "state": "Moscow Oblast"}, {"city": "Stolbishchi", "latitude": 55.64679, "longitude": 49.21595, "state": "Tatarstan Republic"}, {"city": "Stodolishche", "latitude": 54.18594, "longitude": 32.64925, "state": "Smolensk Oblast"}, {"city": "Sterlitamak", "latitude": 53.62462, "longitude": 55.95015, "state": "Bashkortostan Republic"}, {"city": "Sterlibashevo", "latitude": 53.43755, "longitude": 55.2578, "state": "Bashkortostan Republic"}, {"city": "Stepnoye", "latitude": 51.37972, "longitude": 46.84917, "state": "Saratov Oblast"}, {"city": "Stepnoye", "latitude": 44.26982, "longitude": 44.5819, "state": "Stavropol Kray"}, {"city": "Stepantsevo", "latitude": 56.13143, "longitude": 41.7032, "state": "Vladimir Oblast"}, {"city": "Stavrovo", "latitude": 56.13311, "longitude": 40.01295, "state": "Vladimir Oblast"}, {"city": "Stavropol\u2019", "latitude": 45.0428, "longitude": 41.9734, "state": "Stavropol Kray"}, {"city": "Staryy Urukh", "latitude": 43.34041, "longitude": 44.01868, "state": "Kabardino-Balkariya Republic"}, {"city": "Staryy Oskol", "latitude": 51.29667, "longitude": 37.84167, "state": "Belgorod Oblast"}, {"city": "Anzorey", "latitude": 43.35582, "longitude": 43.94143, "state": "Kabardino-Balkariya Republic"}, {"city": "Staryye Atagi", "latitude": 43.12028, "longitude": 45.74056, "state": "Chechnya"}, {"city": "Staryy Cherek", "latitude": 43.47069, "longitude": 43.85615, "state": "Kabardino-Balkariya Republic"}, {"city": "Starozhilovo", "latitude": 54.23296, "longitude": 39.9093, "state": "Ryazan Oblast"}, {"city": "Staroyur\u2019yevo", "latitude": 53.31949, "longitude": 40.70227, "state": "Tambov Oblast"}, {"city": "Staroye Drozhzhanoye", "latitude": 54.72657, "longitude": 47.56766, "state": "Tatarstan Republic"}, {"city": "Starovelichkovskaya", "latitude": 45.42884, "longitude": 38.73261, "state": "Krasnodar Krai"}, {"city": "Staroutkinsk", "latitude": 57.23017, "longitude": 59.33483, "state": "Sverdlovsk Oblast"}, {"city": "Starotitarovskaya", "latitude": 45.21938, "longitude": 37.15476, "state": "Krasnodar Krai"}, {"city": "Starotimoshkino", "latitude": 53.71908, "longitude": 47.53116, "state": "Ulyanovsk"}, {"city": "Starosubkhangulovo", "latitude": 53.1031, "longitude": 57.4423, "state": "Bashkortostan Republic"}, {"city": "Staroshcherbinovskaya", "latitude": 46.6268, "longitude": 38.6739, "state": "Krasnodar Krai"}, {"city": "Staroye Shaygovo", "latitude": 54.30613, "longitude": 44.47343, "state": "Mordoviya Republic"}, {"city": "Staropavlovskaya", "latitude": 43.84889, "longitude": 43.63278, "state": "Stavropol Kray"}, {"city": "Staronizhestebliyevskaya", "latitude": 45.38315, "longitude": 38.44304, "state": "Krasnodar Krai"}, {"city": "Staromyshastovskaya", "latitude": 45.34329, "longitude": 39.07608, "state": "Krasnodar Krai"}, {"city": "Starominskaya", "latitude": 46.53, "longitude": 39.04972, "state": "Krasnodar Krai"}, {"city": "Staroleushkovskaya", "latitude": 45.98666, "longitude": 39.75987, "state": "Krasnodar Krai"}, {"city": "Starokucherganovka", "latitude": 46.32476, "longitude": 47.9555, "state": "Astrakhan Oblast"}, {"city": "Starokorsunskaya", "latitude": 45.05727, "longitude": 39.31611, "state": "Krasnodar Krai"}, {"city": "Starodzhereliyevskaya", "latitude": 45.47599, "longitude": 38.2968, "state": "Krasnodar Krai"}, {"city": "Starodubskoye", "latitude": 44.56306, "longitude": 44.01528, "state": "Stavropol Kray"}, {"city": "Starodub", "latitude": 52.58501, "longitude": 32.76314, "state": "Bryansk Oblast"}, {"city": "Staroderevyankovskaya", "latitude": 46.12761, "longitude": 38.9674, "state": "Krasnodar Krai"}, {"city": "Starocherkasskaya", "latitude": 47.24077, "longitude": 40.04186, "state": "Rostov"}, {"city": "Starobaltachevo", "latitude": 56.0017, "longitude": 55.928, "state": "Bashkortostan Republic"}, {"city": "Staritsa", "latitude": 56.50542, "longitude": 34.93396, "state": "Tver Oblast"}, {"city": "Staraya Vichuga", "latitude": 57.26833, "longitude": 41.87873, "state": "Ivanovo Oblast"}, {"city": "Staraya Toropa", "latitude": 56.28012, "longitude": 31.67018, "state": "Tver Oblast"}, {"city": "Staraya Sunzha", "latitude": 43.33542, "longitude": 45.74377, "state": "Chechnya"}, {"city": "Staraya Stanitsa", "latitude": 48.34579, "longitude": 40.29376, "state": "Rostov"}, {"city": "Staraya Stanitsa", "latitude": 45.0098, "longitude": 41.1512, "state": "Krasnodar Krai"}, {"city": "Staraya Russa", "latitude": 57.99618, "longitude": 31.36003, "state": "Novgorod Oblast"}, {"city": "Staraya Poltavka", "latitude": 50.47715, "longitude": 46.48144, "state": "Volgograd Oblast"}, {"city": "Staraya Mayna", "latitude": 54.60417, "longitude": 48.93056, "state": "Ulyanovsk"}, {"city": "Staraya Ladoga", "latitude": 59.99872, "longitude": 32.29413, "state": "Leningradskaya Oblast'"}, {"city": "Staraya Kupavna", "latitude": 55.80799, "longitude": 38.1805, "state": "Moscow Oblast"}, {"city": "Staraya Kulatka", "latitude": 52.72778, "longitude": 47.61788, "state": "Ulyanovsk"}, {"city": "Staraya Derevnya", "latitude": 59.98834, "longitude": 30.24296, "state": "St.-Petersburg"}, {"city": "Staraya", "latitude": 59.92749, "longitude": 30.62765, "state": "Leningradskaya Oblast'"}, {"city": "Star\u2019", "latitude": 53.62362, "longitude": 34.15183, "state": "Bryansk Oblast"}, {"city": "Stanovoye", "latitude": 52.76115, "longitude": 38.3439, "state": "Lipetsk Oblast"}, {"city": "Srednyaya Yelyuzan\u2019", "latitude": 53.0241, "longitude": 45.9529, "state": "Penza Oblast"}, {"city": "Srednyaya Akhtuba", "latitude": 48.70998, "longitude": 44.86724, "state": "Volgograd Oblast"}, {"city": "Sredniy Ikorets", "latitude": 51.06749, "longitude": 39.75838, "state": "Voronezh Oblast"}, {"city": "Spokoynaya", "latitude": 44.2468, "longitude": 41.4015, "state": "Krasnodar Krai"}, {"city": "Spitsevka", "latitude": 45.12306, "longitude": 42.5125, "state": "Stavropol Kray"}, {"city": "Spirovo", "latitude": 57.41963, "longitude": 34.98102, "state": "Tver Oblast"}, {"city": "Spiridonovka", "latitude": 53.09248, "longitude": 50.64621, "state": "Samara Oblast"}, {"city": "Spas-Zaulok", "latitude": 56.48333, "longitude": 36.56667, "state": "Moscow Oblast"}, {"city": "Spassk-Ryazanskiy", "latitude": 54.40844, "longitude": 40.37664, "state": "Ryazan Oblast"}, {"city": "Spasskoye-Lutovinovo", "latitude": 53.37012, "longitude": 36.62297, "state": "Oryol oblast"}, {"city": "Spasskoye", "latitude": 55.85811, "longitude": 45.69608, "state": "Nizhny Novgorod Oblast"}, {"city": "Spas-Klepiki", "latitude": 55.13758, "longitude": 40.17997, "state": "Ryazan Oblast"}, {"city": "Spas-Demensk", "latitude": 54.41222, "longitude": 34.02257, "state": "Kaluga Oblast"}, {"city": "Sozimskiy", "latitude": 59.74178, "longitude": 52.24821, "state": "Kirov Oblast"}, {"city": "Sovetskoye", "latitude": 51.44255, "longitude": 46.7424, "state": "Saratov Oblast"}, {"city": "Sovetskoye", "latitude": 47.30868, "longitude": 44.52162, "state": "Kalmykiya Republic"}, {"city": "Kashkhatau", "latitude": 43.3169, "longitude": 43.60774, "state": "Kabardino-Balkariya Republic"}, {"city": "Shatoy", "latitude": 42.87153, "longitude": 45.69092, "state": "Chechnya"}, {"city": "Khebda", "latitude": 42.44539, "longitude": 46.55161, "state": "Dagestan"}, {"city": "Sovetskiy", "latitude": 60.53945, "longitude": 28.67756, "state": "Leningradskaya Oblast'"}, {"city": "Sovetskiy", "latitude": 56.76209, "longitude": 48.47568, "state": "Mariy-El Republic"}, {"city": "Sovetskaya", "latitude": 49.00912, "longitude": 42.12178, "state": "Rostov"}, {"city": "Sovetskaya", "latitude": 44.77694, "longitude": 41.17222, "state": "Krasnodar Krai"}, {"city": "Sovetskaya", "latitude": 44.02667, "longitude": 44.05, "state": "Stavropol Kray"}, {"city": "Sovetsk", "latitude": 57.58937, "longitude": 48.95525, "state": "Kirov Oblast"}, {"city": "Sovetsk", "latitude": 55.08392, "longitude": 21.87851, "state": "Kaliningrad Oblast"}, {"city": "Sovetsk", "latitude": 53.93601, "longitude": 37.62774, "state": "Tula Oblast"}, {"city": "Sotnikovskoye", "latitude": 45.00389, "longitude": 43.77722, "state": "Stavropol Kray"}, {"city": "Sosnovyy Bor", "latitude": 59.8996, "longitude": 29.08574, "state": "Leningradskaya Oblast'"}, {"city": "Sosnovskoye", "latitude": 55.80623, "longitude": 43.1719, "state": "Nizhny Novgorod Oblast"}, {"city": "Sosnovoborsk", "latitude": 53.29066, "longitude": 46.24849, "state": "Penza Oblast"}, {"city": "Sosnovo", "latitude": 60.55145, "longitude": 30.21441, "state": "Leningradskaya Oblast'"}, {"city": "Sosnovka", "latitude": 56.25496, "longitude": 51.28419, "state": "Kirov Oblast"}, {"city": "Sosnovka", "latitude": 54.71161, "longitude": 43.29774, "state": "Mordoviya Republic"}, {"city": "Sosnovka", "latitude": 53.23088, "longitude": 41.36562, "state": "Tambov Oblast"}, {"city": "Sosnovaya Polyana", "latitude": 59.83528, "longitude": 30.14667, "state": "St.-Petersburg"}, {"city": "Sosnogorsk", "latitude": 63.59669, "longitude": 53.89178, "state": "Komi"}, {"city": "Soskovo", "latitude": 52.74752, "longitude": 35.38277, "state": "Oryol oblast"}, {"city": "Sosenskiy", "latitude": 54.05899, "longitude": 35.96228, "state": "Kaluga Oblast"}, {"city": "Sortavala", "latitude": 61.71233, "longitude": 30.70953, "state": "Karelia"}, {"city": "Sorochinsk", "latitude": 52.4338, "longitude": 53.1583, "state": "Orenburg Oblast"}, {"city": "Sonkovo", "latitude": 57.78184, "longitude": 37.16458, "state": "Tver Oblast"}, {"city": "Somovo", "latitude": 51.7422, "longitude": 39.3659, "state": "Voronezh Oblast"}, {"city": "Solyanka", "latitude": 46.3889, "longitude": 48.01755, "state": "Astrakhan Oblast"}, {"city": "Sol\u2019vychegodsk", "latitude": 61.33046, "longitude": 46.91559, "state": "Arkhangelskaya"}, {"city": "Soluno-Dmitriyevskoye", "latitude": 44.4074, "longitude": 42.724, "state": "Stavropol Kray"}, {"city": "Sol\u2019tsy", "latitude": 58.12229, "longitude": 30.31831, "state": "Novgorod Oblast"}, {"city": "Solotcha", "latitude": 54.7897, "longitude": 39.83336, "state": "Ryazan Oblast"}, {"city": "Solomenskoye", "latitude": 44.21667, "longitude": 44.35278, "state": "Stavropol Kray"}, {"city": "Solntsevo", "latitude": 55.63711, "longitude": 37.38115, "state": "Moscow"}, {"city": "Solntsevo", "latitude": 51.41552, "longitude": 36.75664, "state": "Kursk Oblast"}, {"city": "Solnechnoye", "latitude": 60.15612, "longitude": 29.94753, "state": "St.-Petersburg"}, {"city": "Solnechnogorsk", "latitude": 56.18333, "longitude": 36.98333, "state": "Moscow Oblast"}, {"city": "Sol\u2019-Iletsk", "latitude": 51.1631, "longitude": 54.99176, "state": "Orenburg Oblast"}, {"city": "Solikamsk", "latitude": 59.66686, "longitude": 56.74267, "state": "Perm Krai"}, {"city": "Soligalich", "latitude": 59.0784, "longitude": 42.28713, "state": "Kostroma Oblast"}, {"city": "Solginskiy", "latitude": 61.05, "longitude": 41.34278, "state": "Arkhangelskaya"}, {"city": "Soldatskaya", "latitude": 43.81806, "longitude": 43.81583, "state": "Kabardino-Balkariya Republic"}, {"city": "Soldato-Aleksandrovskoye", "latitude": 44.26528, "longitude": 43.75611, "state": "Stavropol Kray"}, {"city": "Sokol\u2019skoye", "latitude": 57.13947, "longitude": 43.16263, "state": "Nizhny Novgorod Oblast"}, {"city": "Sokolovyy", "latitude": 51.56857, "longitude": 45.83312, "state": "Saratov Oblast"}, {"city": "Sokolovskoye", "latitude": 45.25833, "longitude": 40.67972, "state": "Krasnodar Krai"}, {"city": "Sokolovo-Kundryuchenskiy", "latitude": 47.83536, "longitude": 39.94711, "state": "Rostov"}, {"city": "Sokol\u2019niki", "latitude": 55.80202, "longitude": 37.67159, "state": "Moscow"}, {"city": "Sokol", "latitude": 55.8, "longitude": 37.51667, "state": "Moscow"}, {"city": "Sokol", "latitude": 59.46167, "longitude": 40.12056, "state": "Vologda Oblast"}, {"city": "Sofrino", "latitude": 56.15, "longitude": 37.93333, "state": "Moscow Oblast"}, {"city": "Sochi", "latitude": 43.59917, "longitude": 39.72569, "state": "Krasnodar Krai"}, {"city": "Sobinka", "latitude": 55.99003, "longitude": 40.02052, "state": "Vladimir Oblast"}, {"city": "Snegiri", "latitude": 55.88867, "longitude": 37.02421, "state": "Moscow Oblast"}, {"city": "Smyshlyayevka", "latitude": 53.23913, "longitude": 50.39072, "state": "Samara Oblast"}, {"city": "Smolino", "latitude": 56.27526, "longitude": 43.09109, "state": "Nizhny Novgorod Oblast"}, {"city": "Smolenskaya", "latitude": 44.78636, "longitude": 38.80333, "state": "Krasnodar Krai"}, {"city": "Smolensk", "latitude": 54.77944, "longitude": 32.04371, "state": "Smolensk Oblast"}, {"city": "Slobodskoy", "latitude": 58.73133, "longitude": 50.17119, "state": "Kirov Oblast"}, {"city": "Slobodka", "latitude": 55.86667, "longitude": 37.58333, "state": "Moscow"}, {"city": "Sloboda", "latitude": 51.1421, "longitude": 40.3021, "state": "Voronezh Oblast"}, {"city": "Slavyansk-na-Kubani", "latitude": 45.2558, "longitude": 38.1256, "state": "Krasnodar Krai"}, {"city": "Slavsk", "latitude": 55.0425, "longitude": 21.67704, "state": "Kaliningrad Oblast"}, {"city": "Slashchevskaya", "latitude": 49.8599, "longitude": 42.3362, "state": "Volgograd Oblast"}, {"city": "Slantsy", "latitude": 59.1179, "longitude": 28.08826, "state": "Leningradskaya Oblast'"}, {"city": "Skuratovskiy", "latitude": 54.10152, "longitude": 37.60384, "state": "Tula Oblast"}, {"city": "Skoropuskovskiy", "latitude": 56.36667, "longitude": 38.16667, "state": "Moscow Oblast"}, {"city": "Skorodnoye", "latitude": 51.071, "longitude": 37.22756, "state": "Belgorod Oblast"}, {"city": "Skopin", "latitude": 53.82499, "longitude": 39.5531, "state": "Ryazan Oblast"}, {"city": "Skolkovo", "latitude": 55.68784, "longitude": 37.36836, "state": "Moscow Oblast"}, {"city": "Skhodnya", "latitude": 55.94806, "longitude": 37.29778, "state": "Moscow Oblast"}, {"city": "Sizyy Bugor", "latitude": 46.21343, "longitude": 48.50462, "state": "Astrakhan Oblast"}, {"city": "Siverskiy", "latitude": 59.35444, "longitude": 30.07833, "state": "Leningradskaya Oblast'"}, {"city": "Siva", "latitude": 58.38057, "longitude": 54.37377, "state": "Perm Krai"}, {"city": "Siukh", "latitude": 42.5999, "longitude": 46.54462, "state": "Dagestan"}, {"city": "Sitniki", "latitude": 56.45529, "longitude": 44.06658, "state": "Nizhny Novgorod Oblast"}, {"city": "Sista-Palkino", "latitude": 59.80042, "longitude": 28.91049, "state": "Leningradskaya Oblast'"}, {"city": "Sinyavskoye", "latitude": 47.27703, "longitude": 39.27888, "state": "Rostov"}, {"city": "Sinyavino", "latitude": 59.90781, "longitude": 31.0711, "state": "Leningradskaya Oblast'"}, {"city": "Sinodskoye", "latitude": 51.9918, "longitude": 46.67009, "state": "Saratov Oblast"}, {"city": "Novosin\u2019kovo", "latitude": 56.37737, "longitude": 37.32871, "state": "Moscow Oblast"}, {"city": "Sinegorskiy", "latitude": 48.01389, "longitude": 40.84468, "state": "Rostov"}, {"city": "Sindor", "latitude": 62.86286, "longitude": 51.89051, "state": "Komi"}, {"city": "Sim", "latitude": 54.993, "longitude": 57.6982, "state": "Chelyabinsk"}, {"city": "Silikatnyy", "latitude": 53.98957, "longitude": 48.32749, "state": "Ulyanovsk"}, {"city": "Sigayevo", "latitude": 56.42163, "longitude": 53.77566, "state": "Udmurtiya Republic"}, {"city": "Sibay", "latitude": 52.71806, "longitude": 58.66583, "state": "Bashkortostan Republic"}, {"city": "Shvartsevskiy", "latitude": 54.09174, "longitude": 37.99053, "state": "Tula Oblast"}, {"city": "Shuyskoye", "latitude": 59.37356, "longitude": 41.03047, "state": "Vologda Oblast"}, {"city": "Shuya", "latitude": 61.95251, "longitude": 34.23271, "state": "Karelia"}, {"city": "Shuya", "latitude": 56.84864, "longitude": 41.3869, "state": "Ivanovo Oblast"}, {"city": "Shuvalovo", "latitude": 60.047, "longitude": 30.3, "state": "St.-Petersburg"}, {"city": "Shushary", "latitude": 59.80917, "longitude": 30.38167, "state": "St.-Petersburg"}, {"city": "Shun\u2019ga", "latitude": 62.60263, "longitude": 34.9468, "state": "Karelia"}, {"city": "Shumyachi", "latitude": 53.8578, "longitude": 32.42551, "state": "Smolensk Oblast"}, {"city": "Shumikhinskiy", "latitude": 58.7448, "longitude": 57.6926, "state": "Perm Krai"}, {"city": "Shumeyka", "latitude": 51.56361, "longitude": 46.24833, "state": "Saratov Oblast"}, {"city": "Shumerlya", "latitude": 55.5005, "longitude": 46.41288, "state": "Chuvash Republic"}, {"city": "Shugurovo", "latitude": 54.50828, "longitude": 52.13265, "state": "Tatarstan Republic"}, {"city": "Shudayag", "latitude": 63.52665, "longitude": 53.60582, "state": "Komi"}, {"city": "Mikhaylovsk", "latitude": 45.13097, "longitude": 42.02703, "state": "Stavropol Kray"}, {"city": "Shovgenovskiy", "latitude": 45.01887, "longitude": 40.22585, "state": "Adygeya Republic"}, {"city": "Shonguy", "latitude": 68.75261, "longitude": 33.14595, "state": "Murmansk"}, {"city": "Sholokhovskiy", "latitude": 48.28071, "longitude": 41.04592, "state": "Rostov"}, {"city": "Kvartsitnyy", "latitude": 61.49321, "longitude": 35.02888, "state": "Karelia"}, {"city": "Shlissel\u2019burg", "latitude": 59.9473, "longitude": 31.03845, "state": "Leningradskaya Oblast'"}, {"city": "Shkurinskaya", "latitude": 46.5858, "longitude": 39.3599, "state": "Krasnodar Krai"}, {"city": "Shirokovskiy", "latitude": 58.8411, "longitude": 57.785, "state": "Perm Krai"}, {"city": "Shirochanka", "latitude": 46.65616, "longitude": 38.33676, "state": "Krasnodar Krai"}, {"city": "Shiringushi", "latitude": 53.84851, "longitude": 42.76759, "state": "Mordoviya Republic"}, {"city": "Shipitsyno", "latitude": 61.28056, "longitude": 46.52083, "state": "Arkhangelskaya"}, {"city": "Shimsk", "latitude": 58.20997, "longitude": 30.7179, "state": "Novgorod Oblast"}, {"city": "Shimorskoye", "latitude": 55.3281, "longitude": 42.0256, "state": "Nizhny Novgorod Oblast"}, {"city": "Shilovo", "latitude": 54.32005, "longitude": 40.87958, "state": "Ryazan Oblast"}, {"city": "Shil\u2019da", "latitude": 51.8143, "longitude": 59.7744, "state": "Orenburg Oblast"}, {"city": "Shikhazany", "latitude": 55.56047, "longitude": 47.39297, "state": "Chuvash Republic"}, {"city": "Shikhany", "latitude": 52.11776, "longitude": 47.1986, "state": "Saratov Oblast"}, {"city": "Shigony", "latitude": 53.3875, "longitude": 48.6777, "state": "Samara Oblast"}, {"city": "Sheremet\u2019yevskiy", "latitude": 55.97583, "longitude": 37.49417, "state": "Moscow Oblast"}, {"city": "Shepsi", "latitude": 44.0355, "longitude": 39.1474, "state": "Krasnodar Krai"}, {"city": "Shentala", "latitude": 54.45, "longitude": 51.48333, "state": "Samara Oblast"}, {"city": "Shenkursk", "latitude": 62.10896, "longitude": 42.90065, "state": "Arkhangelskaya"}, {"city": "Shemysheyka", "latitude": 52.89196, "longitude": 45.39282, "state": "Penza Oblast"}, {"city": "Shemursha", "latitude": 54.88663, "longitude": 47.51893, "state": "Chuvash Republic"}, {"city": "Shemordan", "latitude": 56.1856, "longitude": 50.3972, "state": "Tatarstan Republic"}, {"city": "Shem\u00ebtovo", "latitude": 56.52764, "longitude": 38.07518, "state": "Moscow Oblast"}, {"city": "Sheltozero", "latitude": 61.36667, "longitude": 35.36667, "state": "Karelia"}, {"city": "Shelkovskaya", "latitude": 43.50774, "longitude": 46.33622, "state": "Chechnya"}, {"city": "Sheksna", "latitude": 59.20998, "longitude": 38.51066, "state": "Vologda Oblast"}, {"city": "Shedok", "latitude": 44.2179, "longitude": 40.8487, "state": "Krasnodar Krai"}, {"city": "Shebekino", "latitude": 50.40967, "longitude": 36.9136, "state": "Belgorod Oblast"}, {"city": "Shchukino", "latitude": 55.8, "longitude": 37.45, "state": "Moscow"}, {"city": "Shchigry", "latitude": 51.87598, "longitude": 36.90535, "state": "Kursk Oblast"}, {"city": "Shcherbinka", "latitude": 55.49972, "longitude": 37.55972, "state": "Moscow"}, {"city": "Shchyolkovo", "latitude": 55.92497, "longitude": 37.97218, "state": "Moscow Oblast"}, {"city": "Shch\u00ebkino", "latitude": 54.00734, "longitude": 37.50647, "state": "Tula Oblast"}, {"city": "Shcheglovo", "latitude": 60.02839, "longitude": 30.75289, "state": "Leningradskaya Oblast'"}, {"city": "Shaturtorf", "latitude": 55.56711, "longitude": 39.42129, "state": "Moscow Oblast"}, {"city": "Shatura", "latitude": 55.57259, "longitude": 39.53417, "state": "Moscow Oblast"}, {"city": "Shatsk", "latitude": 54.02369, "longitude": 41.71699, "state": "Ryazan Oblast"}, {"city": "Shatki", "latitude": 55.18774, "longitude": 44.12071, "state": "Nizhny Novgorod Oblast"}, {"city": "Shatalovo", "latitude": 54.334, "longitude": 32.4465, "state": "Smolensk Oblast"}, {"city": "Shar\u2019ya", "latitude": 58.36848, "longitude": 45.51622, "state": "Kostroma Oblast"}, {"city": "Sharlyk", "latitude": 52.91667, "longitude": 54.75, "state": "Orenburg Oblast"}, {"city": "Sharkan", "latitude": 57.29885, "longitude": 53.87122, "state": "Udmurtiya Republic"}, {"city": "Sharanga", "latitude": 57.17704, "longitude": 46.538, "state": "Nizhny Novgorod Oblast"}, {"city": "Sharan", "latitude": 54.81667, "longitude": 54.0, "state": "Bashkortostan Republic"}, {"city": "Shangaly", "latitude": 61.12842, "longitude": 43.33427, "state": "Arkhangelskaya"}, {"city": "Shamkhal-Termen", "latitude": 43.03389, "longitude": 47.31053, "state": "Dagestan"}, {"city": "Shamkhal", "latitude": 43.05958, "longitude": 47.33732, "state": "Dagestan"}, {"city": "Shamary", "latitude": 57.3434, "longitude": 58.21988, "state": "Sverdlovsk Oblast"}, {"city": "Shalya", "latitude": 57.2471, "longitude": 58.7298, "state": "Sverdlovsk Oblast"}, {"city": "Shalushka", "latitude": 43.5325, "longitude": 43.56611, "state": "Kabardino-Balkariya Republic"}, {"city": "Shal\u2019skiy", "latitude": 61.79698, "longitude": 36.0168, "state": "Karelia"}, {"city": "Shali", "latitude": 43.14806, "longitude": 45.90194, "state": "Chechnya"}, {"city": "Shalazhi", "latitude": 43.09476, "longitude": 45.35898, "state": "Chechnya"}, {"city": "Shalakusha", "latitude": 62.22472, "longitude": 40.25389, "state": "Arkhangelskaya"}, {"city": "Shakhun\u2019ya", "latitude": 57.67603, "longitude": 46.61171, "state": "Nizhny Novgorod Oblast"}, {"city": "Shakhty", "latitude": 47.70911, "longitude": 40.21443, "state": "Rostov"}, {"city": "Shakhta", "latitude": 59.0905, "longitude": 57.6575, "state": "Perm Krai"}, {"city": "Shakhovskaya", "latitude": 56.03082, "longitude": 35.50638, "state": "Moscow Oblast"}, {"city": "Shafranovo", "latitude": 53.96667, "longitude": 54.76667, "state": "Bashkortostan Republic"}, {"city": "Shaburnovo", "latitude": 56.55, "longitude": 37.93333, "state": "Moscow Oblast"}, {"city": "Shablykino", "latitude": 52.85639, "longitude": 35.19746, "state": "Oryol oblast"}, {"city": "Shabel\u2019skoye", "latitude": 46.85275, "longitude": 38.47278, "state": "Krasnodar Krai"}, {"city": "Shaami-Yurt", "latitude": 43.22647, "longitude": 45.38815, "state": "Chechnya"}, {"city": "Sevsk", "latitude": 52.14904, "longitude": 34.49347, "state": "Bryansk Oblast"}, {"city": "Severskaya", "latitude": 44.85407, "longitude": 38.67686, "state": "Krasnodar Krai"}, {"city": "Severo-Zadonsk", "latitude": 54.03481, "longitude": 38.40172, "state": "Tula Oblast"}, {"city": "Severoural\u2019sk", "latitude": 60.15328, "longitude": 59.95205, "state": "Sverdlovsk Oblast"}, {"city": "Severomorsk", "latitude": 69.06936, "longitude": 33.40807, "state": "Murmansk"}, {"city": "Severodvinsk", "latitude": 64.55825, "longitude": 39.82971, "state": "Arkhangelskaya"}, {"city": "Tretiy Severnyy", "latitude": 60.20861, "longitude": 59.96111, "state": "Sverdlovsk Oblast"}, {"city": "Severnyy-Kospashskiy", "latitude": 59.0897, "longitude": 57.8039, "state": "Perm Krai"}, {"city": "Severnyy", "latitude": 56.73333, "longitude": 37.65, "state": "Moscow Oblast"}, {"city": "Severnyy", "latitude": 55.93583, "longitude": 37.54889, "state": "Moscow"}, {"city": "Severnyy", "latitude": 50.6754, "longitude": 36.55869, "state": "Belgorod Oblast"}, {"city": "Severnoye", "latitude": 54.09347, "longitude": 52.54393, "state": "Orenburg Oblast"}, {"city": "Severnoye", "latitude": 44.83194, "longitude": 42.85833, "state": "Stavropol Kray"}, {"city": "Setun\u2019", "latitude": 55.71667, "longitude": 37.41667, "state": "Moscow"}, {"city": "Sestroretsk", "latitude": 60.09801, "longitude": 29.96378, "state": "St.-Petersburg"}, {"city": "Seshcha", "latitude": 53.7361, "longitude": 33.3387, "state": "Bryansk Oblast"}, {"city": "Serzhen\u2019-Yurt", "latitude": 43.12265, "longitude": 45.98583, "state": "Chechnya"}, {"city": "Sertolovo", "latitude": 60.1444, "longitude": 30.20165, "state": "Leningradskaya Oblast'"}, {"city": "Serpukhov", "latitude": 54.9198, "longitude": 37.41618, "state": "Moscow Oblast"}, {"city": "Sernur", "latitude": 56.93583, "longitude": 49.14923, "state": "Mariy-El Republic"}, {"city": "Sernovodsk", "latitude": 43.31277, "longitude": 45.15969, "state": "Chechnya"}, {"city": "Sernovodsk", "latitude": 53.92293, "longitude": 51.25704, "state": "Samara Oblast"}, {"city": "Sergokala", "latitude": 42.45384, "longitude": 47.66017, "state": "Dagestan"}, {"city": "Sergiyev Posad", "latitude": 56.31204, "longitude": 38.13869, "state": "Moscow Oblast"}, {"city": "Sergach", "latitude": 55.52771, "longitude": 45.45679, "state": "Nizhny Novgorod Oblast"}, {"city": "Ser\u00ebdka", "latitude": 58.15838, "longitude": 28.18576, "state": "Pskov Oblast"}, {"city": "Seredeyskiy", "latitude": 54.05071, "longitude": 35.23183, "state": "Kaluga Oblast"}, {"city": "Serebryanyye Prudy", "latitude": 54.4748, "longitude": 38.72791, "state": "Moscow Oblast"}, {"city": "Serdobsk", "latitude": 52.45861, "longitude": 44.21689, "state": "Penza Oblast"}, {"city": "Serafimovskiy", "latitude": 54.42408, "longitude": 53.7964, "state": "Bashkortostan Republic"}, {"city": "Serafimovich", "latitude": 49.5786, "longitude": 42.736, "state": "Volgograd Oblast"}, {"city": "Sennoy", "latitude": 52.1509, "longitude": 46.96309, "state": "Saratov Oblast"}, {"city": "Sengiley", "latitude": 53.96222, "longitude": 48.79444, "state": "Ulyanovsk"}, {"city": "Semkhoz", "latitude": 56.28333, "longitude": 38.06667, "state": "Moscow Oblast"}, {"city": "Semiluki", "latitude": 51.6821, "longitude": 39.0302, "state": "Voronezh Oblast"}, {"city": "Semiletka", "latitude": 55.36028, "longitude": 54.61528, "state": "Bashkortostan Republic"}, {"city": "Semikarakorsk", "latitude": 47.51675, "longitude": 40.80577, "state": "Rostov"}, {"city": "Semibratovo", "latitude": 57.30461, "longitude": 39.53688, "state": "Yaroslavl Oblast"}, {"city": "Sem\u00ebnovskoye", "latitude": 55.68333, "longitude": 37.55, "state": "Moscow Oblast"}, {"city": "Sem\u00ebnov", "latitude": 56.78758, "longitude": 44.49619, "state": "Nizhny Novgorod Oblast"}, {"city": "Selyatino", "latitude": 55.51514, "longitude": 36.97746, "state": "Moscow Oblast"}, {"city": "Selty", "latitude": 57.3132, "longitude": 52.1345, "state": "Udmurtiya Republic"}, {"city": "Sel\u2019tso", "latitude": 53.36831, "longitude": 34.10328, "state": "Bryansk Oblast"}, {"city": "Selizharovo", "latitude": 56.85188, "longitude": 33.44869, "state": "Tver Oblast"}, {"city": "Selishche", "latitude": 56.88794, "longitude": 33.26914, "state": "Tver Oblast"}, {"city": "Selezni", "latitude": 52.80415, "longitude": 41.23961, "state": "Tambov Oblast"}, {"city": "Segezha", "latitude": 63.74549, "longitude": 34.31614, "state": "Karelia"}, {"city": "Sedkyrkeshch", "latitude": 61.72358, "longitude": 50.95212, "state": "Komi"}, {"city": "Sechenovo", "latitude": 55.22448, "longitude": 45.88864, "state": "Nizhny Novgorod Oblast"}, {"city": "Sebrovo", "latitude": 50.0981, "longitude": 43.2976, "state": "Volgograd Oblast"}, {"city": "Sebezh", "latitude": 56.28607, "longitude": 28.48327, "state": "Pskov Oblast"}, {"city": "Sazonovo", "latitude": 59.0919, "longitude": 35.2268, "state": "Vologda Oblast"}, {"city": "Savvinskaya Sloboda", "latitude": 55.72343, "longitude": 36.80347, "state": "Moscow Oblast"}, {"city": "Savinskiy", "latitude": 62.93167, "longitude": 40.14066, "state": "Arkhangelskaya"}, {"city": "Savinskaya", "latitude": 55.37013, "longitude": 39.99233, "state": "Moscow Oblast"}, {"city": "Savino", "latitude": 56.59298, "longitude": 41.21314, "state": "Ivanovo Oblast"}, {"city": "Savinka", "latitude": 50.07848, "longitude": 47.09936, "state": "Volgograd Oblast"}, {"city": "Savasleyka", "latitude": 55.4606, "longitude": 42.3207, "state": "Nizhny Novgorod Oblast"}, {"city": "Satka", "latitude": 55.0425, "longitude": 59.04, "state": "Chelyabinsk"}, {"city": "Satis", "latitude": 55.02264, "longitude": 43.81543, "state": "Nizhny Novgorod Oblast"}, {"city": "Satis", "latitude": 54.9229, "longitude": 43.22977, "state": "Nizhny Novgorod Oblast"}, {"city": "Satinka", "latitude": 52.37532, "longitude": 41.67161, "state": "Tambov Oblast"}, {"city": "Sasykoli", "latitude": 47.55153, "longitude": 46.99679, "state": "Astrakhan Oblast"}, {"city": "Sary-Tyuz", "latitude": 43.90181, "longitude": 41.89523, "state": "Karachayevo-Cherkesiya Republic"}, {"city": "Sars", "latitude": 56.55017, "longitude": 57.13658, "state": "Perm Krai"}, {"city": "Sarov", "latitude": 54.94802, "longitude": 43.31521, "state": "Nizhny Novgorod Oblast"}, {"city": "Sarmanovo", "latitude": 55.25529, "longitude": 52.58907, "state": "Tatarstan Republic"}, {"city": "Sarmakovo", "latitude": 43.74556, "longitude": 43.20028, "state": "Kabardino-Balkariya Republic"}, {"city": "Saratovskaya", "latitude": 44.70752, "longitude": 39.22156, "state": "Krasnodar Krai"}, {"city": "Saratov", "latitude": 51.54056, "longitude": 46.00861, "state": "Saratov Oblast"}, {"city": "Sarapul", "latitude": 56.47633, "longitude": 53.79782, "state": "Udmurtiya Republic"}, {"city": "Sarany", "latitude": 58.5, "longitude": 58.88333, "state": "Perm Krai"}, {"city": "Saransk", "latitude": 54.1838, "longitude": 45.1749, "state": "Mordoviya Republic"}, {"city": "Sarana", "latitude": 56.47728, "longitude": 57.72586, "state": "Sverdlovsk Oblast"}, {"city": "Saraktash", "latitude": 51.78771, "longitude": 56.36091, "state": "Orenburg Oblast"}, {"city": "Sarayi", "latitude": 53.72947, "longitude": 41.00219, "state": "Ryazan Oblast"}, {"city": "Sapozhok", "latitude": 53.94272, "longitude": 40.68286, "state": "Ryazan Oblast"}, {"city": "Sap\u00ebrnyy", "latitude": 59.77611, "longitude": 30.66139, "state": "St.-Petersburg"}, {"city": "Sapernoye", "latitude": 60.71418, "longitude": 29.95525, "state": "Leningradskaya Oblast'"}, {"city": "Saint Petersburg", "latitude": 59.93863, "longitude": 30.31413, "state": "St.-Petersburg"}, {"city": "Sandovo", "latitude": 58.46418, "longitude": 36.4153, "state": "Tver Oblast"}, {"city": "Sandata", "latitude": 46.27081, "longitude": 41.75834, "state": "Rostov"}, {"city": "Sanchursk", "latitude": 56.9412, "longitude": 47.24951, "state": "Kirov Oblast"}, {"city": "Samur", "latitude": 41.82527, "longitude": 48.48597, "state": "Dagestan"}, {"city": "Samoylovka", "latitude": 51.184, "longitude": 43.7081, "state": "Saratov Oblast"}, {"city": "Samoded", "latitude": 63.6083, "longitude": 40.5111, "state": "Arkhangelskaya"}, {"city": "Sambek", "latitude": 47.74266, "longitude": 39.824, "state": "Rostov"}, {"city": "Samashki", "latitude": 43.28935, "longitude": 45.29786, "state": "Chechnya"}, {"city": "Samarskoye", "latitude": 46.937, "longitude": 39.6881, "state": "Rostov"}, {"city": "Samara", "latitude": 53.20007, "longitude": 50.15, "state": "Samara Oblast"}, {"city": "Saltykovka", "latitude": 55.76679, "longitude": 37.93533, "state": "Moscow Oblast"}, {"city": "Sal\u2019sk", "latitude": 46.4747, "longitude": 41.54114, "state": "Rostov"}, {"city": "Salmi", "latitude": 61.36971, "longitude": 31.85185, "state": "Karelia"}, {"city": "Salavat", "latitude": 53.38365, "longitude": 55.90773, "state": "Bashkortostan Republic"}, {"city": "Sakmara", "latitude": 51.98438, "longitude": 55.3338, "state": "Orenburg Oblast"}, {"city": "Sakharovo", "latitude": 56.89949, "longitude": 36.05015, "state": "Tver Oblast"}, {"city": "Sagopshi", "latitude": 43.48515, "longitude": 44.59063, "state": "Ingushetiya Republic"}, {"city": "Safonovo", "latitude": 69.06043, "longitude": 33.29523, "state": "Murmansk"}, {"city": "Safonovo", "latitude": 55.11091, "longitude": 33.23728, "state": "Smolensk Oblast"}, {"city": "Sadovoye", "latitude": 51.53064, "longitude": 40.50155, "state": "Voronezh Oblast"}, {"city": "Sadovoye", "latitude": 47.7772, "longitude": 44.5208, "state": "Kalmykiya Republic"}, {"city": "Sachkovichi", "latitude": 52.3459, "longitude": 32.2246, "state": "Bryansk Oblast"}, {"city": "Sabnova", "latitude": 42.06316, "longitude": 48.25326, "state": "Dagestan"}, {"city": "Rzhev", "latitude": 56.26289, "longitude": 34.3289, "state": "Tver Oblast"}, {"city": "Rzhavki", "latitude": 56.0, "longitude": 37.25, "state": "Moscow Oblast"}, {"city": "Rzhanitsa", "latitude": 53.42844, "longitude": 33.92297, "state": "Bryansk Oblast"}, {"city": "Rzhaksa", "latitude": 52.13917, "longitude": 42.02759, "state": "Tambov Oblast"}, {"city": "Ryzdvyanyy", "latitude": 45.2656, "longitude": 41.8389, "state": "Stavropol Kray"}, {"city": "Rybnoye", "latitude": 54.72531, "longitude": 39.51305, "state": "Ryazan Oblast"}, {"city": "Rybnaya Sloboda", "latitude": 55.46129, "longitude": 50.1409, "state": "Tatarstan Republic"}, {"city": "Rybinsk", "latitude": 58.04562, "longitude": 38.83811, "state": "Yaroslavl Oblast"}, {"city": "Rybatskoye", "latitude": 59.8393, "longitude": 30.49873, "state": "Leningradskaya Oblast'"}, {"city": "Ryazhsk", "latitude": 53.70588, "longitude": 40.08045, "state": "Ryazan Oblast"}, {"city": "Ryazanskaya", "latitude": 44.95528, "longitude": 39.58894, "state": "Krasnodar Krai"}, {"city": "Ryazan\u2019", "latitude": 54.6269, "longitude": 39.6916, "state": "Ryazan Oblast"}, {"city": "Ryabovo", "latitude": 59.4, "longitude": 31.13333, "state": "Leningradskaya Oblast'"}, {"city": "Ruzayevka", "latitude": 54.06004, "longitude": 44.94899, "state": "Mordoviya Republic"}, {"city": "Ruza", "latitude": 55.70172, "longitude": 36.19321, "state": "Moscow Oblast"}, {"city": "Rutul", "latitude": 41.53439, "longitude": 47.42399, "state": "Dagestan"},