[{"city": "Z\u00e1hony", "latitude": 48.40906, "longitude": 22.17614, "state": "Szabolcs-Szatm\u00e1r-Bereg"}, {"city": "Zagyvar\u00e9kas", "latitude": 47.26667, "longitude": 20.13333, "state": "J\u00e1sz-Nagykun-Szolnok"}, {"city": "V\u00e9szt\u0151", "latitude": 46.91667, "longitude": 21.26667, "state": "Bekes County"}, {"city": "Verpel\u00e9t", "latitude": 47.85, "longitude": 20.23333, "state": "Heves County"}, {"city": "V\u00e1s\u00e1rosnam\u00e9ny", "latitude": 48.12542, "longitude": 22.31325, "state": "Szabolcs-Szatm\u00e1r-Bereg"}, {"city": "V\u00e1mosp\u00e9rcs", "latitude": 47.53333, "longitude": 21.9, "state": "Hajd\u00fa-Bihar"}, {"city": "Vaja", "latitude": 48.00574, "longitude": 22.16761, "state": "Szabolcs-Szatm\u00e1r-Bereg"}, {"city": "\u00dajsz\u00e1sz", "latitude": 47.3, "longitude": 20.08333, "state": "J\u00e1sz-Nagykun-Szolnok"}, {"city": "\u00dajk\u00edgy\u00f3s", "latitude": 46.58333, "longitude": 21.03333, "state": "Bekes County"}, {"city": "\u00dajfeh\u00e9rt\u00f3", "latitude": 47.8, "longitude": 21.68333, "state": "Szabolcs-Szatm\u00e1r-Bereg"}, {"city": "Tyukod", "latitude": 47.85378, "longitude": 22.5633, "state": "Szabolcs-Szatm\u00e1r-Bereg"}, {"city": "Tuzs\u00e9r", "latitude": 48.34407, "longitude": 22.11762, "state": "Szabolcs-Szatm\u00e1r-Bereg"}, {"city": "T\u00farkeve", "latitude": 47.1, "longitude": 20.75, "state": "J\u00e1sz-Nagykun-Szolnok"}, {"city": "Tunyogmatolcs", "latitude": 47.96667, "longitude": 22.46667, "state": "Szabolcs-Szatm\u00e1r-Bereg"}, {"city": "T\u00f3tkoml\u00f3s", "latitude": 46.41667, "longitude": 20.73333, "state": "Bekes County"}, {"city": "T\u00f3szeg", "latitude": 47.1, "longitude": 20.15, "state": "J\u00e1sz-Nagykun-Szolnok"}, {"city": "T\u00f6r\u00f6kszentmikl\u00f3s", "latitude": 47.18333, "longitude": 20.41667, "state": "J\u00e1sz-Nagykun-Szolnok"}, {"city": "Tornyosp\u00e1lca", "latitude": 48.26667, "longitude": 22.18333, "state": "Szabolcs-Szatm\u00e1r-Bereg"}, {"city": "T\u00f6m\u00f6rk\u00e9ny", "latitude": 46.61716, "longitude": 20.04357, "state": "Csongr\u00e1d"}, {"city": "Tolcsva", "latitude": 48.28333, "longitude": 21.45, "state": "Borsod-Aba\u00faj-Zempl\u00e9n"}, {"city": "Tokaj", "latitude": 48.11717, "longitude": 21.40922, "state": "Borsod-Aba\u00faj-Zempl\u00e9n"}, {"city": "Tiszavasv\u00e1ri", "latitude": 47.96667, "longitude": 21.35, "state": "Szabolcs-Szatm\u00e1r-Bereg"}, {"city": "Tisza\u00fajv\u00e1ros", "latitude": 47.93333, "longitude": 21.08333, "state": "Borsod-Aba\u00faj-Zempl\u00e9n"}, {"city": "Tiszaszentimre", "latitude": 47.48333, "longitude": 20.73333, "state": "J\u00e1sz-Nagykun-Szolnok"}, {"city": "Tiszas\u00fcly", "latitude": 47.38333, "longitude": 20.4, "state": "J\u00e1sz-Nagykun-Szolnok"}, {"city": "Tiszaroff", "latitude": 47.4, "longitude": 20.45, "state": "J\u00e1sz-Nagykun-Szolnok"}, {"city": "Tiszap\u00fcsp\u00f6ki", "latitude": 47.21667, "longitude": 20.31667, "state": "J\u00e1sz-Nagykun-Szolnok"}, {"city": "Tiszan\u00e1na", "latitude": 47.56667, "longitude": 20.53333, "state": "Heves County"}, {"city": "Tiszanagyfalu", "latitude": 48.09208, "longitude": 21.4728, "state": "Szabolcs-Szatm\u00e1r-Bereg"}, {"city": "Tiszal\u00fac", "latitude": 48.03774, "longitude": 21.07261, "state": "Borsod-Aba\u00faj-Zempl\u00e9n"}, {"city": "Tiszal\u00f6k", "latitude": 48.01667, "longitude": 21.38333, "state": "Szabolcs-Szatm\u00e1r-Bereg"}, {"city": "Tiszakeszi", "latitude": 47.78333, "longitude": 21.0, "state": "Borsod-Aba\u00faj-Zempl\u00e9n"}, {"city": "Tiszak\u00e9cske", "latitude": 46.93261, "longitude": 20.10349, "state": "B\u00e1cs-Kiskun"}, {"city": "Tiszakar\u00e1d", "latitude": 48.2, "longitude": 21.71667, "state": "Borsod-Aba\u00faj-Zempl\u00e9n"}, {"city": "Tiszaf\u00fcred", "latitude": 47.61667, "longitude": 20.76667, "state": "J\u00e1sz-Nagykun-Szolnok"}, {"city": "Tiszaf\u00f6ldv\u00e1r", "latitude": 46.98333, "longitude": 20.25, "state": "J\u00e1sz-Nagykun-Szolnok"}, {"city": "Tiszaeszl\u00e1r", "latitude": 48.05, "longitude": 21.46667, "state": "Szabolcs-Szatm\u00e1r-Bereg"}, {"city": "Tiszadob", "latitude": 48.01667, "longitude": 21.16667, "state": "Szabolcs-Szatm\u00e1r-Bereg"}, {"city": "Tiszadada", "latitude": 48.03333, "longitude": 21.25, "state": "Szabolcs-Szatm\u00e1r-Bereg"}, {"city": "Tiszacsege", "latitude": 47.7, "longitude": 21.0, "state": "Hajd\u00fa-Bihar"}, {"city": "Tiszabura", "latitude": 47.45, "longitude": 20.46667, "state": "J\u00e1sz-Nagykun-Szolnok"}, {"city": "Tiszab\u0151", "latitude": 47.3, "longitude": 20.48333, "state": "J\u00e1sz-Nagykun-Szolnok"}, {"city": "Tiszabezd\u00e9d", "latitude": 48.36667, "longitude": 22.15, "state": "Szabolcs-Szatm\u00e1r-Bereg"}, {"city": "Tiszabercel", "latitude": 48.15, "longitude": 21.65, "state": "Szabolcs-Szatm\u00e1r-Bereg"}, {"city": "T\u00e9gl\u00e1s", "latitude": 47.71667, "longitude": 21.68333, "state": "Hajd\u00fa-Bihar"}, {"city": "Tarpa", "latitude": 48.1048, "longitude": 22.53744, "state": "Szabolcs-Szatm\u00e1r-Bereg"}, {"city": "Tarna\u00f6rs", "latitude": 47.59499, "longitude": 20.05254, "state": "Heves County"}, {"city": "Tarnalelesz", "latitude": 48.05, "longitude": 20.18333, "state": "Heves County"}, {"city": "Tarcal", "latitude": 48.13333, "longitude": 21.35, "state": "Borsod-Aba\u00faj-Zempl\u00e9n"}, {"city": "T\u00e1llya", "latitude": 48.23333, "longitude": 21.23333, "state": "Borsod-Aba\u00faj-Zempl\u00e9n"}, {"city": "Taktaszada", "latitude": 48.11667, "longitude": 21.18333, "state": "Borsod-Aba\u00faj-Zempl\u00e9n"}, {"city": "Taktahark\u00e1ny", "latitude": 48.08333, "longitude": 21.13333, "state": "Borsod-Aba\u00faj-Zempl\u00e9n"}, {"city": "Szolnok", "latitude": 47.18333, "longitude": 20.2, "state": "J\u00e1sz-Nagykun-Szolnok"}, {"city": "Szirmabeseny\u0151", "latitude": 48.15, "longitude": 20.8, "state": "Borsod-Aba\u00faj-Zempl\u00e9n"}, {"city": "Szilv\u00e1sv\u00e1rad", "latitude": 48.1, "longitude": 20.4, "state": "Heves County"}, {"city": "Sziksz\u00f3", "latitude": 48.2, "longitude": 20.93333, "state": "Borsod-Aba\u00faj-Zempl\u00e9n"}, {"city": "Szihalom", "latitude": 47.76667, "longitude": 20.48333, "state": "Heves County"}, {"city": "Szerencs", "latitude": 48.15993, "longitude": 21.2097, "state": "Borsod-Aba\u00faj-Zempl\u00e9n"}, {"city": "Szentistv\u00e1n", "latitude": 47.76667, "longitude": 20.66667, "state": "Borsod-Aba\u00faj-Zempl\u00e9n"}, {"city": "Szentes", "latitude": 46.65834, "longitude": 20.2608, "state": "Csongr\u00e1d"}, {"city": "Szendr\u0151", "latitude": 48.4, "longitude": 20.73333, "state": "Borsod-Aba\u00faj-Zempl\u00e9n"}, {"city": "Sz\u00e9kkutas", "latitude": 46.5, "longitude": 20.53333, "state": "Csongr\u00e1d"}, {"city": "Szegv\u00e1r", "latitude": 46.5874, "longitude": 20.22408, "state": "Csongr\u00e1d"}, {"city": "Szeghalom", "latitude": 47.03333, "longitude": 21.16667, "state": "Bekes County"}, {"city": "Szeged", "latitude": 46.253, "longitude": 20.14824, "state": "Csongr\u00e1d"}, {"city": "Szatymaz", "latitude": 46.34306, "longitude": 20.0402, "state": "Csongr\u00e1d"}, {"city": "Szarvas", "latitude": 46.86667, "longitude": 20.55, "state": "Bekes County"}, {"city": "Szamosszeg", "latitude": 48.04561, "longitude": 22.36582, "state": "Szabolcs-Szatm\u00e1r-Bereg"}, {"city": "Szakoly", "latitude": 47.76667, "longitude": 21.91667, "state": "Szabolcs-Szatm\u00e1r-Bereg"}, {"city": "Szajol", "latitude": 47.18333, "longitude": 20.3, "state": "J\u00e1sz-Nagykun-Szolnok"}, {"city": "Szabadk\u00edgy\u00f3s", "latitude": 46.61667, "longitude": 21.1, "state": "Bekes County"}, {"city": "Sirok", "latitude": 47.93333, "longitude": 20.2, "state": "Heves County"}, {"city": "S\u00e1toralja\u00fajhely", "latitude": 48.39492, "longitude": 21.65871, "state": "Borsod-Aba\u00faj-Zempl\u00e9n"}, {"city": "S\u00e1rr\u00e9tudvari", "latitude": 47.23333, "longitude": 21.2, "state": "Hajd\u00fa-Bihar"}, {"city": "S\u00e1rospatak", "latitude": 48.3245, "longitude": 21.57383, "state": "Borsod-Aba\u00faj-Zempl\u00e9n"}, {"city": "Sarkad", "latitude": 46.75, "longitude": 21.38333, "state": "Bekes County"}, {"city": "S\u00e1r\u00e1nd", "latitude": 47.4, "longitude": 21.63333, "state": "Hajd\u00fa-Bihar"}, {"city": "S\u00e1ndorfalva", "latitude": 46.36087, "longitude": 20.09889, "state": "Csongr\u00e1d"}, {"city": "S\u00e1ly", "latitude": 47.95, "longitude": 20.66667, "state": "Borsod-Aba\u00faj-Zempl\u00e9n"}, {"city": "Saj\u00f3v\u00e1mos", "latitude": 48.18171, "longitude": 20.83149, "state": "Borsod-Aba\u00faj-Zempl\u00e9n"}, {"city": "Saj\u00f3sz\u00f6ged", "latitude": 47.95, "longitude": 21.0, "state": "Borsod-Aba\u00faj-Zempl\u00e9n"}, {"city": "Saj\u00f3szentp\u00e9ter", "latitude": 48.21667, "longitude": 20.71667, "state": "Borsod-Aba\u00faj-Zempl\u00e9n"}, {"city": "Saj\u00f3\u00f6r\u00f6s", "latitude": 47.95, "longitude": 21.03333, "state": "Borsod-Aba\u00faj-Zempl\u00e9n"}, {"city": "Saj\u00f3l\u00e1d", "latitude": 48.04027, "longitude": 20.90247, "state": "Borsod-Aba\u00faj-Zempl\u00e9n"}, {"city": "Saj\u00f3kaza", "latitude": 48.28333, "longitude": 20.58333, "state": "Borsod-Aba\u00faj-Zempl\u00e9n"}, {"city": "Saj\u00f3b\u00e1bony", "latitude": 48.16667, "longitude": 20.73333, "state": "Borsod-Aba\u00faj-Zempl\u00e9n"}, {"city": "Rudab\u00e1nya", "latitude": 48.38333, "longitude": 20.63333, "state": "Borsod-Aba\u00faj-Zempl\u00e9n"}, {"city": "R\u00f6szke", "latitude": 46.18796, "longitude": 20.03372, "state": "Csongr\u00e1d"}, {"city": "Ricse", "latitude": 48.32565, "longitude": 21.97069, "state": "Borsod-Aba\u00faj-Zempl\u00e9n"}, {"city": "Recsk", "latitude": 47.93333, "longitude": 20.11667, "state": "Heves County"}, {"city": "R\u00e1k\u00f3czi\u00fajfalu", "latitude": 47.06667, "longitude": 20.26667, "state": "J\u00e1sz-Nagykun-Szolnok"}, {"city": "R\u00e1k\u00f3czifalva", "latitude": 47.08333, "longitude": 20.23333, "state": "J\u00e1sz-Nagykun-Szolnok"}, {"city": "Rakamaz", "latitude": 48.12372, "longitude": 21.46429, "state": "Szabolcs-Szatm\u00e1r-Bereg"}, {"city": "Putnok", "latitude": 48.3, "longitude": 20.43333, "state": "Borsod-Aba\u00faj-Zempl\u00e9n"}, {"city": "Pusztaf\u00f6ldv\u00e1r", "latitude": 46.53333, "longitude": 20.8, "state": "Bekes County"}, {"city": "P\u00fcsp\u00f6klad\u00e1ny", "latitude": 47.31667, "longitude": 21.11667, "state": "Hajd\u00fa-Bihar"}, {"city": "Pr\u00fcgy", "latitude": 48.08333, "longitude": 21.25, "state": "Borsod-Aba\u00faj-Zempl\u00e9n"}, {"city": "Poroszl\u00f3", "latitude": 47.65, "longitude": 20.66667, "state": "Heves County"}, {"city": "Porcsalma", "latitude": 47.88333, "longitude": 22.56667, "state": "Szabolcs-Szatm\u00e1r-Bereg"}, {"city": "Polg\u00e1r", "latitude": 47.86667, "longitude": 21.11667, "state": "Hajd\u00fa-Bihar"}, {"city": "Pocsaj", "latitude": 47.28333, "longitude": 21.81667, "state": "Hajd\u00fa-Bihar"}, {"city": "Petneh\u00e1za", "latitude": 48.06084, "longitude": 22.07485, "state": "Szabolcs-Szatm\u00e1r-Bereg"}, {"city": "P\u00e9terv\u00e1s\u00e1ra", "latitude": 48.01667, "longitude": 20.1, "state": "Heves County"}, {"city": "P\u00e1troha", "latitude": 48.16667, "longitude": 22.0, "state": "Szabolcs-Szatm\u00e1r-Bereg"}, {"city": "Par\u00e1d", "latitude": 47.92323, "longitude": 20.02972, "state": "Heves County"}, {"city": "\u00d3zd", "latitude": 48.21667, "longitude": 20.3, "state": "Borsod-Aba\u00faj-Zempl\u00e9n"}, {"city": "Ostoros", "latitude": 47.86667, "longitude": 20.43333, "state": "Heves County"}, {"city": "Orosh\u00e1za", "latitude": 46.56667, "longitude": 20.66667, "state": "Bekes County"}, {"city": "\u00d3pusztaszer", "latitude": 46.48592, "longitude": 20.08722, "state": "Csongr\u00e1d"}, {"city": "\u00d3p\u00e1lyi", "latitude": 47.99771, "longitude": 22.32617, "state": "Szabolcs-Szatm\u00e1r-Bereg"}, {"city": "\u00d3nod", "latitude": 48.0, "longitude": 20.91667, "state": "Borsod-Aba\u00faj-Zempl\u00e9n"}, {"city": "Onga", "latitude": 48.11667, "longitude": 20.91667, "state": "Borsod-Aba\u00faj-Zempl\u00e9n"}, {"city": "Olaszliszka", "latitude": 48.25, "longitude": 21.43333, "state": "Borsod-Aba\u00faj-Zempl\u00e9n"}, {"city": "\u00d6k\u00f6rit\u00f3f\u00fclp\u00f6s", "latitude": 47.91862, "longitude": 22.5081, "state": "Szabolcs-Szatm\u00e1r-Bereg"}, {"city": "Ok\u00e1ny", "latitude": 46.9, "longitude": 21.35, "state": "Bekes County"}, {"city": "\u00d3feh\u00e9rt\u00f3", "latitude": 47.93333, "longitude": 22.05, "state": "Szabolcs-Szatm\u00e1r-Bereg"}, {"city": "\u00d6cs\u00f6d", "latitude": 46.9, "longitude": 20.4, "state": "J\u00e1sz-Nagykun-Szolnok"}, {"city": "Ny\u00edrvasv\u00e1ri", "latitude": 47.81667, "longitude": 22.18683, "state": "Szabolcs-Szatm\u00e1r-Bereg"}, {"city": "Ny\u00edrtelek", "latitude": 48.01667, "longitude": 21.63333, "state": "Szabolcs-Szatm\u00e1r-Bereg"}, {"city": "Ny\u00edrtass", "latitude": 48.11667, "longitude": 22.03333, "state": "Szabolcs-Szatm\u00e1r-Bereg"}, {"city": "Ny\u00edrpazony", "latitude": 47.98333, "longitude": 21.8, "state": "Szabolcs-Szatm\u00e1r-Bereg"}, {"city": "Ny\u00edrmih\u00e1lydi", "latitude": 47.73976, "longitude": 21.96445, "state": "Szabolcs-Szatm\u00e1r-Bereg"}, {"city": "Ny\u00edrmeggyes", "latitude": 47.91667, "longitude": 22.26667, "state": "Szabolcs-Szatm\u00e1r-Bereg"}, {"city": "Ny\u00edrm\u00e1rtonfalva", "latitude": 47.58333, "longitude": 21.9, "state": "Hajd\u00fa-Bihar"}, {"city": "Ny\u00edrmada", "latitude": 48.06667, "longitude": 22.2, "state": "Szabolcs-Szatm\u00e1r-Bereg"}, {"city": "Ny\u00edrlugos", "latitude": 47.69315, "longitude": 22.04476, "state": "Szabolcs-Szatm\u00e1r-Bereg"}, {"city": "Ny\u00edrkar\u00e1sz", "latitude": 48.09477, "longitude": 22.10463, "state": "Szabolcs-Szatm\u00e1r-Bereg"}, {"city": "Ny\u00edrgyulaj", "latitude": 47.88622, "longitude": 22.09781, "state": "Szabolcs-Szatm\u00e1r-Bereg"}, {"city": "Ny\u00edregyh\u00e1za", "latitude": 47.95539, "longitude": 21.71671, "state": "Szabolcs-Szatm\u00e1r-Bereg"}, {"city": "Ny\u00edrcsaholy", "latitude": 47.90383, "longitude": 22.3363, "state": "Szabolcs-Szatm\u00e1r-Bereg"}, {"city": "Ny\u00edrbogd\u00e1ny", "latitude": 48.05723, "longitude": 21.88242, "state": "Szabolcs-Szatm\u00e1r-Bereg"}, {"city": "Ny\u00edrbog\u00e1t", "latitude": 47.8034, "longitude": 22.06561, "state": "Szabolcs-Szatm\u00e1r-Bereg"}, {"city": "Ny\u00edrb\u00e9ltek", "latitude": 47.7, "longitude": 22.13333, "state": "Szabolcs-Szatm\u00e1r-Bereg"}, {"city": "Ny\u00edrb\u00e1tor", "latitude": 47.83333, "longitude": 22.13333, "state": "Szabolcs-Szatm\u00e1r-Bereg"}, {"city": "Ny\u00edradony", "latitude": 47.69746, "longitude": 21.91878, "state": "Hajd\u00fa-Bihar"}, {"city": "Ny\u00edracs\u00e1d", "latitude": 47.6033, "longitude": 21.97208, "state": "Hajd\u00fa-Bihar"}, {"city": "Ny\u00edr\u00e1br\u00e1ny", "latitude": 47.55311, "longitude": 22.02401, "state": "Hajd\u00fa-Bihar"}, {"city": "Ny\u00e9kl\u00e1dh\u00e1za", "latitude": 47.98333, "longitude": 20.83333, "state": "Borsod-Aba\u00faj-Zempl\u00e9n"}, {"city": "Napkor", "latitude": 47.93797, "longitude": 21.86763, "state": "Szabolcs-Szatm\u00e1r-Bereg"}, {"city": "Nagysz\u00e9n\u00e1s", "latitude": 46.68333, "longitude": 20.66667, "state": "Bekes County"}, {"city": "Nagyr\u00e1b\u00e9", "latitude": 47.2, "longitude": 21.33333, "state": "Hajd\u00fa-Bihar"}, {"city": "Nagyk\u00e1ll\u00f3", "latitude": 47.87491, "longitude": 21.84082, "state": "Szabolcs-Szatm\u00e1r-Bereg"}, {"city": "Nagyhal\u00e1sz", "latitude": 48.13266, "longitude": 21.76104, "state": "Szabolcs-Szatm\u00e1r-Bereg"}, {"city": "Nagyecsed", "latitude": 47.86547, "longitude": 22.39159, "state": "Szabolcs-Szatm\u00e1r-Bereg"}, {"city": "Nagydobos", "latitude": 48.05759, "longitude": 22.30423, "state": "Szabolcs-Szatm\u00e1r-Bereg"}, {"city": "Nagycserkesz", "latitude": 47.96667, "longitude": 21.53333, "state": "Szabolcs-Szatm\u00e1r-Bereg"}, {"city": "N\u00e1dudvar", "latitude": 47.41667, "longitude": 21.16667, "state": "Hajd\u00fa-Bihar"}, {"city": "M\u00facsony", "latitude": 48.26667, "longitude": 20.68333, "state": "Borsod-Aba\u00faj-Zempl\u00e9n"}, {"city": "Monostorp\u00e1lyi", "latitude": 47.4, "longitude": 21.78333, "state": "Hajd\u00fa-Bihar"}, {"city": "Monok", "latitude": 48.21102, "longitude": 21.15052, "state": "Borsod-Aba\u00faj-Zempl\u00e9n"}, {"city": "Miskolc", "latitude": 48.10306, "longitude": 20.77806, "state": "Borsod-Aba\u00faj-Zempl\u00e9n"}, {"city": "Mindszent", "latitude": 46.52362, "longitude": 20.19038, "state": "Csongr\u00e1d"}, {"city": "Mikep\u00e9rcs", "latitude": 47.45, "longitude": 21.63333, "state": "Hajd\u00fa-Bihar"}, {"city": "Mez\u0151zombor", "latitude": 48.15, "longitude": 21.26667, "state": "Borsod-Aba\u00faj-Zempl\u00e9n"}, {"city": "Mez\u0151t\u00far", "latitude": 47.0, "longitude": 20.63333, "state": "J\u00e1sz-Nagykun-Szolnok"}, {"city": "Mez\u0151k\u00f6vesd", "latitude": 47.81667, "longitude": 20.58333, "state": "Borsod-Aba\u00faj-Zempl\u00e9n"}, {"city": "Mez\u0151kov\u00e1csh\u00e1za", "latitude": 46.4, "longitude": 20.91667, "state": "Bekes County"}, {"city": "Mez\u0151keresztes", "latitude": 47.83333, "longitude": 20.7, "state": "Borsod-Aba\u00faj-Zempl\u00e9n"}, {"city": "Mez\u0151hegyes", "latitude": 46.31667, "longitude": 20.81667, "state": "Bekes County"}, {"city": "Mez\u0151cs\u00e1t", "latitude": 47.81667, "longitude": 20.91667, "state": "Borsod-Aba\u00faj-Zempl\u00e9n"}, {"city": "Mez\u0151ber\u00e9ny", "latitude": 46.81667, "longitude": 21.03333, "state": "Bekes County"}, {"city": "M\u00e9rk", "latitude": 47.78824, "longitude": 22.38038, "state": "Szabolcs-Szatm\u00e1r-Bereg"}, {"city": "M\u00e9hker\u00e9k", "latitude": 46.78333, "longitude": 21.45, "state": "Bekes County"}, {"city": "Megyasz\u00f3", "latitude": 48.18333, "longitude": 21.05, "state": "Borsod-Aba\u00faj-Zempl\u00e9n"}, {"city": "Medgyesegyh\u00e1za", "latitude": 46.5, "longitude": 21.03333, "state": "Bekes County"}, {"city": "M\u00e1traderecske", "latitude": 47.95, "longitude": 20.08333, "state": "Heves County"}, {"city": "M\u00e1t\u00e9szalka", "latitude": 47.95528, "longitude": 22.32348, "state": "Szabolcs-Szatm\u00e1r-Bereg"}, {"city": "Maroslele", "latitude": 46.26667, "longitude": 20.35, "state": "Csongr\u00e1d"}, {"city": "M\u00e1riap\u00f3cs", "latitude": 47.88303, "longitude": 22.02501, "state": "Szabolcs-Szatm\u00e1r-Bereg"}, {"city": "M\u00e1ndok", "latitude": 48.32149, "longitude": 22.19107, "state": "Szabolcs-Szatm\u00e1r-Bereg"}, {"city": "M\u00e1lyi", "latitude": 48.01667, "longitude": 20.83333, "state": "Borsod-Aba\u00faj-Zempl\u00e9n"}, {"city": "Mak\u00f3", "latitude": 46.21667, "longitude": 20.48333, "state": "Csongr\u00e1d"}, {"city": "Makl\u00e1r", "latitude": 47.8, "longitude": 20.41667, "state": "Heves County"}, {"city": "Magyarb\u00e1nhegyes", "latitude": 46.45, "longitude": 20.96667, "state": "Bekes County"}, {"city": "M\u00e1d", "latitude": 48.19442, "longitude": 21.28208, "state": "Borsod-Aba\u00faj-Zempl\u00e9n"}, {"city": "L\u0151k\u00f6sh\u00e1za", "latitude": 46.43333, "longitude": 21.23333, "state": "Bekes County"}, {"city": "Levelek", "latitude": 47.96282, "longitude": 21.98537, "state": "Szabolcs-Szatm\u00e1r-Bereg"}, {"city": "L\u00e9tav\u00e9rtes", "latitude": 47.38333, "longitude": 21.9, "state": "Hajd\u00fa-Bihar"}, {"city": "Kunszentm\u00e1rton", "latitude": 46.83916, "longitude": 20.28879, "state": "J\u00e1sz-Nagykun-Szolnok"}, {"city": "Kunmadaras", "latitude": 47.43333, "longitude": 20.8, "state": "J\u00e1sz-Nagykun-Szolnok"}, {"city": "Kunhegyes", "latitude": 47.36667, "longitude": 20.63333, "state": "J\u00e1sz-Nagykun-Szolnok"}, {"city": "Kun\u00e1gota", "latitude": 46.43333, "longitude": 21.05, "state": "Bekes County"}, {"city": "K\u00f3taj", "latitude": 48.05, "longitude": 21.71667, "state": "Szabolcs-Szatm\u00e1r-Bereg"}, {"city": "K\u00f6r\u00f6starcsa", "latitude": 46.88333, "longitude": 21.03333, "state": "Bekes County"}, {"city": "K\u00f6r\u00f6slad\u00e1ny", "latitude": 46.96667, "longitude": 21.08333, "state": "Bekes County"}, {"city": "Kony\u00e1r", "latitude": 47.31667, "longitude": 21.66667, "state": "Hajd\u00fa-Bihar"}, {"city": "Kondoros", "latitude": 46.76667, "longitude": 20.8, "state": "Bekes County"}, {"city": "Kompolt", "latitude": 47.74222, "longitude": 20.24192, "state": "Heves County"}, {"city": "Kom\u00e1di", "latitude": 47.0, "longitude": 21.5, "state": "Hajd\u00fa-Bihar"}, {"city": "Kocsord", "latitude": 47.93912, "longitude": 22.38333, "state": "Szabolcs-Szatm\u00e1r-Bereg"}, {"city": "Kiszombor", "latitude": 46.18333, "longitude": 20.43333, "state": "Csongr\u00e1d"}, {"city": "Kisv\u00e1rda", "latitude": 48.21667, "longitude": 22.08333, "state": "Szabolcs-Szatm\u00e1r-Bereg"}, {"city": "Kis\u00fajsz\u00e1ll\u00e1s", "latitude": 47.21667, "longitude": 20.76667, "state": "J\u00e1sz-Nagykun-Szolnok"}, {"city": "Kisl\u00e9ta", "latitude": 47.84244, "longitude": 22.00393, "state": "Szabolcs-Szatm\u00e1r-Bereg"}, {"city": "Kisk\u00f6re", "latitude": 47.5, "longitude": 20.5, "state": "Heves County"}, {"city": "Kevermes", "latitude": 46.41667, "longitude": 21.18333, "state": "Bekes County"}, {"city": "K\u00e9tegyh\u00e1za", "latitude": 46.53333, "longitude": 21.18333, "state": "Bekes County"}, {"city": "Kerecsend", "latitude": 47.8, "longitude": 20.35, "state": "Heves County"}, {"city": "Kengyel", "latitude": 47.08333, "longitude": 20.33333, "state": "J\u00e1sz-Nagykun-Szolnok"}, {"city": "Kenderes", "latitude": 47.25, "longitude": 20.68333, "state": "J\u00e1sz-Nagykun-Szolnok"}, {"city": "Kemecse", "latitude": 48.07532, "longitude": 21.80625, "state": "Szabolcs-Szatm\u00e1r-Bereg"}, {"city": "K\u00e9k", "latitude": 48.11667, "longitude": 21.88333, "state": "Szabolcs-Szatm\u00e1r-Bereg"}, {"city": "Kazincbarcika", "latitude": 48.25, "longitude": 20.63333, "state": "Borsod-Aba\u00faj-Zempl\u00e9n"}, {"city": "Kaszaper", "latitude": 46.46667, "longitude": 20.83333, "state": "Bekes County"}, {"city": "Karcsa", "latitude": 48.3113, "longitude": 21.80537, "state": "Borsod-Aba\u00faj-Zempl\u00e9n"}, {"city": "Karcag", "latitude": 47.31667, "longitude": 20.93333, "state": "J\u00e1sz-Nagykun-Szolnok"}, {"city": "Kar\u00e1csond", "latitude": 47.72962, "longitude": 20.03076, "state": "Heves County"}, {"city": "K\u00e1ntorj\u00e1nosi", "latitude": 47.93333, "longitude": 22.15, "state": "Szabolcs-Szatm\u00e1r-Bereg"}, {"city": "K\u00e1lm\u00e1nh\u00e1za", "latitude": 47.88333, "longitude": 21.58333, "state": "Szabolcs-Szatm\u00e1r-Bereg"}, {"city": "K\u00e1ll\u00f3semj\u00e9n", "latitude": 47.86081, "longitude": 21.93929, "state": "Szabolcs-Szatm\u00e1r-Bereg"}, {"city": "K\u00e1l", "latitude": 47.73333, "longitude": 20.26667, "state": "Heves County"}, {"city": "Kaba", "latitude": 47.35, "longitude": 21.28333, "state": "Hajd\u00fa-Bihar"}, {"city": "J\u00e1szszentandr\u00e1s", "latitude": 47.58333, "longitude": 20.18333, "state": "J\u00e1sz-Nagykun-Szolnok"}, {"city": "J\u00e1szlad\u00e1ny", "latitude": 47.36667, "longitude": 20.16667, "state": "J\u00e1sz-Nagykun-Szolnok"}, {"city": "J\u00e1szkis\u00e9r", "latitude": 47.45, "longitude": 20.21667, "state": "J\u00e1sz-Nagykun-Szolnok"}, {"city": "J\u00e1szkarajen\u0151", "latitude": 47.05, "longitude": 20.06667, "state": "Pest County"}, {"city": "J\u00e1szj\u00e1k\u00f3halma", "latitude": 47.52038, "longitude": 19.99086, "state": "J\u00e1sz-Nagykun-Szolnok"}, {"city": "J\u00e1szd\u00f3zsa", "latitude": 47.5661, "longitude": 20.01534, "state": "J\u00e1sz-Nagykun-Szolnok"}, {"city": "J\u00e1szap\u00e1ti", "latitude": 47.51667, "longitude": 20.15, "state": "J\u00e1sz-Nagykun-Szolnok"}, {"city": "J\u00e1szals\u00f3szentgy\u00f6rgy", "latitude": 47.36667, "longitude": 20.1, "state": "J\u00e1sz-Nagykun-Szolnok"}, {"city": "J\u00e1rd\u00e1nh\u00e1za", "latitude": 48.15, "longitude": 20.25, "state": "Borsod-Aba\u00faj-Zempl\u00e9n"}, {"city": "J\u00e1noshida", "latitude": 47.38333, "longitude": 20.06667, "state": "J\u00e1sz-Nagykun-Szolnok"}, {"city": "Izs\u00f3falva", "latitude": 48.3, "longitude": 20.66667, "state": "Borsod-Aba\u00faj-Zempl\u00e9n"}, {"city": "Ibr\u00e1ny", "latitude": 48.12329, "longitude": 21.70953, "state": "Szabolcs-Szatm\u00e1r-Bereg"}, {"city": "Hossz\u00fap\u00e1lyi", "latitude": 47.39303, "longitude": 21.7328, "state": "Hajd\u00fa-Bihar"}, {"city": "Hortob\u00e1gy", "latitude": 47.58278, "longitude": 21.15108, "state": "Hajd\u00fa-Bihar"}, {"city": "H\u00f3dmez\u0151v\u00e1s\u00e1rhely", "latitude": 46.41667, "longitude": 20.33333, "state": "Csongr\u00e1d"}, {"city": "Hod\u00e1sz", "latitude": 47.91834, "longitude": 22.20153, "state": "Szabolcs-Szatm\u00e1r-Bereg"}, {"city": "Heves", "latitude": 47.6, "longitude": 20.28333, "state": "Heves County"}, {"city": "Hern\u00e1dn\u00e9meti", "latitude": 48.06667, "longitude": 20.98333, "state": "Borsod-Aba\u00faj-Zempl\u00e9n"}, {"city": "Hej\u0151b\u00e1ba", "latitude": 47.9, "longitude": 20.95, "state": "Borsod-Aba\u00faj-Zempl\u00e9n"}, {"city": "Hars\u00e1ny", "latitude": 47.96667, "longitude": 20.75, "state": "Borsod-Aba\u00faj-Zempl\u00e9n"}, {"city": "Halmaj", "latitude": 48.25, "longitude": 21.0, "state": "Borsod-Aba\u00faj-Zempl\u00e9n"}, {"city": "Hajd\u00faszov\u00e1t", "latitude": 47.38333, "longitude": 21.48333, "state": "Hajd\u00fa-Bihar"}, {"city": "Hajd\u00faszoboszl\u00f3", "latitude": 47.45, "longitude": 21.4, "state": "Hajd\u00fa-Bihar"}, {"city": "Hajd\u00fas\u00e1mson", "latitude": 47.6, "longitude": 21.76667, "state": "Hajd\u00fa-Bihar"}, {"city": "Hajd\u00fan\u00e1n\u00e1s", "latitude": 47.85, "longitude": 21.43333, "state": "Hajd\u00fa-Bihar"}, {"city": "Hajd\u00fahadh\u00e1z", "latitude": 47.68333, "longitude": 21.66667, "state": "Hajd\u00fa-Bihar"}, {"city": "Hajd\u00fadorog", "latitude": 47.81667, "longitude": 21.5, "state": "Hajd\u00fa-Bihar"}, {"city": "Hajd\u00fab\u00f6sz\u00f6rm\u00e9ny", "latitude": 47.66667, "longitude": 21.51667, "state": "Hajd\u00fa-Bihar"}, {"city": "Hajd\u00fabagos", "latitude": 47.39295, "longitude": 21.66551, "state": "Hajd\u00fa-Bihar"}, {"city": "Gyulah\u00e1za", "latitude": 48.13333, "longitude": 22.11667, "state": "Szabolcs-Szatm\u00e1r-Bereg"}, {"city": "Gyula", "latitude": 46.65, "longitude": 21.28333, "state": "Bekes County"}, {"city": "Gyomaendr\u0151d", "latitude": 46.93333, "longitude": 20.83333, "state": "Bekes County"}, {"city": "G\u00f6rbeh\u00e1za", "latitude": 47.83333, "longitude": 21.23333, "state": "Hajd\u00fa-Bihar"}, {"city": "G\u00f6nc", "latitude": 48.46667, "longitude": 21.28333, "state": "Borsod-Aba\u00faj-Zempl\u00e9n"}, {"city": "Gesztely", "latitude": 48.1, "longitude": 20.96667, "state": "Borsod-Aba\u00faj-Zempl\u00e9n"}, {"city": "G\u00e9g\u00e9ny", "latitude": 48.15, "longitude": 21.95, "state": "Szabolcs-Szatm\u00e1r-Bereg"}, {"city": "G\u00e1doros", "latitude": 46.66667, "longitude": 20.6, "state": "Bekes County"}, {"city": "F\u00fczesgyarmat", "latitude": 47.1, "longitude": 21.21667, "state": "Bekes County"}, {"city": "F\u00fczesabony", "latitude": 47.75, "longitude": 20.41667, "state": "Heves County"}, {"city": "F\u00f6ldes", "latitude": 47.3, "longitude": 21.36667, "state": "Hajd\u00fa-Bihar"}, {"city": "F\u00f6lde\u00e1k", "latitude": 46.31667, "longitude": 20.5, "state": "Csongr\u00e1d"}, {"city": "F\u00e9nyeslitke", "latitude": 48.27133, "longitude": 22.10009, "state": "Szabolcs-Szatm\u00e1r-Bereg"}, {"city": "Fels\u0151zsolca", "latitude": 48.1, "longitude": 20.86667, "state": "Borsod-Aba\u00faj-Zempl\u00e9n"}, {"city": "Fels\u0151t\u00e1rk\u00e1ny", "latitude": 47.96667, "longitude": 20.41667, "state": "Heves County"}, {"city": "Feh\u00e9rgyarmat", "latitude": 47.98333, "longitude": 22.51667, "state": "Szabolcs-Szatm\u00e1r-Bereg"}, {"city": "Fegyvernek", "latitude": 47.26667, "longitude": 20.53333, "state": "J\u00e1sz-Nagykun-Szolnok"}, {"city": "Farkaslyuk", "latitude": 48.18333, "longitude": 20.31667, "state": "Borsod-Aba\u00faj-Zempl\u00e9n"}, {"city": "F\u00e1bi\u00e1nsebesty\u00e9n", "latitude": 46.68333, "longitude": 20.46667, "state": "Csongr\u00e1d"}, {"city": "Erd\u0151telek", "latitude": 47.68333, "longitude": 20.31667, "state": "Heves County"}, {"city": "Encsencs", "latitude": 47.73333, "longitude": 22.11667, "state": "Szabolcs-Szatm\u00e1r-Bereg"}, {"city": "Encs", "latitude": 48.33333, "longitude": 21.13333, "state": "Borsod-Aba\u00faj-Zempl\u00e9n"}, {"city": "Em\u0151d", "latitude": 47.93333, "longitude": 20.81667, "state": "Borsod-Aba\u00faj-Zempl\u00e9n"}, {"city": "Elek", "latitude": 46.53333, "longitude": 21.25, "state": "Bekes County"}, {"city": "Egyek", "latitude": 47.63333, "longitude": 20.9, "state": "Hajd\u00fa-Bihar"}, {"city": "Egerszal\u00f3k", "latitude": 47.86667, "longitude": 20.33333, "state": "Heves County"}, {"city": "Eger", "latitude": 47.90265, "longitude": 20.37329, "state": "Heves County"}, {"city": "Edel\u00e9ny", "latitude": 48.3, "longitude": 20.73333, "state": "Borsod-Aba\u00faj-Zempl\u00e9n"}, {"city": "Ebes", "latitude": 47.46667, "longitude": 21.5, "state": "Hajd\u00fa-Bihar"}, {"city": "Domoszl\u00f3", "latitude": 47.83333, "longitude": 20.11667, "state": "Heves County"}, {"city": "Dombr\u00e1d", "latitude": 48.23333, "longitude": 21.93333, "state": "Szabolcs-Szatm\u00e1r-Bereg"}, {"city": "Dombegyh\u00e1z", "latitude": 46.33333, "longitude": 21.13333, "state": "Bekes County"}, {"city": "Domasz\u00e9k", "latitude": 46.24917, "longitude": 20.01111, "state": "Csongr\u00e1d"}, {"city": "D\u00f6ge", "latitude": 48.26246, "longitude": 22.06339, "state": "Szabolcs-Szatm\u00e1r-Bereg"}, {"city": "Doboz", "latitude": 46.73333, "longitude": 21.25, "state": "Bekes County"}, {"city": "D\u00e9vav\u00e1nya", "latitude": 47.03333, "longitude": 20.96667, "state": "Bekes County"}, {"city": "Deszk", "latitude": 46.21802, "longitude": 20.24322, "state": "Csongr\u00e1d"}, {"city": "Derecske", "latitude": 47.35, "longitude": 21.56667, "state": "Hajd\u00fa-Bihar"}, {"city": "Demecser", "latitude": 48.11648, "longitude": 21.92624, "state": "Szabolcs-Szatm\u00e1r-Bereg"}, {"city": "Debrecen", "latitude": 47.53167, "longitude": 21.62444, "state": "Hajd\u00fa-Bihar"}, {"city": "Csorv\u00e1s", "latitude": 46.63333, "longitude": 20.83333, "state": "Bekes County"}, {"city": "Csongr\u00e1d", "latitude": 46.71332, "longitude": 20.14241, "state": null}, {"city": "Cs\u00f6km\u0151", "latitude": 47.03333, "longitude": 21.3, "state": "Hajd\u00fa-Bihar"}, {"city": "Cserkesz\u0151l\u0151", "latitude": 46.8632, "longitude": 20.18701, "state": "J\u00e1sz-Nagykun-Szolnok"}, {"city": "Csenger", "latitude": 47.83582, "longitude": 22.68096, "state": "Szabolcs-Szatm\u00e1r-Bereg"}, {"city": "Csanytelek", "latitude": 46.59501, "longitude": 20.12342, "state": "Csongr\u00e1d"}, {"city": "Csan\u00e1dpalota", "latitude": 46.25, "longitude": 20.73333, "state": "Csongr\u00e1d"}, {"city": "Csan\u00e1dap\u00e1ca", "latitude": 46.55, "longitude": 20.88333, "state": "Bekes County"}, {"city": "Cig\u00e1nd", "latitude": 48.25561, "longitude": 21.89195, "state": "Borsod-Aba\u00faj-Zempl\u00e9n"}, {"city": "Cibakh\u00e1za", "latitude": 46.95976, "longitude": 20.19753, "state": "J\u00e1sz-Nagykun-Szolnok"}, {"city": "Buj", "latitude": 48.1, "longitude": 21.65, "state": "Szabolcs-Szatm\u00e1r-Bereg"}, {"city": "Bucsa", "latitude": 47.2, "longitude": 21.0, "state": "Bekes County"}, {"city": "Borsodn\u00e1dasd", "latitude": 48.11667, "longitude": 20.25, "state": "Borsod-Aba\u00faj-Zempl\u00e9n"}, {"city": "Boldva", "latitude": 48.21667, "longitude": 20.8, "state": "Borsod-Aba\u00faj-Zempl\u00e9n"}, {"city": "B\u00f6k\u00f6ny", "latitude": 47.73333, "longitude": 21.75, "state": "Szabolcs-Szatm\u00e1r-Bereg"}, {"city": "Bog\u00e1cs", "latitude": 47.9, "longitude": 20.53333, "state": "Borsod-Aba\u00faj-Zempl\u00e9n"}, {"city": "B\u0151cs", "latitude": 48.05, "longitude": 20.96667, "state": "Borsod-Aba\u00faj-Zempl\u00e9n"}, {"city": "Biharnagybajom", "latitude": 47.21667, "longitude": 21.23333, "state": "Hajd\u00fa-Bihar"}, {"city": "Biharkeresztes", "latitude": 47.13333, "longitude": 21.71667, "state": "Hajd\u00fa-Bihar"}, {"city": "Besenysz\u00f6g", "latitude": 47.3, "longitude": 20.26667, "state": "J\u00e1sz-Nagykun-Szolnok"}, {"city": "Beseny\u0151telek", "latitude": 47.7, "longitude": 20.43333, "state": "Heves County"}, {"city": "Beretty\u00f3\u00fajfalu", "latitude": 47.22362, "longitude": 21.53656, "state": "Hajd\u00fa-Bihar"}, {"city": "B\u00e9lap\u00e1tfalva", "latitude": 48.05, "longitude": 20.36667, "state": "Heves County"}, {"city": "B\u00e9k\u00e9sszentandr\u00e1s", "latitude": 46.86667, "longitude": 20.48333, "state": "Bekes County"}, {"city": "B\u00e9k\u00e9ss\u00e1mson", "latitude": 46.41667, "longitude": 20.63333, "state": "Bekes County"}, {"city": "B\u00e9k\u00e9scsaba", "latitude": 46.68333, "longitude": 21.1, "state": "Bekes County"}, {"city": "B\u00e9k\u00e9s", "latitude": 46.76667, "longitude": 21.13333, "state": "Bekes County"}, {"city": "Bekecs", "latitude": 48.15, "longitude": 21.18333, "state": "Borsod-Aba\u00faj-Zempl\u00e9n"}, {"city": "Battonya", "latitude": 46.28333, "longitude": 21.01667, "state": "Bekes County"}, {"city": "B\u00e1r\u00e1nd", "latitude": 47.3, "longitude": 21.23333, "state": "Hajd\u00fa-Bihar"}, {"city": "Balmaz\u00fajv\u00e1ros", "latitude": 47.61667, "longitude": 21.35, "state": "Hajd\u00fa-Bihar"}, {"city": "Balk\u00e1ny", "latitude": 47.77066, "longitude": 21.86314, "state": "Szabolcs-Szatm\u00e1r-Bereg"}, {"city": "Bal\u00e1stya", "latitude": 46.42277, "longitude": 20.00816, "state": "Csongr\u00e1d"}, {"city": "Baktal\u00f3r\u00e1nth\u00e1za", "latitude": 48.0, "longitude": 22.08333, "state": "Szabolcs-Szatm\u00e1r-Bereg"}, {"city": "Baks", "latitude": 46.54297, "longitude": 20.10213, "state": "Csongr\u00e1d"}, {"city": "Bagam\u00e9r", "latitude": 47.44882, "longitude": 21.989, "state": "Hajd\u00fa-Bihar"}, {"city": "Aszal\u00f3", "latitude": 48.21667, "longitude": 20.96667, "state": "Borsod-Aba\u00faj-Zempl\u00e9n"}, {"city": "Arn\u00f3t", "latitude": 48.13058, "longitude": 20.85832, "state": "Borsod-Aba\u00faj-Zempl\u00e9n"}, {"city": "Arl\u00f3", "latitude": 48.18333, "longitude": 20.26667, "state": "Borsod-Aba\u00faj-Zempl\u00e9n"}, {"city": "Aranyosap\u00e1ti", "latitude": 48.20595, "longitude": 22.25916, "state": "Szabolcs-Szatm\u00e1r-Bereg"}, {"city": "Ap\u00e1tfalva", "latitude": 46.16667, "longitude": 20.58333, "state": "Csongr\u00e1d"}, {"city": "Apagy", "latitude": 47.96431, "longitude": 21.93539, "state": "Szabolcs-Szatm\u00e1r-Bereg"}, {"city": "Andornakt\u00e1lya", "latitude": 47.85, "longitude": 20.41667, "state": "Heves County"}, {"city": "Anarcs", "latitude": 48.17642, "longitude": 22.11167, "state": "Szabolcs-Szatm\u00e1r-Bereg"}, {"city": "Als\u00f3zsolca", "latitude": 48.06982, "longitude": 20.88046, "state": "Borsod-Aba\u00faj-Zempl\u00e9n"}, {"city": "Alatty\u00e1n", "latitude": 47.42705, "longitude": 20.04219, "state": "J\u00e1sz-Nagykun-Szolnok"}, {"city": "Ajak", "latitude": 48.17664, "longitude": 22.06273, "state": "Szabolcs-Szatm\u00e1r-Bereg"}, {"city": "Abony", "latitude": 47.1899, "longitude": 20.00476, "state": "Pest County"}, {"city": "Aba\u00fajsz\u00e1nt\u00f3", "latitude": 48.28333, "longitude": 21.2, "state": "Borsod-Aba\u00faj-Zempl\u00e9n"}, {"city": "Abas\u00e1r", "latitude": 47.79705, "longitude": 20.00324, "state": "Heves County"}, {"city": "Ab\u00e1dszal\u00f3k", "latitude": 47.46667, "longitude": 20.6, "state": "J\u00e1sz-Nagykun-Szolnok"}, {"city": "Zugl\u00f3", "latitude": 47.51758, "longitude": 19.10549, "state": "Budapest"}, {"city": "Zsomb\u00f3", "latitude": 46.32566, "longitude": 19.97464, "state": "Csongr\u00e1d"}, {"city": "Zs\u00e1mbok", "latitude": 47.54381, "longitude": 19.61048, "state": "Pest County"}, {"city": "Zs\u00e1mb\u00e9k", "latitude": 47.54814, "longitude": 18.72011, "state": "Pest County"}, {"city": "Zomba", "latitude": 46.41084, "longitude": 18.56577, "state": "Tolna County"}, {"city": "Zirc", "latitude": 47.26362, "longitude": 17.87373, "state": "Veszpr\u00e9m"}, {"city": "Z\u00e1nka", "latitude": 46.87146, "longitude": 17.68473, "state": "Veszpr\u00e9m"}, {"city": "Z\u00e1moly", "latitude": 47.31667, "longitude": 18.4081, "state": "Fej\u00e9r"}, {"city": "Zam\u00e1rdi", "latitude": 46.88488, "longitude": 17.95366, "state": "Somogy County"}, {"city": "Zalaszentgr\u00f3t", "latitude": 46.94474, "longitude": 17.07925, "state": "Zala County"}, {"city": "Zalal\u00f6v\u0151", "latitude": 46.84802, "longitude": 16.5875, "state": "Zala County"}, {"city": "Zalakom\u00e1r", "latitude": 46.53795, "longitude": 17.18094, "state": "Zala County"}, {"city": "Zalaegerszeg", "latitude": 46.84, "longitude": 16.84389, "state": "Zala County"}, {"city": "Z\u00e1k\u00e1nysz\u00e9k", "latitude": 46.27453, "longitude": 19.88975, "state": "Csongr\u00e1d"}, {"city": "Zagyvasz\u00e1nt\u00f3", "latitude": 47.77703, "longitude": 19.67092, "state": "Heves County"}, {"city": "Vonyarcvashegy", "latitude": 46.75742, "longitude": 17.31172, "state": "Zala County"}, {"city": "Visegr\u00e1d", "latitude": 47.78526, "longitude": 18.9709, "state": "Pest County"}, {"city": "Vill\u00e1ny", "latitude": 45.86889, "longitude": 18.45389, "state": "Baranya"}, {"city": "Veszpr\u00e9m", "latitude": 47.09327, "longitude": 17.91149, "state": null}, {"city": "V\u00e9rtessz\u0151l\u0151s", "latitude": 47.62106, "longitude": 18.3813, "state": "Kom\u00e1rom-Esztergom"}, {"city": "Ver\u0151ce", "latitude": 47.82468, "longitude": 19.03484, "state": "Pest County"}, {"city": "Veresegyh\u00e1z", "latitude": 47.6459, "longitude": 19.29536, "state": "Pest County"}, {"city": "V\u00e9p", "latitude": 47.23041, "longitude": 16.72248, "state": "Vas County"}, {"city": "Velence", "latitude": 47.23855, "longitude": 18.65484, "state": "Fej\u00e9r"}, {"city": "Vecs\u00e9s", "latitude": 47.40705, "longitude": 19.28648, "state": "Pest County"}, {"city": "Vasv\u00e1r", "latitude": 47.04928, "longitude": 16.79954, "state": "Vas County"}, {"city": "Vask\u00fat", "latitude": 46.10782, "longitude": 18.98514, "state": "B\u00e1cs-Kiskun"}, {"city": "V\u00e1rpalota", "latitude": 47.19936, "longitude": 18.13954, "state": "Veszpr\u00e9m"}, {"city": "V\u00e1rosf\u00f6ld", "latitude": 46.81674, "longitude": 19.75668, "state": "B\u00e1cs-Kiskun"}, {"city": "V\u00e1mosgy\u00f6rk", "latitude": 47.68429, "longitude": 19.92924, "state": "Heves County"}, {"city": "Valk\u00f3", "latitude": 47.56391, "longitude": 19.51267, "state": "Pest County"}, {"city": "V\u00e1l", "latitude": 47.36264, "longitude": 18.67931, "state": "Fej\u00e9r"}, {"city": "Vajszl\u00f3", "latitude": 45.85957, "longitude": 17.98406, "state": "Baranya"}, {"city": "V\u00e1cszentl\u00e1szl\u00f3", "latitude": 47.574, "longitude": 19.53771, "state": "Pest County"}, {"city": "V\u00e1c", "latitude": 47.77591, "longitude": 19.13612, "state": "Pest County"}, {"city": "\u00dcr\u00f6m", "latitude": 47.59674, "longitude": 19.01583, "state": "Pest County"}, {"city": "\u00dark\u00fat", "latitude": 47.08505, "longitude": 17.64393, "state": "Veszpr\u00e9m"}, {"city": "\u00dari", "latitude": 47.41429, "longitude": 19.52762, "state": "Pest County"}, {"city": "\u00dcll\u0151", "latitude": 47.38771, "longitude": 19.35533, "state": "Pest County"}, {"city": "\u00dcll\u00e9s", "latitude": 46.33611, "longitude": 19.84454, "state": "Csongr\u00e1d"}, {"city": "\u00dajszilv\u00e1s", "latitude": 47.27477, "longitude": 19.92477, "state": "Pest County"}, {"city": "\u00dajharty\u00e1n", "latitude": 47.21981, "longitude": 19.38638, "state": "Pest County"}, {"city": "T\u00fcrje", "latitude": 46.98366, "longitude": 17.10742, "state": "Zala County"}, {"city": "Tura", "latitude": 47.60924, "longitude": 19.60279, "state": "Pest County"}, {"city": "T\u00f6rtel", "latitude": 47.12209, "longitude": 19.93714, "state": "Pest County"}, {"city": "T\u00f6r\u00f6kb\u00e1lint", "latitude": 47.42931, "longitude": 18.91356, "state": "Pest County"}, {"city": "Tompa", "latitude": 46.20605, "longitude": 19.5391, "state": "B\u00e1cs-Kiskun"}, {"city": "T\u00f6lt\u00e9stava", "latitude": 47.62609, "longitude": 17.73376, "state": "Gy\u0151r-Moson-Sopron"}, {"city": "Tolna", "latitude": 46.42677, "longitude": 18.78248, "state": "Tolna County"}, {"city": "T\u00f6k\u00f6l", "latitude": 47.32178, "longitude": 18.96249, "state": "Pest County"}, {"city": "Tokod", "latitude": 47.72277, "longitude": 18.65889, "state": "Kom\u00e1rom-Esztergom"}, {"city": "T\u00f3alm\u00e1s", "latitude": 47.50782, "longitude": 19.66657, "state": "Pest County"}, {"city": "Tihany", "latitude": 46.91369, "longitude": 17.88918, "state": "Veszpr\u00e9m"}, {"city": "T\u00e9t", "latitude": 47.51922, "longitude": 17.50802, "state": "Gy\u0151r-Moson-Sopron"}, {"city": "Tengelic", "latitude": 46.52878, "longitude": 18.71117, "state": "Tolna County"}, {"city": "Telki", "latitude": 47.54791, "longitude": 18.82816, "state": "Pest County"}, {"city": "T\u00e1zl\u00e1r", "latitude": 46.54824, "longitude": 19.51436, "state": "B\u00e1cs-Kiskun"}, {"city": "Tatab\u00e1nya", "latitude": 47.58494, "longitude": 18.39325, "state": "Kom\u00e1rom-Esztergom"}, {"city": "Tata", "latitude": 47.65289, "longitude": 18.31838, "state": "Kom\u00e1rom-Esztergom"}, {"city": "T\u00e1t", "latitude": 47.74148, "longitude": 18.64813, "state": "Kom\u00e1rom-Esztergom"}, {"city": "Tasz\u00e1r", "latitude": 46.37467, "longitude": 17.90594, "state": "Somogy County"}, {"city": "Tass", "latitude": 47.02095, "longitude": 19.02988, "state": "B\u00e1cs-Kiskun"}, {"city": "T\u00e1rnok", "latitude": 47.37327, "longitude": 18.84579, "state": "Pest County"}, {"city": "Tarj\u00e1n", "latitude": 47.61042, "longitude": 18.5107, "state": "Kom\u00e1rom-Esztergom"}, {"city": "Tardos", "latitude": 47.66192, "longitude": 18.44416, "state": "Kom\u00e1rom-Esztergom"}, {"city": "Tar", "latitude": 47.95371, "longitude": 19.7461, "state": "N\u00f3gr\u00e1d"}, {"city": "Tapolca", "latitude": 46.88152, "longitude": 17.44117, "state": "Veszpr\u00e9m"}, {"city": "T\u00e1pl\u00e1nszentkereszt", "latitude": 47.19496, "longitude": 16.69613, "state": "Vas County"}, {"city": "T\u00e1pi\u00f3sz\u0151l\u0151s", "latitude": 47.30248, "longitude": 19.85133, "state": "Pest County"}, {"city": "T\u00e1pi\u00f3szentm\u00e1rton", "latitude": 47.3399, "longitude": 19.74648, "state": "Pest County"}, {"city": "T\u00e1pi\u00f3szele", "latitude": 47.33609, "longitude": 19.87724, "state": "Pest County"}, {"city": "T\u00e1pi\u00f3szecs\u0151", "latitude": 47.45, "longitude": 19.60923, "state": "Pest County"}, {"city": "S\u00fclys\u00e1p", "latitude": 47.45206, "longitude": 19.53369, "state": "Pest County"}, {"city": "T\u00e1pi\u00f3s\u00e1g", "latitude": 47.402, "longitude": 19.63047, "state": "Pest County"}, {"city": "T\u00e1pi\u00f3gy\u00f6rgye", "latitude": 47.33505, "longitude": 19.95276, "state": "Pest County"}, {"city": "T\u00e1pi\u00f3bicske", "latitude": 47.36096, "longitude": 19.68609, "state": "Pest County"}, {"city": "Tam\u00e1si", "latitude": 46.63333, "longitude": 18.28333, "state": "Tolna County"}, {"city": "Taksony", "latitude": 47.32968, "longitude": 19.06695, "state": "Pest County"}, {"city": "Tahit\u00f3tfalu", "latitude": 47.75161, "longitude": 19.07886, "state": "Pest County"}, {"city": "T\u00e1borfalva", "latitude": 47.09942, "longitude": 19.47837, "state": "Pest County"}, {"city": "Tab", "latitude": 46.73135, "longitude": 18.03201, "state": "Somogy County"}, {"city": "Szurdokp\u00fcsp\u00f6ki", "latitude": 47.85923, "longitude": 19.69218, "state": "N\u00f3gr\u00e1d"}, {"city": "Szom\u00f3d", "latitude": 47.68492, "longitude": 18.34061, "state": "Kom\u00e1rom-Esztergom"}, {"city": "Szombathely", "latitude": 47.23088, "longitude": 16.62155, "state": "Vas County"}, {"city": "Sz\u0151dliget", "latitude": 47.73259, "longitude": 19.14749, "state": "Pest County"}, {"city": "Sz\u0151d", "latitude": 47.72439, "longitude": 19.17046, "state": "Pest County"}, {"city": "Szob", "latitude": 47.81921, "longitude": 18.8702, "state": "Pest County"}, {"city": "Szigetv\u00e1r", "latitude": 46.04865, "longitude": 17.80554, "state": "Baranya"}, {"city": "Sziget\u00fajfalu", "latitude": 47.23417, "longitude": 18.92746, "state": "Pest County"}, {"city": "Szigetszentmikl\u00f3s", "latitude": 47.34382, "longitude": 19.04335, "state": "Pest County"}, {"city": "Szigethalom", "latitude": 47.32228, "longitude": 19.00262, "state": "Pest County"}, {"city": "Szigetcs\u00e9p", "latitude": 47.26492, "longitude": 18.97048, "state": "Pest County"}, {"city": "Szentm\u00e1rtonk\u00e1ta", "latitude": 47.45419, "longitude": 19.70143, "state": "Pest County"}, {"city": "Szentl\u0151rinck\u00e1ta", "latitude": 47.51947, "longitude": 19.75286, "state": "Pest County"}, {"city": "Szentl\u0151rinc", "latitude": 46.04016, "longitude": 17.98719, "state": "Baranya"}, {"city": "Szentkir\u00e1lyszabadja", "latitude": 47.0576, "longitude": 17.97052, "state": "Veszpr\u00e9m"}, {"city": "Szentkir\u00e1ly", "latitude": 46.91892, "longitude": 19.91846, "state": "B\u00e1cs-Kiskun"}, {"city": "Szentgotth\u00e1rd", "latitude": 46.95261, "longitude": 16.27358, "state": "Vas County"}, {"city": "Szentg\u00e1lpuszta", "latitude": 46.37479, "longitude": 18.62601, "state": "Tolna County"}, {"city": "Szentendre", "latitude": 47.66943, "longitude": 19.07561, "state": "Pest County"}, {"city": "Szeksz\u00e1rd", "latitude": 46.35014, "longitude": 18.70905, "state": "Tolna County"}, {"city": "Sz\u00e9kesfeh\u00e9rv\u00e1r", "latitude": 47.18995, "longitude": 18.41034, "state": "Fej\u00e9r"}, {"city": "Szedres", "latitude": 46.47551, "longitude": 18.68305, "state": "Tolna County"}, {"city": "Sz\u00e9cs\u00e9ny", "latitude": 48.08057, "longitude": 19.52019, "state": "N\u00f3gr\u00e1d"}, {"city": "Sz\u00e1zhalombatta", "latitude": 47.32949, "longitude": 18.93878, "state": "Pest County"}, {"city": "Sz\u00e1szv\u00e1r", "latitude": 46.27673, "longitude": 18.37566, "state": "Baranya"}, {"city": "Sz\u00e1rliget", "latitude": 47.51581, "longitude": 18.4948, "state": "Fej\u00e9r"}, {"city": "Szany", "latitude": 47.46423, "longitude": 17.30402, "state": "Gy\u0151r-Moson-Sopron"}, {"city": "Szank", "latitude": 46.55713, "longitude": 19.66103, "state": "B\u00e1cs-Kiskun"}, {"city": "Szalkszentm\u00e1rton", "latitude": 46.97565, "longitude": 19.01178, "state": "B\u00e1cs-Kiskun"}, {"city": "Szada", "latitude": 47.63333, "longitude": 19.31667, "state": "Pest County"}, {"city": "Szabadsz\u00e1ll\u00e1s", "latitude": 46.87575, "longitude": 19.22324, "state": "B\u00e1cs-Kiskun"}, {"city": "Szabadbatty\u00e1n", "latitude": 47.11902, "longitude": 18.36823, "state": "Fej\u00e9r"}, {"city": "S\u00fctt\u0151", "latitude": 47.75887, "longitude": 18.44873, "state": "Kom\u00e1rom-Esztergom"}, {"city": "S\u00fcmeg", "latitude": 46.97703, "longitude": 17.28209, "state": "Veszpr\u00e9m"}, {"city": "S\u00fck\u00f6sd", "latitude": 46.28181, "longitude": 18.99524, "state": "B\u00e1cs-Kiskun"}, {"city": "S\u00f3sk\u00fat", "latitude": 47.40665, "longitude": 18.82247, "state": "Pest County"}, {"city": "Soroks\u00e1r", "latitude": 47.40515, "longitude": 19.12441, "state": "Budapest"}, {"city": "Sopron", "latitude": 47.68501, "longitude": 16.59049, "state": "Gy\u0151r-Moson-Sopron"}, {"city": "Soponya", "latitude": 47.01485, "longitude": 18.45343, "state": "Fej\u00e9r"}, {"city": "Somosk\u0151\u00fajfalu", "latitude": 48.16374, "longitude": 19.82303, "state": "N\u00f3gr\u00e1d"}, {"city": "Somogyv\u00e1r", "latitude": 46.5814, "longitude": 17.66289, "state": "Somogy County"}, {"city": "Solym\u00e1r", "latitude": 47.59246, "longitude": 18.93212, "state": "Pest County"}, {"city": "Soltvadkert", "latitude": 46.57889, "longitude": 19.39389, "state": "B\u00e1cs-Kiskun"}, {"city": "Solt", "latitude": 46.80101, "longitude": 19.00098, "state": "B\u00e1cs-Kiskun"}, {"city": "Si\u00f3fok", "latitude": 46.90413, "longitude": 18.058, "state": "Somogy County"}, {"city": "Si\u00f3ag\u00e1rd", "latitude": 46.39272, "longitude": 18.65336, "state": "Tolna County"}, {"city": "Simontornya", "latitude": 46.75462, "longitude": 18.5549, "state": "Tolna County"}, {"city": "Sikl\u00f3s", "latitude": 45.85499, "longitude": 18.29752, "state": "Baranya"}, {"city": "Sereg\u00e9lyes", "latitude": 47.1105, "longitude": 18.565, "state": "Fej\u00e9r"}, {"city": "Sellye", "latitude": 45.87247, "longitude": 17.84711, "state": "Baranya"}, {"city": "Segesd", "latitude": 46.34142, "longitude": 17.35132, "state": "Somogy County"}, {"city": "S\u00e1sd", "latitude": 46.2552, "longitude": 18.10776, "state": "Baranya"}, {"city": "S\u00e1rv\u00e1r", "latitude": 47.25395, "longitude": 16.93525, "state": "Vas County"}, {"city": "S\u00e1rszentmih\u00e1ly", "latitude": 47.15321, "longitude": 18.33879, "state": "Fej\u00e9r"}, {"city": "S\u00e1rosd", "latitude": 47.04273, "longitude": 18.64357, "state": "Fej\u00e9r"}, {"city": "S\u00e1rmell\u00e9k", "latitude": 46.71221, "longitude": 17.16865, "state": "Zala County"}, {"city": "S\u00e1rkereszt\u00far", "latitude": 47.0054, "longitude": 18.54391, "state": "Fej\u00e9r"}, {"city": "S\u00e1ris\u00e1p", "latitude": 47.677, "longitude": 18.67933, "state": "Kom\u00e1rom-Esztergom"}, {"city": "S\u00e1rbog\u00e1rd", "latitude": 46.88692, "longitude": 18.62041, "state": "Fej\u00e9r"}, {"city": "Salg\u00f3tarj\u00e1n", "latitude": 48.09872, "longitude": 19.80303, "state": "N\u00f3gr\u00e1d"}, {"city": "Ruzsa", "latitude": 46.28806, "longitude": 19.74714, "state": "Csongr\u00e1d"}, {"city": "R\u00f3zsaszentm\u00e1rton", "latitude": 47.782, "longitude": 19.7421, "state": "Heves County"}, {"city": "Romh\u00e1ny", "latitude": 47.92618, "longitude": 19.25723, "state": "N\u00f3gr\u00e1d"}, {"city": "Rim\u00f3c", "latitude": 48.03695, "longitude": 19.5301, "state": "N\u00f3gr\u00e1d"}, {"city": "R\u00e9vf\u00fcl\u00f6p", "latitude": 46.82573, "longitude": 17.61967, "state": "Veszpr\u00e9m"}, {"city": "R\u00e9ts\u00e1g", "latitude": 47.92816, "longitude": 19.1372, "state": "N\u00f3gr\u00e1d"}, {"city": "R\u00e9pcelak", "latitude": 47.42105, "longitude": 17.01795, "state": "Vas County"}, {"city": "R\u00e1kosliget", "latitude": 47.48951, "longitude": 19.25749, "state": "Budapest"}, {"city": "R\u00e1koskereszt\u00far", "latitude": 47.47324, "longitude": 19.26178, "state": "Pest County"}, {"city": "R\u00e1koshegy", "latitude": 47.46256, "longitude": 19.23893, "state": "Budapest"}, {"city": "R\u00e1koscsaba", "latitude": 47.48787, "longitude": 19.29807, "state": "Budapest"}, {"city": "Rajka", "latitude": 47.99643, "longitude": 17.19821, "state": "Gy\u0151r-Moson-Sopron"}, {"city": "R\u00e1ckeve", "latitude": 47.16095, "longitude": 18.94478, "state": "Pest County"}, {"city": "R\u00e1ckereszt\u00far", "latitude": 47.2736, "longitude": 18.83343, "state": "Fej\u00e9r"}, {"city": "R\u00e1calm\u00e1s", "latitude": 47.02263, "longitude": 18.94056, "state": "Fej\u00e9r"}, {"city": "R\u00e1bapatona", "latitude": 47.63224, "longitude": 17.48004, "state": "Gy\u0151r-Moson-Sopron"}, {"city": "Pusztav\u00e1m", "latitude": 47.42948, "longitude": 18.22648, "state": "Fej\u00e9r"}, {"city": "Pusztaszer", "latitude": 46.55083, "longitude": 19.98823, "state": "Csongr\u00e1d"}, {"city": "Pusztaszabolcs", "latitude": 47.13718, "longitude": 18.76704, "state": "Fej\u00e9r"}, {"city": "Pom\u00e1z", "latitude": 47.64227, "longitude": 19.02784, "state": "Pest County"}, {"city": "Polg\u00e1rdi", "latitude": 47.06099, "longitude": 18.302, "state": "Fej\u00e9r"}, {"city": "Pincehely", "latitude": 46.68095, "longitude": 18.43935, "state": "Tolna County"}, {"city": "Pilisv\u00f6r\u00f6sv\u00e1r", "latitude": 47.61386, "longitude": 18.90893, "state": "Pest County"}, {"city": "Pilisszentkereszt", "latitude": 47.69143, "longitude": 18.90503, "state": "Pest County"}, {"city": "Pilisszentiv\u00e1n", "latitude": 47.60964, "longitude": 18.8994, "state": "Pest County"}, {"city": "Pilissz\u00e1nt\u00f3", "latitude": 47.66909, "longitude": 18.88762, "state": "Pest County"}, {"city": "Pilismar\u00f3t", "latitude": 47.78464, "longitude": 18.87539, "state": "Kom\u00e1rom-Esztergom"}, {"city": "Piliscs\u00e9v", "latitude": 47.67924, "longitude": 18.81872, "state": "Kom\u00e1rom-Esztergom"}, {"city": "Piliscsaba", "latitude": 47.63417, "longitude": 18.82886, "state": "Pest County"}, {"city": "Pilisborosjen\u0151", "latitude": 47.60744, "longitude": 18.99322, "state": "Pest County"}, {"city": "Pilis", "latitude": 47.28904, "longitude": 19.54848, "state": "Pest County"}, {"city": "Pet\u0151fib\u00e1nya", "latitude": 47.7696, "longitude": 19.69988, "state": "Heves County"}, {"city": "P\u00e9tf\u00fcrd\u0151", "latitude": 47.16667, "longitude": 18.11667, "state": "Veszpr\u00e9m"}, {"city": "P\u00e9teri", "latitude": 47.39104, "longitude": 19.40981, "state": "Pest County"}, {"city": "Pesterzs\u00e9bet", "latitude": 47.43333, "longitude": 19.11667, "state": "Budapest"}, {"city": "Perk\u00e1ta", "latitude": 47.04701, "longitude": 18.78734, "state": "Fej\u00e9r"}, {"city": "Perb\u00e1l", "latitude": 47.58957, "longitude": 18.76099, "state": "Pest County"}, {"city": "P\u00e9r", "latitude": 47.61153, "longitude": 17.80632, "state": "Gy\u0151r-Moson-Sopron"}, {"city": "Pell\u00e9rd", "latitude": 46.03438, "longitude": 18.15403, "state": "Baranya"}, {"city": "P\u00e9csv\u00e1rad", "latitude": 46.16033, "longitude": 18.42321, "state": "Baranya"}, {"city": "P\u00e9cs", "latitude": 46.0725, "longitude": 18.23083, "state": "Baranya"}, {"city": "P\u00e9cel", "latitude": 47.48962, "longitude": 19.34162, "state": "Pest County"}, {"city": "P\u00e1zm\u00e1nd", "latitude": 47.28755, "longitude": 18.65356, "state": "Fej\u00e9r"}, {"city": "P\u00e1ty", "latitude": 47.51709, "longitude": 18.82851, "state": "Pest County"}, {"city": "P\u00e1szt\u00f3", "latitude": 47.92019, "longitude": 19.69829, "state": "N\u00f3gr\u00e1d"}, {"city": "Par\u00e1dsasv\u00e1r", "latitude": 47.9126, "longitude": 19.97709, "state": "Heves County"}, {"city": "P\u00e1pa", "latitude": 47.33004, "longitude": 17.4674, "state": "Veszpr\u00e9m"}, {"city": "Pannonhalma", "latitude": 47.54946, "longitude": 17.75535, "state": "Gy\u0151r-Moson-Sopron"}, {"city": "P\u00e1nd", "latitude": 47.35333, "longitude": 19.63571, "state": "Pest County"}, {"city": "Palot\u00e1s", "latitude": 47.79528, "longitude": 19.59618, "state": "N\u00f3gr\u00e1d"}, {"city": "P\u00e1lmonostora", "latitude": 46.62417, "longitude": 19.95156, "state": "B\u00e1cs-Kiskun"}, {"city": "Paks", "latitude": 46.6221, "longitude": 18.85569, "state": "Tolna County"}, {"city": "P\u00e1kozd", "latitude": 47.21369, "longitude": 18.53306, "state": "Fej\u00e9r"}, {"city": "Pacsa", "latitude": 46.71981, "longitude": 17.01401, "state": "Zala County"}, {"city": "Ozora", "latitude": 46.75133, "longitude": 18.4001, "state": "Tolna County"}, {"city": "\u00d6ttev\u00e9ny", "latitude": 47.71946, "longitude": 17.48474, "state": "Gy\u0151r-Moson-Sopron"}, {"city": "\u0150si", "latitude": 47.14722, "longitude": 18.18833, "state": "Veszpr\u00e9m"}, {"city": "Oroszl\u00e1ny", "latitude": 47.48671, "longitude": 18.31225, "state": "Kom\u00e1rom-Esztergom"}, {"city": "\u00d6rk\u00e9ny", "latitude": 47.12991, "longitude": 19.43324, "state": "Pest County"}, {"city": "Orgov\u00e1ny", "latitude": 46.75087, "longitude": 19.47259, "state": "B\u00e1cs-Kiskun"}, {"city": "\u0150rbotty\u00e1n", "latitude": 47.68711, "longitude": 19.28239, "state": "Pest County"}, {"city": "\u0150cs\u00e9ny", "latitude": 46.3137, "longitude": 18.75749, "state": "Tolna County"}, {"city": "\u00d3csa", "latitude": 47.29986, "longitude": 19.23057, "state": "Pest County"}, {"city": "Ny\u00fal", "latitude": 47.59047, "longitude": 17.68904, "state": "Gy\u0151r-Moson-Sopron"}, {"city": "Nyerges\u00fajfalu", "latitude": 47.76027, "longitude": 18.55694, "state": "Kom\u00e1rom-Esztergom"}, {"city": "Ny\u00e1rl\u0151rinc", "latitude": 46.86017, "longitude": 19.87836, "state": "B\u00e1cs-Kiskun"}, {"city": "Ny\u00e1regyh\u00e1za", "latitude": 47.26175, "longitude": 19.50146, "state": "Pest County"}, {"city": "N\u00f3gr\u00e1d", "latitude": 47.90852, "longitude": 19.04806, "state": null}, {"city": "Neszm\u00e9ly", "latitude": 47.73585, "longitude": 18.35966, "state": "Kom\u00e1rom-Esztergom"}, {"city": "N\u00e9metk\u00e9r", "latitude": 46.71637, "longitude": 18.76311, "state": "Tolna County"}, {"city": "Nemesv\u00e1mos", "latitude": 47.05514, "longitude": 17.87477, "state": "Veszpr\u00e9m"}, {"city": "Nemesn\u00e1dudvar", "latitude": 46.34051, "longitude": 19.05115, "state": "B\u00e1cs-Kiskun"}, {"city": "Nasz\u00e1ly", "latitude": 47.70329, "longitude": 18.25751, "state": "Kom\u00e1rom-Esztergom"}, {"city": "Nagytarcsa", "latitude": 47.53128, "longitude": 19.28343, "state": "Pest County"}, {"city": "Nagyr\u00e9de", "latitude": 47.76543, "longitude": 19.84819, "state": "Heves County"}, {"city": "Nagyoroszi", "latitude": 48.00503, "longitude": 19.0905, "state": "N\u00f3gr\u00e1d"}, {"city": "Nagymaros", "latitude": 47.7928, "longitude": 18.95984, "state": "Pest County"}, {"city": "Nagym\u00e1nyok", "latitude": 46.27911, "longitude": 18.45489, "state": "Tolna County"}, {"city": "Nagykov\u00e1csi", "latitude": 47.65, "longitude": 19.01667, "state": "Pest County"}, {"city": "Nagyk\u0151r\u00f6s", "latitude": 47.03419, "longitude": 19.77857, "state": "Pest County"}, {"city": "Nagyk\u00e1ta", "latitude": 47.41514, "longitude": 19.7441, "state": "Pest County"}, {"city": "Nagykanizsa", "latitude": 46.45347, "longitude": 16.99104, "state": "Zala County"}, {"city": "Nagyigm\u00e1nd", "latitude": 47.64093, "longitude": 18.0813, "state": "Kom\u00e1rom-Esztergom"}, {"city": "Nagydorog", "latitude": 46.62749, "longitude": 18.65565, "state": "Tolna County"}, {"city": "Nagycenk", "latitude": 47.60435, "longitude": 16.69732, "state": "Gy\u0151r-Moson-Sopron"}, {"city": "Nagybaracska", "latitude": 46.04248, "longitude": 18.9059, "state": "B\u00e1cs-Kiskun"}, {"city": "Nagybajom", "latitude": 46.39232, "longitude": 17.51147, "state": "Somogy County"}, {"city": "Nagyat\u00e1d", "latitude": 46.22961, "longitude": 17.35788, "state": "Somogy County"}, {"city": "Murakereszt\u00far", "latitude": 46.36422, "longitude": 16.88177, "state": "Zala County"}, {"city": "Mosonmagyar\u00f3v\u00e1r", "latitude": 47.86789, "longitude": 17.26994, "state": "Gy\u0151r-Moson-Sopron"}, {"city": "M\u00f3rahalom", "latitude": 46.21806, "longitude": 19.8851, "state": "Csongr\u00e1d"}, {"city": "M\u00f3r", "latitude": 47.37787, "longitude": 18.20353, "state": "Fej\u00e9r"}, {"city": "Monor", "latitude": 47.35133, "longitude": 19.44733, "state": "Pest County"}, {"city": "Moh\u00e1cs", "latitude": 45.9902, "longitude": 18.68621, "state": "Baranya"}, {"city": "Mogyor\u00f3d", "latitude": 47.59748, "longitude": 19.2407, "state": "Pest County"}, {"city": "Mocsa", "latitude": 47.66999, "longitude": 18.18505, "state": "Kom\u00e1rom-Esztergom"}, {"city": "Mih\u00e1lyi", "latitude": 47.51384, "longitude": 17.09507, "state": "Gy\u0151r-Moson-Sopron"}, {"city": "Mez\u0151szilas", "latitude": 46.81109, "longitude": 18.47789, "state": "Fej\u00e9r"}, {"city": "Mez\u0151falva", "latitude": 46.93184, "longitude": 18.77177, "state": "Fej\u00e9r"}, {"city": "Mende", "latitude": 47.43133, "longitude": 19.45628, "state": "Pest County"}, {"city": "M\u00e9lyk\u00fat", "latitude": 46.21509, "longitude": 19.38102, "state": "B\u00e1cs-Kiskun"}, {"city": "Mecsekn\u00e1dasd", "latitude": 46.22468, "longitude": 18.47076, "state": "Baranya"}, {"city": "M\u00e1travereb\u00e9ly", "latitude": 47.97421, "longitude": 19.78049, "state": "N\u00f3gr\u00e1d"}, {"city": "M\u00e1traterenye", "latitude": 48.03267, "longitude": 19.94762, "state": "N\u00f3gr\u00e1d"}, {"city": "M\u00e1tranov\u00e1k", "latitude": 48.03809, "longitude": 19.98257, "state": "N\u00f3gr\u00e1d"}, {"city": "Martonv\u00e1s\u00e1r", "latitude": 47.31601, "longitude": 18.79045, "state": "Fej\u00e9r"}, {"city": "Marcali", "latitude": 46.58498, "longitude": 17.41196, "state": "Somogy County"}, {"city": "M\u00e1ny", "latitude": 47.53352, "longitude": 18.65627, "state": "Fej\u00e9r"}, {"city": "M\u00e1gocs", "latitude": 46.34998, "longitude": 18.2324, "state": "Baranya"}, {"city": "Magl\u00f3d", "latitude": 47.44258, "longitude": 19.36438, "state": "Pest County"}, {"city": "Madocsa", "latitude": 46.6879, "longitude": 18.95791, "state": "Tolna County"}, {"city": "Madaras", "latitude": 46.0587, "longitude": 19.26121, "state": "B\u00e1cs-Kiskun"}, {"city": "Lovasber\u00e9ny", "latitude": 47.30997, "longitude": 18.55177, "state": "Fej\u00e9r"}, {"city": "L\u0151rinci", "latitude": 47.73295, "longitude": 19.67867, "state": "Heves County"}, {"city": "Lit\u00e9r", "latitude": 47.10104, "longitude": 18.00454, "state": "Veszpr\u00e9m"}, {"city": "Letenye", "latitude": 46.43301, "longitude": 16.72583, "state": "Zala County"}, {"city": "Leps\u00e9ny", "latitude": 46.99036, "longitude": 18.24357, "state": "Fej\u00e9r"}, {"city": "Lenti", "latitude": 46.62403, "longitude": 16.53863, "state": "Zala County"}, {"city": "Lengyelt\u00f3ti", "latitude": 46.67013, "longitude": 17.64398, "state": "Somogy County"}, {"city": "L\u00e9b\u00e9ny", "latitude": 47.73574, "longitude": 17.39076, "state": "Gy\u0151r-Moson-Sopron"}, {"city": "Le\u00e1nyfalu", "latitude": 47.71778, "longitude": 19.08585, "state": "Pest County"}, {"city": "L\u00e1nycs\u00f3k", "latitude": 46.00543, "longitude": 18.62526, "state": "Baranya"}, {"city": "Lakitelek", "latitude": 46.87601, "longitude": 19.99504, "state": "B\u00e1cs-Kiskun"}, {"city": "Lakihegy", "latitude": 47.37765, "longitude": 19.01034, "state": "Pest County"}, {"city": "Lajosmizse", "latitude": 47.02133, "longitude": 19.56171, "state": "B\u00e1cs-Kiskun"}, {"city": "Lajoskom\u00e1rom", "latitude": 46.84201, "longitude": 18.33763, "state": "Fej\u00e9r"}, {"city": "L\u00e1bod", "latitude": 46.20535, "longitude": 17.45419, "state": "Somogy County"}, {"city": "L\u00e1batlan", "latitude": 47.74735, "longitude": 18.49623, "state": "Kom\u00e1rom-Esztergom"}, {"city": "Kunszentmikl\u00f3s", "latitude": 47.02699, "longitude": 19.12575, "state": "B\u00e1cs-Kiskun"}, {"city": "Kunfeh\u00e9rt\u00f3", "latitude": 46.36091, "longitude": 19.41454, "state": "B\u00e1cs-Kiskun"}, {"city": "Koz\u00e1rmisleny", "latitude": 46.02967, "longitude": 18.2921, "state": "Baranya"}, {"city": "K\u0151szeg", "latitude": 47.38922, "longitude": 16.541, "state": "Vas County"}, {"city": "Kosd", "latitude": 47.80791, "longitude": 19.17821, "state": "Pest County"}, {"city": "K\u00f6rnye", "latitude": 47.54668, "longitude": 18.32081, "state": "Kom\u00e1rom-Esztergom"}, {"city": "K\u00f6rmend", "latitude": 47.01096, "longitude": 16.60596, "state": "Vas County"}, {"city": "K\u00f3ny", "latitude": 47.63053, "longitude": 17.35717, "state": "Gy\u0151r-Moson-Sopron"}, {"city": "Koml\u00f3", "latitude": 46.19278, "longitude": 18.26494, "state": "Baranya"}, {"city": "Kom\u00e1rom", "latitude": 47.74318, "longitude": 18.11913, "state": "Kom\u00e1rom-Esztergom"}, {"city": "K\u00f3ka", "latitude": 47.48552, "longitude": 19.57876, "state": "Pest County"}, {"city": "Kocs\u00e9r", "latitude": 47.00165, "longitude": 19.92067, "state": "Pest County"}, {"city": "Kocs", "latitude": 47.6075, "longitude": 18.21517, "state": "Kom\u00e1rom-Esztergom"}, {"city": "K\u0151b\u00e1nya", "latitude": 47.48427, "longitude": 19.13913, "state": "Budapest"}, {"city": "Kistelek", "latitude": 46.4725, "longitude": 19.97972, "state": "Csongr\u00e1d"}, {"city": "Kissz\u00e1ll\u00e1s", "latitude": 46.28009, "longitude": 19.48954, "state": "B\u00e1cs-Kiskun"}, {"city": "Kispest", "latitude": 47.4515, "longitude": 19.14017, "state": "Budapest"}, {"city": "Kisl\u00e1ng", "latitude": 46.95744, "longitude": 18.38813, "state": "Fej\u00e9r"}, {"city": "Kiskunmajsa", "latitude": 46.49028, "longitude": 19.74, "state": "B\u00e1cs-Kiskun"}, {"city": "Kiskunlach\u00e1za", "latitude": 47.18839, "longitude": 19.0093, "state": "Pest County"}, {"city": "Kiskunhalas", "latitude": 46.43402, "longitude": 19.48479, "state": "B\u00e1cs-Kiskun"}, {"city": "Kiskunf\u00e9legyh\u00e1za", "latitude": 46.71213, "longitude": 19.84458, "state": "B\u00e1cs-Kiskun"}, {"city": "Kisk\u0151r\u00f6s", "latitude": 46.62139, "longitude": 19.28528, "state": "B\u00e1cs-Kiskun"}, {"city": "Kisb\u00e9r", "latitude": 47.50289, "longitude": 18.03665, "state": "Kom\u00e1rom-Esztergom"}, {"city": "Kincsesb\u00e1nya", "latitude": 47.26444, "longitude": 18.2779, "state": "Fej\u00e9r"}, {"city": "Kimle", "latitude": 47.81726, "longitude": 17.36642, "state": "Gy\u0151r-Moson-Sopron"}, {"city": "K\u00e9thely", "latitude": 46.64605, "longitude": 17.39362, "state": "Somogy County"}, {"city": "Keszt\u00f6lc", "latitude": 47.71266, "longitude": 18.80177, "state": "Kom\u00e1rom-Esztergom"}, {"city": "Keszthely", "latitude": 46.76812, "longitude": 17.24317, "state": "Zala County"}, {"city": "Kistarcsa", "latitude": 47.54757, "longitude": 19.26247, "state": "Pest County"}, {"city": "Kerekegyh\u00e1za", "latitude": 46.93722, "longitude": 19.47806, "state": "B\u00e1cs-Kiskun"}, {"city": "Kelebia", "latitude": 46.1968, "longitude": 19.61659, "state": "B\u00e1cs-Kiskun"}, {"city": "Kecskem\u00e9t", "latitude": 46.90618, "longitude": 19.69128, "state": "B\u00e1cs-Kiskun"}, {"city": "Kecsk\u00e9d", "latitude": 47.52298, "longitude": 18.30939, "state": "Kom\u00e1rom-Esztergom"}, {"city": "Kecel", "latitude": 46.52528, "longitude": 19.25194, "state": "B\u00e1cs-Kiskun"}, {"city": "Kaz\u00e1r", "latitude": 48.04952, "longitude": 19.86143, "state": "N\u00f3gr\u00e1d"}, {"city": "Katym\u00e1r", "latitude": 46.03398, "longitude": 19.20935, "state": "B\u00e1cs-Kiskun"}, {"city": "Kartal", "latitude": 47.67133, "longitude": 19.542, "state": "Pest County"}, {"city": "Karancslapujt\u0151", "latitude": 48.15, "longitude": 19.73333, "state": "N\u00f3gr\u00e1d"}, {"city": "Karancskeszi", "latitude": 48.16353, "longitude": 19.69686, "state": "N\u00f3gr\u00e1d"}, {"city": "Kar\u00e1d", "latitude": 46.69076, "longitude": 17.84136, "state": "Somogy County"}, {"city": "Kapuv\u00e1r", "latitude": 47.59224, "longitude": 17.02886, "state": "Gy\u0151r-Moson-Sopron"}, {"city": "Kaposv\u00e1r", "latitude": 46.36667, "longitude": 17.8, "state": "Somogy County"}, {"city": "Kaposm\u00e9r\u0151", "latitude": 46.36167, "longitude": 17.704, "state": "Somogy County"}, {"city": "K\u00e1poln\u00e1sny\u00e9k", "latitude": 47.24004, "longitude": 18.67564, "state": "Fej\u00e9r"}, {"city": "K\u00e1loz", "latitude": 46.95464, "longitude": 18.48259, "state": "Fej\u00e9r"}, {"city": "Kalocsa", "latitude": 46.52981, "longitude": 18.97283, "state": "B\u00e1cs-Kiskun"}, {"city": "Kakucs", "latitude": 47.242, "longitude": 19.36467, "state": "Pest County"}, {"city": "Kadark\u00fat", "latitude": 46.23623, "longitude": 17.62014, "state": "Somogy County"}, {"city": "Jobb\u00e1gyi", "latitude": 47.83238, "longitude": 19.67762, "state": "N\u00f3gr\u00e1d"}, {"city": "J\u00e1szszentl\u00e1szl\u00f3", "latitude": 46.56685, "longitude": 19.76065, "state": "B\u00e1cs-Kiskun"}, {"city": "J\u00e1szber\u00e9ny", "latitude": 47.5, "longitude": 19.91667, "state": "J\u00e1sz-Nagykun-Szolnok"}, {"city": "J\u00e1sz\u00e1roksz\u00e1ll\u00e1s", "latitude": 47.64238, "longitude": 19.98038, "state": "J\u00e1sz-Nagykun-Szolnok"}, {"city": "J\u00e1nossomorja", "latitude": 47.78621, "longitude": 17.13603, "state": "Gy\u0151r-Moson-Sopron"}, {"city": "J\u00e1nosh\u00e1za", "latitude": 47.11937, "longitude": 17.16503, "state": "Vas County"}, {"city": "J\u00e1noshalma", "latitude": 46.29861, "longitude": 19.32583, "state": "B\u00e1cs-Kiskun"}, {"city": "F\u00fcl\u00f6pjakab", "latitude": 46.74221, "longitude": 19.72132, "state": "B\u00e1cs-Kiskun"}, {"city": "J\u00e1k", "latitude": 47.14249, "longitude": 16.58148, "state": "Vas County"}, {"city": "Izs\u00e1k", "latitude": 46.80454, "longitude": 19.35172, "state": "B\u00e1cs-Kiskun"}, {"city": "Iv\u00e1ncsa", "latitude": 47.1567, "longitude": 18.8203, "state": "Fej\u00e9r"}, {"city": "Isaszeg", "latitude": 47.53011, "longitude": 19.40205, "state": "Pest County"}, {"city": "Iregszemcse", "latitude": 46.69286, "longitude": 18.18581, "state": "Tolna County"}, {"city": "In\u00e1rcs", "latitude": 47.262, "longitude": 19.327, "state": "Pest County"}, {"city": "Iklad", "latitude": 47.66533, "longitude": 19.4361, "state": "Pest County"}, {"city": "Hossz\u00fahet\u00e9ny", "latitude": 46.16414, "longitude": 18.35077, "state": "Baranya"}, {"city": "Hort", "latitude": 47.69081, "longitude": 19.7893, "state": "Heves County"}, {"city": "H\u0151gy\u00e9sz", "latitude": 46.49697, "longitude": 18.41841, "state": "Tolna County"}, {"city": "Hidas", "latitude": 46.2568, "longitude": 18.4954, "state": "Baranya"}, {"city": "H\u00e9v\u00edzgy\u00f6rk", "latitude": 47.63333, "longitude": 19.51667, "state": "Pest County"}, {"city": "H\u00e9v\u00edz", "latitude": 46.79031, "longitude": 17.18408, "state": "Zala County"}, {"city": "Hern\u00e1d", "latitude": 47.16238, "longitude": 19.43295, "state": "Pest County"}, {"city": "Herend", "latitude": 47.13333, "longitude": 17.75, "state": "Veszpr\u00e9m"}, {"city": "Her\u00e9d", "latitude": 47.70638, "longitude": 19.63314, "state": "Heves County"}, {"city": "Hercegsz\u00e1nt\u00f3", "latitude": 45.95, "longitude": 18.93917, "state": "B\u00e1cs-Kiskun"}, {"city": "Helv\u00e9cia", "latitude": 46.83661, "longitude": 19.62251, "state": "B\u00e1cs-Kiskun"}, {"city": "Hatvan", "latitude": 47.66667, "longitude": 19.68333, "state": "Heves County"}, {"city": "Nagyvenyim", "latitude": 46.95764, "longitude": 18.86353, "state": "Fej\u00e9r"}, {"city": "Harta", "latitude": 46.69758, "longitude": 19.0311, "state": "B\u00e1cs-Kiskun"}, {"city": "Hark\u00e1ny", "latitude": 45.85002, "longitude": 18.23668, "state": "Baranya"}, {"city": "Hal\u00e1sztelek", "latitude": 47.36173, "longitude": 18.98119, "state": "Pest County"}, {"city": "Hal\u00e1szi", "latitude": 47.8893, "longitude": 17.32615, "state": "Gy\u0151r-Moson-Sopron"}, {"city": "Haj\u00f3s", "latitude": 46.39861, "longitude": 19.12056, "state": "B\u00e1cs-Kiskun"}, {"city": "Hajm\u00e1sk\u00e9r", "latitude": 47.14513, "longitude": 18.01964, "state": "Veszpr\u00e9m"}, {"city": "Gy\u0151r\u00fajbar\u00e1t", "latitude": 47.60643, "longitude": 17.64875, "state": "Gy\u0151r-Moson-Sopron"}, {"city": "Gy\u0151rszemere", "latitude": 47.55256, "longitude": 17.56356, "state": "Gy\u0151r-Moson-Sopron"}, {"city": "Gy\u0151r", "latitude": 47.68333, "longitude": 17.63512, "state": "Gy\u0151r-Moson-Sopron"}, {"city": "Gy\u00f6nk", "latitude": 46.55603, "longitude": 18.47694, "state": "Tolna County"}, {"city": "Gy\u00f6ngy\u00f6starj\u00e1n", "latitude": 47.81369, "longitude": 19.86724, "state": "Heves County"}, {"city": "Gy\u00f6ngy\u00f6ssolymos", "latitude": 47.81724, "longitude": 19.93619, "state": "Heves County"}, {"city": "Gy\u00f6ngy\u00f6spata", "latitude": 47.81505, "longitude": 19.78925, "state": "Heves County"}, {"city": "Gy\u00f6ngy\u00f6shal\u00e1sz", "latitude": 47.74161, "longitude": 19.92876, "state": "Heves County"}, {"city": "Gy\u00f6ngy\u00f6s", "latitude": 47.78257, "longitude": 19.928, "state": "Heves County"}, {"city": "Gy\u00f6mr\u0151", "latitude": 47.42733, "longitude": 19.40133, "state": "Pest County"}, {"city": "Gyenesdi\u00e1s", "latitude": 46.77058, "longitude": 17.2866, "state": "Zala County"}, {"city": "Gy\u00e1l", "latitude": 47.38449, "longitude": 19.2214, "state": "Pest County"}, {"city": "Gomba", "latitude": 47.37095, "longitude": 19.53057, "state": "Pest County"}, {"city": "G\u00f6d\u00f6ll\u0151", "latitude": 47.59657, "longitude": 19.35515, "state": "Pest County"}, {"city": "G\u00f6d", "latitude": 47.68324, "longitude": 19.13417, "state": "Pest County"}, {"city": "Gencsap\u00e1ti", "latitude": 47.28496, "longitude": 16.59575, "state": "Vas County"}, {"city": "G\u00e1rdony", "latitude": 47.20942, "longitude": 18.63607, "state": "Fej\u00e9r"}, {"city": "Gara", "latitude": 46.03194, "longitude": 19.04278, "state": "B\u00e1cs-Kiskun"}, {"city": "Galgam\u00e1csa", "latitude": 47.69562, "longitude": 19.38724, "state": "Pest County"}, {"city": "Galgah\u00e9v\u00edz", "latitude": 47.61667, "longitude": 19.56667, "state": "Pest County"}, {"city": "F\u00fcl\u00f6psz\u00e1ll\u00e1s", "latitude": 46.82075, "longitude": 19.23748, "state": "B\u00e1cs-Kiskun"}, {"city": "F\u00f3t", "latitude": 47.6177, "longitude": 19.1887, "state": "Pest County"}, {"city": "Forr\u00f3puszta", "latitude": 47.45504, "longitude": 19.66001, "state": "Pest County"}, {"city": "Forr\u00e1sk\u00fat", "latitude": 46.36528, "longitude": 19.90973, "state": "Csongr\u00e1d"}, {"city": "Fony\u00f3d", "latitude": 46.75552, "longitude": 17.57945, "state": "Somogy County"}, {"city": "Fert\u0151szentmikl\u00f3s", "latitude": 47.58996, "longitude": 16.87517, "state": "Gy\u0151r-Moson-Sopron"}, {"city": "Fert\u0151r\u00e1kos", "latitude": 47.72017, "longitude": 16.6504, "state": "Gy\u0151r-Moson-Sopron"}, {"city": "Fert\u0151d", "latitude": 47.62173, "longitude": 16.87088, "state": "Gy\u0151r-Moson-Sopron"}, {"city": "Fels\u0151tag", "latitude": 47.38927, "longitude": 19.09277, "state": "Pest County"}, {"city": "Fels\u0151szentiv\u00e1n", "latitude": 46.19713, "longitude": 19.18686, "state": "B\u00e1cs-Kiskun"}, {"city": "Fels\u0151pakony", "latitude": 47.34329, "longitude": 19.23698, "state": "Pest County"}, {"city": "Feh\u00e9rv\u00e1rcsurg\u00f3", "latitude": 47.29349, "longitude": 18.2646, "state": "Fej\u00e9r"}, {"city": "Farmos", "latitude": 47.36067, "longitude": 19.84619, "state": "Pest County"}, {"city": "Far\u00e1d", "latitude": 47.60633, "longitude": 17.20024, "state": "Gy\u0151r-Moson-Sopron"}, {"city": "Fadd", "latitude": 46.46476, "longitude": 18.81925, "state": "Tolna County"}, {"city": "Etyek", "latitude": 47.44794, "longitude": 18.75328, "state": "Fej\u00e9r"}, {"city": "Esztergom", "latitude": 47.7928, "longitude": 18.74148, "state": "Kom\u00e1rom-Esztergom"}, {"city": "Erzs\u00e9betv\u00e1ros", "latitude": 47.50207, "longitude": 19.07218, "state": "Budapest"}, {"city": "\u00c9rsekvadkert", "latitude": 47.99619, "longitude": 19.20231, "state": "N\u00f3gr\u00e1d"}, {"city": "\u00c9rsekcsan\u00e1d", "latitude": 46.25352, "longitude": 18.98457, "state": "B\u00e1cs-Kiskun"}, {"city": "Erd\u0151kertes", "latitude": 47.67261, "longitude": 19.30786, "state": "Pest County"}, {"city": "\u00c9rd", "latitude": 47.39489, "longitude": 18.91361, "state": "Pest County"}, {"city": "Ercsi", "latitude": 47.25194, "longitude": 18.89623, "state": "Fej\u00e9r"}, {"city": "Enying", "latitude": 46.93046, "longitude": 18.24202, "state": "Fej\u00e9r"}, {"city": "El\u0151sz\u00e1ll\u00e1s", "latitude": 46.83094, "longitude": 18.83481, "state": "Fej\u00e9r"}, {"city": "Ecser", "latitude": 47.44389, "longitude": 19.3245, "state": "Pest County"}, {"city": "Ecs\u00e9d", "latitude": 47.73267, "longitude": 19.76696, "state": "Heves County"}, {"city": "Dusnok", "latitude": 46.39085, "longitude": 18.96296, "state": "B\u00e1cs-Kiskun"}, {"city": "Dunavecse", "latitude": 46.91478, "longitude": 18.97127, "state": "B\u00e1cs-Kiskun"}, {"city": "Dunavars\u00e1ny", "latitude": 47.27859, "longitude": 19.06617, "state": "Pest County"}, {"city": "Duna\u00fajv\u00e1ros", "latitude": 46.96479, "longitude": 18.93974, "state": "Fej\u00e9r"}, {"city": "Dunaszentgy\u00f6rgy", "latitude": 46.52852, "longitude": 18.81771, "state": "Tolna County"}, {"city": "Dunaszekcs\u0151", "latitude": 46.0874, "longitude": 18.7587, "state": "Baranya"}, {"city": "Dunapataj", "latitude": 46.644, "longitude": 18.99632, "state": "B\u00e1cs-Kiskun"}, {"city": "Dunakeszi", "latitude": 47.63641, "longitude": 19.13864, "state": "Pest County"}, {"city": "Dunaharaszti", "latitude": 47.3545, "longitude": 19.09822, "state": "Pest County"}, {"city": "Dunaf\u00f6ldv\u00e1r", "latitude": 46.80713, "longitude": 18.92763, "state": "Tolna County"}, {"city": "Dunabogd\u00e1ny", "latitude": 47.79052, "longitude": 19.04125, "state": "Pest County"}, {"city": "Dunaalm\u00e1s", "latitude": 47.72868, "longitude": 18.32235, "state": "Kom\u00e1rom-Esztergom"}, {"city": "Dorog", "latitude": 47.72095, "longitude": 18.73641, "state": "Kom\u00e1rom-Esztergom"}, {"city": "D\u00f6ms\u00f6d", "latitude": 47.09005, "longitude": 19.01106, "state": "Pest County"}, {"city": "Domony", "latitude": 47.65552, "longitude": 19.43229, "state": "Pest County"}, {"city": "Domb\u00f3v\u00e1r", "latitude": 46.37657, "longitude": 18.13696, "state": "Tolna County"}, {"city": "D\u00f6br\u00f6k\u00f6z", "latitude": 46.42178, "longitude": 18.23953, "state": "Tolna County"}, {"city": "Di\u00f3sjen\u0151", "latitude": 47.93968, "longitude": 19.04317, "state": "N\u00f3gr\u00e1d"}, {"city": "Di\u00f3sd", "latitude": 47.4095, "longitude": 18.94898, "state": "Pest County"}, {"city": "Devecser", "latitude": 47.10316, "longitude": 17.43802, "state": "Veszpr\u00e9m"}, {"city": "D\u00e9legyh\u00e1za", "latitude": 47.24135, "longitude": 19.09019, "state": "Pest County"}, {"city": "D\u00e9g", "latitude": 46.86807, "longitude": 18.45042, "state": "Fej\u00e9r"}, {"city": "Decs", "latitude": 46.28428, "longitude": 18.76, "state": "Tolna County"}, {"city": "D\u00e1vod", "latitude": 45.995, "longitude": 18.91722, "state": "B\u00e1cs-Kiskun"}, {"city": "D\u00e1ny", "latitude": 47.52, "longitude": 19.544, "state": "Pest County"}, {"city": "D\u00e1nszentmikl\u00f3s", "latitude": 47.21486, "longitude": 19.54695, "state": "Pest County"}, {"city": "Dabas", "latitude": 47.18594, "longitude": 19.31091, "state": "Pest County"}, {"city": "Csurg\u00f3", "latitude": 46.25314, "longitude": 17.1006, "state": "Somogy County"}, {"city": "Csorna", "latitude": 47.61155, "longitude": 17.25012, "state": "Gy\u0151r-Moson-Sopron"}, {"city": "Csopak", "latitude": 46.97709, "longitude": 17.91819, "state": "Veszpr\u00e9m"}, {"city": "Cs\u00f6m\u00f6r", "latitude": 47.55, "longitude": 19.23333, "state": "Pest County"}, {"city": "Csolnok", "latitude": 47.69116, "longitude": 18.71611, "state": "Kom\u00e1rom-Esztergom"}, {"city": "Csokonyavisonta", "latitude": 46.07705, "longitude": 17.44372, "state": "Somogy County"}, {"city": "Csob\u00e1nka", "latitude": 47.64637, "longitude": 18.96189, "state": "Pest County"}, {"city": "Cset\u00e9ny", "latitude": 47.31806, "longitude": 17.99208, "state": "Veszpr\u00e9m"}, {"city": "Cserszegtomaj", "latitude": 46.80165, "longitude": 17.22096, "state": "Zala County"}, {"city": "Csepreg", "latitude": 47.40098, "longitude": 16.70881, "state": "Vas County"}, {"city": "Cseng\u0151d", "latitude": 46.71543, "longitude": 19.26802, "state": "B\u00e1cs-Kiskun"}, {"city": "Csengele", "latitude": 46.54234, "longitude": 19.86358, "state": "Csongr\u00e1d"}, {"city": "Csem\u0151", "latitude": 47.11799, "longitude": 19.69092, "state": "Pest County"}, {"city": "Cs\u00e1voly", "latitude": 46.18917, "longitude": 19.14667, "state": "B\u00e1cs-Kiskun"}, {"city": "Cs\u00e1sz\u00e1rt\u00f6lt\u00e9s", "latitude": 46.42194, "longitude": 19.18361, "state": "B\u00e1cs-Kiskun"}, {"city": "Cs\u00e1sz\u00e1r", "latitude": 47.498, "longitude": 18.14272, "state": "Kom\u00e1rom-Esztergom"}, {"city": "Cs\u00e1ny", "latitude": 47.64829, "longitude": 19.82972, "state": "Heves County"}, {"city": "Cs\u00e1kv\u00e1r", "latitude": 47.39184, "longitude": 18.46501, "state": "Fej\u00e9r"}, {"city": "Csabrendek", "latitude": 47.01356, "longitude": 17.29108, "state": "Veszpr\u00e9m"}, {"city": "Celld\u00f6m\u00f6lk", "latitude": 47.25713, "longitude": 17.15027, "state": "Vas County"}, {"city": "Cegl\u00e9dbercel", "latitude": 47.2237, "longitude": 19.66828, "state": "Pest County"}, {"city": "Cegl\u00e9d", "latitude": 47.17266, "longitude": 19.79952, "state": "Pest County"}, {"city": "Cece", "latitude": 46.77056, "longitude": 18.62826, "state": "Fej\u00e9r"}, {"city": "B\u00fckk\u00f6sd", "latitude": 46.10751, "longitude": 17.9882, "state": "Baranya"}, {"city": "B\u00fck", "latitude": 47.38486, "longitude": 16.75065, "state": "Vas County"}, {"city": "Buj\u00e1k", "latitude": 47.88352, "longitude": 19.54381, "state": "N\u00f3gr\u00e1d"}, {"city": "Bugyi", "latitude": 47.22748, "longitude": 19.14664, "state": "Pest County"}, {"city": "Bugac", "latitude": 46.68704, "longitude": 19.68074, "state": "B\u00e1cs-Kiskun"}, {"city": "Budapest", "latitude": 47.49835, "longitude": 19.04045, "state": null}, {"city": "Buda\u00f6rs", "latitude": 47.46181, "longitude": 18.95845, "state": "Pest County"}, {"city": "Budakeszi", "latitude": 47.51083, "longitude": 18.92717, "state": "Pest County"}, {"city": "Budakal\u00e1sz", "latitude": 47.61667, "longitude": 19.05, "state": "Pest County"}, {"city": "Asz\u00f3d", "latitude": 47.65174, "longitude": 19.4785, "state": "Pest County"}, {"city": "B\u0151s\u00e1rk\u00e1ny", "latitude": 47.68821, "longitude": 17.25, "state": "Gy\u0151r-Moson-Sopron"}, {"city": "Bord\u00e1ny", "latitude": 46.31843, "longitude": 19.92306, "state": "Csongr\u00e1d"}, {"city": "Bonyh\u00e1d", "latitude": 46.29921, "longitude": 18.53024, "state": "Tolna County"}, {"city": "B\u0151ny", "latitude": 47.65, "longitude": 17.86977, "state": "Gy\u0151r-Moson-Sopron"}, {"city": "B\u00f3ly", "latitude": 45.96722, "longitude": 18.51833, "state": "Baranya"}, {"city": "Boldog", "latitude": 47.60285, "longitude": 19.68839, "state": "Heves County"}, {"city": "B\u00f6lcske", "latitude": 46.74102, "longitude": 18.96736, "state": "Tolna County"}, {"city": "Bokod", "latitude": 47.49186, "longitude": 18.24743, "state": "Kom\u00e1rom-Esztergom"}, {"city": "B\u00f6h\u00f6nye", "latitude": 46.41345, "longitude": 17.38037, "state": "Somogy County"}, {"city": "Bogyiszl\u00f3", "latitude": 46.38638, "longitude": 18.82962, "state": "Tolna County"}, {"city": "Bodajk", "latitude": 47.32352, "longitude": 18.23312, "state": "Fej\u00e9r"}, {"city": "Bicske", "latitude": 47.48419, "longitude": 18.64404, "state": "Fej\u00e9r"}, {"city": "Biatorb\u00e1gy", "latitude": 47.4706, "longitude": 18.81892, "state": "Pest County"}, {"city": "Berzence", "latitude": 46.20907, "longitude": 17.1481, "state": "Somogy County"}, {"city": "Berhida", "latitude": 47.11131, "longitude": 18.12948, "state": "Veszpr\u00e9m"}, {"city": "Beremend", "latitude": 45.79108, "longitude": 18.43263, "state": "Baranya"}, {"city": "Bercel", "latitude": 47.87057, "longitude": 19.40715, "state": "N\u00f3gr\u00e1d"}, {"city": "Beled", "latitude": 47.46594, "longitude": 17.09294, "state": "Gy\u0151r-Moson-Sopron"}, {"city": "Becsehely", "latitude": 46.44755, "longitude": 16.7771, "state": "Zala County"}, {"city": "B\u00e1tya", "latitude": 46.488, "longitude": 18.95419, "state": "B\u00e1cs-Kiskun"}, {"city": "B\u00e1tonyterenye", "latitude": 47.96962, "longitude": 19.84076, "state": "N\u00f3gr\u00e1d"}, {"city": "B\u00e1tasz\u00e9k", "latitude": 46.19373, "longitude": 18.72307, "state": "Tolna County"}, {"city": "B\u00e1ta", "latitude": 46.12864, "longitude": 18.77027, "state": "Tolna County"}, {"city": "Barcs", "latitude": 45.96, "longitude": 17.45861, "state": "Somogy County"}, {"city": "Baracska", "latitude": 47.28225, "longitude": 18.75853, "state": "Fej\u00e9r"}, {"city": "Baracs", "latitude": 46.88202, "longitude": 18.90658, "state": "Fej\u00e9r"}, {"city": "Ball\u00f3sz\u00f6g", "latitude": 46.86216, "longitude": 19.57092, "state": "B\u00e1cs-Kiskun"}, {"city": "Balatonsz\u00e1rsz\u00f3", "latitude": 46.82946, "longitude": 17.82426, "state": "Somogy County"}, {"city": "Balatonszabadi", "latitude": 46.89397, "longitude": 18.13737, "state": "Somogy County"}, {"city": "Balatonlelle", "latitude": 46.78318, "longitude": 17.69498, "state": "Somogy County"}, {"city": "Balatonkenese", "latitude": 47.04019, "longitude": 18.10671, "state": "Veszpr\u00e9m"}, {"city": "Balatonf\u00fcred", "latitude": 46.96188, "longitude": 17.87187, "state": "Veszpr\u00e9m"}, {"city": "Balatonf\u00f6ldv\u00e1r", "latitude": 46.85255, "longitude": 17.88123, "state": "Somogy County"}, {"city": "Balatonfenyves", "latitude": 46.71542, "longitude": 17.49223, "state": "Somogy County"}, {"city": "Balatonbogl\u00e1r", "latitude": 46.77525, "longitude": 17.64415, "state": "Somogy County"}, {"city": "Balatonber\u00e9ny", "latitude": 46.70701, "longitude": 17.32013, "state": "Somogy County"}, {"city": "Balatonalm\u00e1di", "latitude": 47.03526, "longitude": 18.02076, "state": "Veszpr\u00e9m"}, {"city": "Balassagyarmat", "latitude": 48.07296, "longitude": 19.29614, "state": "N\u00f3gr\u00e1d"}, {"city": "Bakonyszentl\u00e1szl\u00f3", "latitude": 47.38901, "longitude": 17.80321, "state": "Gy\u0151r-Moson-Sopron"}, {"city": "Bakonycsernye", "latitude": 47.32395, "longitude": 18.07509, "state": "Fej\u00e9r"}, {"city": "Bajna", "latitude": 47.654, "longitude": 18.5972, "state": "Kom\u00e1rom-Esztergom"}, {"city": "Baja", "latitude": 46.18299, "longitude": 18.95307, "state": "B\u00e1cs-Kiskun"}, {"city": "Baj", "latitude": 47.64593, "longitude": 18.3641, "state": "Kom\u00e1rom-Esztergom"}, {"city": "Bag", "latitude": 47.63333, "longitude": 19.48333, "state": "Pest County"}, {"city": "Badacsonytomaj", "latitude": 46.80711, "longitude": 17.51385, "state": "Veszpr\u00e9m"}, {"city": "B\u00e1csbokod", "latitude": 46.125, "longitude": 19.15621, "state": "B\u00e1cs-Kiskun"}, {"city": "B\u00e1csalm\u00e1s", "latitude": 46.12648, "longitude": 19.3326, "state": "B\u00e1cs-Kiskun"}, {"city": "B\u00e1bolna", "latitude": 47.64361, "longitude": 17.97798, "state": "Kom\u00e1rom-Esztergom"}, {"city": "Bab\u00f3csa", "latitude": 46.04155, "longitude": 17.34332, "state": "Somogy County"}, {"city": "\u00c1sv\u00e1nyr\u00e1r\u00f3", "latitude": 47.82733, "longitude": 17.49418, "state": "Gy\u0151r-Moson-Sopron"}, {"city": "\u00c1sotthalom", "latitude": 46.19875, "longitude": 19.78334, "state": "Csongr\u00e1d"}, {"city": "Apostag", "latitude": 46.88208, "longitude": 18.9621, "state": "B\u00e1cs-Kiskun"}, {"city": "Apc", "latitude": 47.79419, "longitude": 19.69429, "state": "Heves County"}, {"city": "Angyalf\u00f6ld", "latitude": 47.54765, "longitude": 19.07973, "state": "Budapest"}, {"city": "Als\u00f3n\u00e9medi", "latitude": 47.31524, "longitude": 19.15843, "state": "Pest County"}, {"city": "Alm\u00e1sf\u00fczit\u0151", "latitude": 47.72752, "longitude": 18.26153, "state": "Kom\u00e1rom-Esztergom"}, {"city": "Albertirsa", "latitude": 47.24315, "longitude": 19.61686, "state": "Pest County"}, {"city": "Alap", "latitude": 46.79915, "longitude": 18.68938, "state": "Fej\u00e9r"}, {"city": "Akaszt\u00f3", "latitude": 46.69167, "longitude": 19.20423, "state": "B\u00e1cs-Kiskun"}, {"city": "Ajka", "latitude": 47.10196, "longitude": 17.55892, "state": "Veszpr\u00e9m"}, {"city": "\u00c1gfalva", "latitude": 47.68991, "longitude": 16.51658, "state": "Gy\u0151r-Moson-Sopron"}, {"city": "\u00c1gasegyh\u00e1za", "latitude": 46.84025, "longitude": 19.45208, "state": "B\u00e1cs-Kiskun"}, {"city": "Adony", "latitude": 47.1194, "longitude": 18.86493, "state": "Fej\u00e9r"}, {"city": "\u00c1d\u00e1nd", "latitude": 46.85931, "longitude": 18.16442, "state": "Somogy County"}, {"city": "Ad\u00e1cs", "latitude": 47.6921, "longitude": 19.97696, "state": "Heves County"}, {"city": "Acsa", "latitude": 47.79425, "longitude": 19.38795, "state": "Pest County"}, {"city": "\u00c1cs", "latitude": 47.71231, "longitude": 18.01131, "state": "Kom\u00e1rom-Esztergom"}, {"city": "Abda", "latitude": 47.69464, "longitude": 17.54489, "state": "Gy\u0151r-Moson-Sopron"}, {"city": "Aba", "latitude": 47.02907, "longitude": 18.52172, "state": "Fej\u00e9r"}, {"city": "Tiszaalp\u00e1r", "latitude": 46.81279, "longitude": 19.99841, "state": "B\u00e1cs-Kiskun"}, {"city": "Budapest XII. ker\u00fclet", "latitude": 47.49192, "longitude": 19.01493, "state": "Budapest"}, {"city": "Budapest XI. ker\u00fclet", "latitude": 47.47603, "longitude": 19.03605, "state": "Budapest"}, {"city": "Budapest VIII. ker\u00fclet", "latitude": 47.48919, "longitude": 19.07012, "state": "Budapest"}, {"city": "Budapest VI. ker\u00fclet", "latitude": 47.50369, "longitude": 19.06583, "state": "Budapest"}, {"city": "Budapest XIII. ker\u00fclet", "latitude": 47.52978, "longitude": 19.08068, "state": "Budapest"}, {"city": "Budapest IV. ker\u00fclet", "latitude": 47.56182, "longitude": 19.08909, "state": "Budapest"}, {"city": "Budapest XV. ker\u00fclet", "latitude": 47.56263, "longitude": 19.11681, "state": "Budapest"}, {"city": "Budapest XVI. ker\u00fclet", "latitude": 47.51482, "longitude": 19.17028, "state": "Budapest"}, {"city": "Budapest XIX. ker\u00fclet", "latitude": 47.45293, "longitude": 19.14943, "state": "Budapest"}, {"city": "Budapest XVIII. ker\u00fclet", "latitude": 47.44417, "longitude": 19.17595, "state": "Budapest"}, {"city": "Budapest XXIII. ker\u00fclet", "latitude": 47.39788, "longitude": 19.11492, "state": "Budapest"}, {"city": "Budapest XXII. ker\u00fclet", "latitude": 47.42698, "longitude": 19.04016, "state": "Budapest"}, {"city": "Budapest XXI. ker\u00fclet", "latitude": 47.42215, "longitude": 19.06641, "state": "Budapest"}, {"city": "Budapest XX. ker\u00fclet", "latitude": 47.43674, "longitude": 19.10093, "state": "Budapest"}, {"city": "Budapest XVII. ker\u00fclet", "latitude": 47.47997, "longitude": 19.25388, "state": "Budapest"}, {"city": "Budapest III. ker\u00fclet", "latitude": 47.54157, "longitude": 19.04501, "state": "Budapest"}, {"city": "Budapest II. ker\u00fclet", "latitude": 47.51984, "longitude": 19.02218, "state": "Budapest"}, {"city": "Budapest I. ker\u00fclet", "latitude": 47.49705, "longitude": 19.03961, "state": "Budapest"}, {"city": "Algy\u0151", "latitude": 46.33472, "longitude": 20.20849, "state": "Csongr\u00e1d"}, {"city": "Szelev\u00e9ny", "latitude": 46.80259, "longitude": 20.20283, "state": "J\u00e1sz-Nagykun-Szolnok"}, {"city": "Kismaros", "latitude": 47.83742, "longitude": 19.00463, "state": "Pest County"}, {"city": "H\u00e9halom", "latitude": 47.78017, "longitude": 19.58519, "state": "N\u00f3gr\u00e1d"}, {"city": "Mosonszentmikl\u00f3s", "latitude": 47.72778, "longitude": 17.42784, "state": "Gy\u0151r-Moson-Sopron"}, {"city": "Kerepes", "latitude": 47.56008, "longitude": 19.28289, "state": "Pest County"}, {"city": "Tiszasz\u0151l\u0151s", "latitude": 47.55707, "longitude": 20.71949, "state": "J\u00e1sz-Nagykun-Szolnok"}, {"city": "Lip\u00f3tv\u00e1ros", "latitude": 47.50243, "longitude": 19.0493, "state": "Budapest"}, {"city": "J\u00f3zsefv\u00e1ros", "latitude": 47.48938, "longitude": 19.07292, "state": "Budapest"}, {"city": "Csepel-Kir\u00e1lyerd\u0151", "latitude": 47.40253, "longitude": 19.09182, "state": "Budapest"}, {"city": "Soroks\u00e1r-Ujtelep", "latitude": 47.41557, "longitude": 19.13197, "state": "Budapest"}, {"city": "Csepel-Belv\u00e1ros", "latitude": 47.43031, "longitude": 19.06842, "state": "Budapest"}, {"city": "Csepel-Kertv\u00e1ros", "latitude": 47.42015, "longitude": 19.08463, "state": "Budapest"}, {"city": "Csepel-Szab\u00f3telep", "latitude": 47.43497, "longitude": 19.07638, "state": "Budapest"}, {"city": "Csepel-Kir\u00e1lymajor", "latitude": 47.42501, "longitude": 19.08867, "state": "Budapest"}, {"city": "Csepel-Csillagtelep", "latitude": 47.40918, "longitude": 19.05944, "state": "Budapest"}, {"city": "Csepel-Erd\u0151sor", "latitude": 47.40749, "longitude": 19.07583, "state": "Budapest"}, {"city": "Csepel-H\u00e1ros", "latitude": 47.39478, "longitude": 19.05438, "state": "Budapest"}, {"city": "Pacsirtatelep", "latitude": 47.42189, "longitude": 19.12199, "state": "Budapest"}, {"city": "Kossuthfalva", "latitude": 47.43937, "longitude": 19.12304, "state": "Budapest"}, {"city": "Gubacsipuszta", "latitude": 47.43117, "longitude": 19.14119, "state": "Budapest"}, {"city": "Gubacs", "latitude": 47.43105, "longitude": 19.0945, "state": "Budapest"}, {"city": "Wekerletelep", "latitude": 47.45561, "longitude": 19.12609, "state": "Budapest"}, {"city": "K\u00fcls\u0151-Ferencv\u00e1ros", "latitude": 47.45697, "longitude": 19.09022, "state": "Budapest"}, {"city": "K\u00f6z\u00e9ps\u0151-Ferencv\u00e1ros", "latitude": 47.47305, "longitude": 19.07971, "state": "Budapest"}, {"city": "Bels\u0151-Ferencv\u00e1ros", "latitude": 47.48528, "longitude": 19.0647, "state": "Budapest"}, {"city": "J\u00f3zsef Attila-lak\u00f3telep", "latitude": 47.46413, "longitude": 19.11681, "state": "Budapest"}, {"city": "Gubacsid\u0171l\u0151", "latitude": 47.44904, "longitude": 19.09419, "state": "Budapest"}, {"city": "Alm\u00e1skert", "latitude": 47.41077, "longitude": 19.20896, "state": "Budapest"}, {"city": "Bels\u0151major", "latitude": 47.39582, "longitude": 19.19291, "state": "Budapest"}, {"city": "B\u00e9latelep", "latitude": 47.45795, "longitude": 19.1984, "state": "Budapest"}, {"city": "B\u00f3kaytelep", "latitude": 47.43806, "longitude": 19.18106, "state": "Budapest"}, {"city": "Erd\u0151skert", "latitude": 47.39867, "longitude": 19.20535, "state": "Budapest"}, {"city": "Erzs\u00e9bettelep", "latitude": 47.45977, "longitude": 19.18296, "state": "Budapest"}, {"city": "Ganzkertv\u00e1ros", "latitude": 47.41855, "longitude": 19.21519, "state": "Budapest"}, {"city": "Ganztelep", "latitude": 47.4301, "longitude": 19.22669, "state": "Budapest"}, {"city": "Gloriett-telep", "latitude": 47.43182, "longitude": 19.19292, "state": "Budapest"}, {"city": "Havanna-lak\u00f3telep", "latitude": 47.44031, "longitude": 19.16695, "state": "Budapest"}, {"city": "Kossuth Ferenc-telep", "latitude": 47.40647, "longitude": 19.17624, "state": "Budapest"}, {"city": "Krepuska G\u00e9za-telep", "latitude": 47.41208, "longitude": 19.20027, "state": "Budapest"}, {"city": "Lakatos-lak\u00f3telep", "latitude": 47.45433, "longitude": 19.17435, "state": "Budapest"}, {"city": "Lipt\u00e1ktelep", "latitude": 47.44646, "longitude": 19.1604, "state": "Budapest"}, {"city": "L\u00f3nyaytelep", "latitude": 47.45036, "longitude": 19.18283, "state": "Budapest"}, {"city": "Mikl\u00f3stelep", "latitude": 47.44666, "longitude": 19.19539, "state": "Budapest"}, {"city": "Rendessytelep", "latitude": 47.4528, "longitude": 19.16604, "state": "Budapest"}, {"city": "Szemeretelep", "latitude": 47.43879, "longitude": 19.2131, "state": "Budapest"}, {"city": "Szent Imre-kertv\u00e1ros", "latitude": 47.4297, "longitude": 19.20651, "state": "Budapest"}, {"city": "Szent L\u0151rinc-lak\u00f3telep", "latitude": 47.43446, "longitude": 19.17181, "state": "Budapest"}, {"city": "\u00dajp\u00e9teritelep", "latitude": 47.40677, "longitude": 19.19046, "state": "Budapest"}, {"city": "Akad\u00e9mia\u00fajtelep", "latitude": 47.48317, "longitude": 19.22208, "state": "Budapest"}, {"city": "Mad\u00e1rdomb", "latitude": 47.47692, "longitude": 19.23182, "state": "Budapest"}, {"city": "R\u00e1koscsaba-\u00dajtelep", "latitude": 47.50116, "longitude": 19.28589, "state": "Pest County"}, {"city": "R\u00e1koskert", "latitude": 47.4645, "longitude": 19.29767, "state": "Budapest"}, {"city": "R\u00e9giakad\u00e9miatelep", "latitude": 47.48983, "longitude": 19.24725, "state": "Budapest"}, {"city": "Fels\u0151r\u00e1kos", "latitude": 47.496, "longitude": 19.16032, "state": "Budapest"}, {"city": "Gy\u00e1rd\u0171l\u0151", "latitude": 47.47591, "longitude": 19.12041, "state": "Budapest"}, {"city": "Kereszt\u00farid\u0171l\u0151", "latitude": 47.47296, "longitude": 19.19141, "state": "Budapest"}, {"city": "K\u0151b\u00e1nya-Kertv\u00e1ros", "latitude": 47.48343, "longitude": 19.20222, "state": "Budapest"}, {"city": "Laposd\u0171l\u0151", "latitude": 47.49248, "longitude": 19.11488, "state": "Budapest"}, {"city": "Ligettelek", "latitude": 47.49308, "longitude": 19.1285, "state": "Budapest"}, {"city": "N\u00e9pliget", "latitude": 47.4804, "longitude": 19.10891, "state": "Budapest"}, {"city": "T\u00e9glagy\u00e1rd\u0171l\u0151", "latitude": 47.48171, "longitude": 19.1682, "state": "Budapest"}, {"city": "\u00d3hegy", "latitude": 47.47803, "longitude": 19.1479, "state": "Budapest"}, {"city": "\u00dajhegy", "latitude": 47.46719, "longitude": 19.16635, "state": "Budapest"}, {"city": "Corvinnegyed", "latitude": 47.49021, "longitude": 19.071, "state": "Budapest"}, {"city": "Csarnoknegyed", "latitude": 47.49397, "longitude": 19.07366, "state": "Budapest"}, {"city": "Ganznegyed", "latitude": 47.4879, "longitude": 19.10037, "state": "Budapest"}, {"city": "Losoncinegyed", "latitude": 47.48441, "longitude": 19.08172, "state": "Budapest"}, {"city": "Magdolnanegyed", "latitude": 47.49298, "longitude": 19.08323, "state": "Budapest"}, {"city": "N\u00e9psz\u00ednh\u00e1znegyed", "latitude": 47.4963, "longitude": 19.0789, "state": "Budapest"}, {"city": "Orczynegyed", "latitude": 47.48541, "longitude": 19.08847, "state": "Budapest"}, {"city": "Palotanegyed", "latitude": 47.49269, "longitude": 19.06522, "state": "Budapest"}, {"city": "Sz\u00e1zadosnegyed", "latitude": 47.49319, "longitude": 19.10676, "state": "Budapest"}, {"city": "Tisztvisel\u0151telep", "latitude": 47.48077, "longitude": 19.0966, "state": "Budapest"}, {"city": "Istv\u00e1nmez\u0151", "latitude": 47.5047, "longitude": 19.09554, "state": "Budapest"}]