[{"city": "Vr\u00e5", "latitude": 57.3537, "longitude": 9.94176, "state": "North Denmark"}, {"city": "Vordingborg", "latitude": 55.00801, "longitude": 11.91057, "state": "Zealand"}, {"city": "Vorbasse", "latitude": 55.62992, "longitude": 9.08239, "state": "South Denmark"}, {"city": "Vojens", "latitude": 55.24639, "longitude": 9.30603, "state": "South Denmark"}, {"city": "Vodskov", "latitude": 57.10854, "longitude": 10.02215, "state": "North Denmark"}, {"city": "Vissenbjerg", "latitude": 55.38482, "longitude": 10.13784, "state": "South Denmark"}, {"city": "Virklund", "latitude": 56.13218, "longitude": 9.55582, "state": "Central Jutland"}, {"city": "Vipper\u00f8d", "latitude": 55.66768, "longitude": 11.73967, "state": "Zealand"}, {"city": "Vindinge", "latitude": 55.62298, "longitude": 12.1387, "state": "Zealand"}, {"city": "Vinderup", "latitude": 56.48176, "longitude": 8.77991, "state": "Central Jutland"}, {"city": "Vindeby", "latitude": 55.04489, "longitude": 10.61309, "state": "South Denmark"}, {"city": "Vildbjerg", "latitude": 56.2, "longitude": 8.76667, "state": "Central Jutland"}, {"city": "Vigerslev", "latitude": 55.66288, "longitude": 12.48357, "state": "Capital Region"}, {"city": "Videb\u00e6k", "latitude": 56.0876, "longitude": 8.62852, "state": "Central Jutland"}, {"city": "Viby", "latitude": 55.54872, "longitude": 12.02391, "state": "Zealand"}, {"city": "Viborg", "latitude": 56.45319, "longitude": 9.40201, "state": "Central Jutland"}, {"city": "V\u00e6ggerl\u00f8se", "latitude": 54.71242, "longitude": 11.92545, "state": "Zealand"}, {"city": "Vester-Skerninge", "latitude": 55.07322, "longitude": 10.45536, "state": "South Denmark"}, {"city": "Vester Hassing", "latitude": 57.06767, "longitude": 10.12558, "state": "North Denmark"}, {"city": "Vestbjerg", "latitude": 57.13166, "longitude": 9.95942, "state": "North Denmark"}, {"city": "Vemb", "latitude": 56.3423, "longitude": 8.33749, "state": "Central Jutland"}, {"city": "Veks\u00f8", "latitude": 55.75473, "longitude": 12.23837, "state": "Capital Region"}, {"city": "Vejle", "latitude": 55.70927, "longitude": 9.5357, "state": "South Denmark"}, {"city": "Vejen", "latitude": 55.48117, "longitude": 9.13795, "state": "South Denmark"}, {"city": "Varde", "latitude": 55.62112, "longitude": 8.48069, "state": "South Denmark"}, {"city": "Vanl\u00f8se", "latitude": 55.68361, "longitude": 12.48713, "state": "Capital Region"}, {"city": "Vamdrup", "latitude": 55.42764, "longitude": 9.28435, "state": "South Denmark"}, {"city": "Vallensb\u00e6k", "latitude": 55.62199, "longitude": 12.38511, "state": "Capital Region"}, {"city": "Valby", "latitude": 55.66613, "longitude": 12.51388, "state": "Capital Region"}, {"city": "Vadum", "latitude": 57.1179, "longitude": 9.857, "state": "North Denmark"}, {"city": "Undl\u00f8se", "latitude": 55.60451, "longitude": 11.58826, "state": "Zealand"}, {"city": "Ulstrup", "latitude": 56.38994, "longitude": 9.79354, "state": "Central Jutland"}, {"city": "Ullerslev", "latitude": 55.36172, "longitude": 10.6519, "state": "South Denmark"}, {"city": "Ulfborg", "latitude": 56.26725, "longitude": 8.32167, "state": "Central Jutland"}, {"city": "Tylstrup", "latitude": 57.1947, "longitude": 9.95308, "state": "North Denmark"}, {"city": "Tune", "latitude": 55.59287, "longitude": 12.16968, "state": "Zealand"}, {"city": "Tr\u00f8r\u00f8d", "latitude": 55.83946, "longitude": 12.54432, "state": "Capital Region"}, {"city": "Troense", "latitude": 55.03324, "longitude": 10.64361, "state": "South Denmark"}, {"city": "Trige", "latitude": 56.25291, "longitude": 10.1484, "state": "Central Jutland"}, {"city": "Tranek\u00e6r", "latitude": 54.9976, "longitude": 10.84381, "state": "South Denmark"}, {"city": "Tranebjerg", "latitude": 55.8326, "longitude": 10.59723, "state": "Central Jutland"}, {"city": "Tranbjerg", "latitude": 56.09519, "longitude": 10.13605, "state": "Central Jutland"}, {"city": "T\u00f8rring", "latitude": 55.85, "longitude": 9.48333, "state": "Central Jutland"}, {"city": "T\u00f8nder", "latitude": 54.93306, "longitude": 8.86674, "state": "South Denmark"}, {"city": "T\u00f8ll\u00f8se", "latitude": 55.6125, "longitude": 11.77034, "state": "Zealand"}, {"city": "Tommerup Stationsby", "latitude": 55.34535, "longitude": 10.17594, "state": "South Denmark"}, {"city": "Tommerup", "latitude": 55.31952, "longitude": 10.20659, "state": "South Denmark"}, {"city": "Toftlund", "latitude": 55.18858, "longitude": 9.06925, "state": "South Denmark"}, {"city": "Tj\u00e6reborg", "latitude": 55.46457, "longitude": 8.57968, "state": "South Denmark"}, {"city": "Tisvilde", "latitude": 56.05743, "longitude": 12.09752, "state": "Capital Region"}, {"city": "Tistrup", "latitude": 55.72363, "longitude": 8.61028, "state": "South Denmark"}, {"city": "Tinglev", "latitude": 54.93788, "longitude": 9.25547, "state": "South Denmark"}, {"city": "Thybor\u00f8n", "latitude": 56.69846, "longitude": 8.21238, "state": "Central Jutland"}, {"city": "Thur\u00f8 By", "latitude": 55.0474, "longitude": 10.66385, "state": "South Denmark"}, {"city": "Thors\u00f8", "latitude": 56.29953, "longitude": 9.78916, "state": "Central Jutland"}, {"city": "Thisted", "latitude": 56.95523, "longitude": 8.69491, "state": "North Denmark"}, {"city": "Them", "latitude": 56.09426, "longitude": 9.54866, "state": "Central Jutland"}, {"city": "Taulov", "latitude": 55.54582, "longitude": 9.61553, "state": "South Denmark"}, {"city": "Taastrup", "latitude": 55.65006, "longitude": 12.3016, "state": "Capital Region"}, {"city": "T\u00e5rs", "latitude": 57.38333, "longitude": 10.11667, "state": "North Denmark"}, {"city": "T\u00e5rnby", "latitude": 55.6303, "longitude": 12.60035, "state": "Capital Region"}, {"city": "Tarm", "latitude": 55.90861, "longitude": 8.53041, "state": "Central Jutland"}, {"city": "Svogerslev", "latitude": 55.63423, "longitude": 12.01465, "state": "Zealand"}, {"city": "Svinninge", "latitude": 55.88306, "longitude": 11.60991, "state": "Zealand"}, {"city": "Svinninge", "latitude": 55.72111, "longitude": 11.46547, "state": "Zealand"}, {"city": "Svenstrup", "latitude": 56.9723, "longitude": 9.84806, "state": "North Denmark"}, {"city": "Svenstrup", "latitude": 56.60263, "longitude": 9.94361, "state": "North Denmark"}, {"city": "Svendborg", "latitude": 55.05982, "longitude": 10.60677, "state": "South Denmark"}, {"city": "Svejb\u00e6k", "latitude": 56.13255, "longitude": 9.63289, "state": "Central Jutland"}, {"city": "Sveb\u00f8lle", "latitude": 55.65183, "longitude": 11.28658, "state": "Zealand"}, {"city": "Svaneke", "latitude": 55.13574, "longitude": 15.14139, "state": "Capital Region"}, {"city": "Sunds", "latitude": 56.20743, "longitude": 9.01386, "state": "Central Jutland"}, {"city": "Sulsted", "latitude": 57.16343, "longitude": 9.95667, "state": "North Denmark"}, {"city": "Stubbek\u00f8bing", "latitude": 54.88875, "longitude": 12.04102, "state": "Zealand"}, {"city": "Struer", "latitude": 56.49205, "longitude": 8.59397, "state": "Central Jutland"}, {"city": "Str\u00f8by Egede", "latitude": 55.41382, "longitude": 12.24502, "state": "Zealand"}, {"city": "Strib", "latitude": 55.54021, "longitude": 9.76748, "state": "South Denmark"}, {"city": "Strandby", "latitude": 57.4915, "longitude": 10.49609, "state": "North Denmark"}, {"city": "Storvorde", "latitude": 57.00392, "longitude": 10.10125, "state": "North Denmark"}, {"city": "Store Merl\u00f8se", "latitude": 55.54382, "longitude": 11.71303, "state": "Zealand"}, {"city": "Store Heddinge", "latitude": 55.30965, "longitude": 12.38885, "state": "Zealand"}, {"city": "St\u00f8vring", "latitude": 56.88536, "longitude": 9.83839, "state": "North Denmark"}, {"city": "Stoholm", "latitude": 56.48454, "longitude": 9.14617, "state": "Central Jutland"}, {"city": "Stilling", "latitude": 56.06224, "longitude": 9.98822, "state": "Central Jutland"}, {"city": "Stige", "latitude": 55.43941, "longitude": 10.4094, "state": "South Denmark"}, {"city": "Stensved", "latitude": 54.99714, "longitude": 12.02983, "state": "Zealand"}, {"city": "Stenl\u00f8se", "latitude": 55.76828, "longitude": 12.19723, "state": "Capital Region"}, {"city": "Stenlille", "latitude": 55.53888, "longitude": 11.5912, "state": "Zealand"}, {"city": "Stege", "latitude": 54.98704, "longitude": 12.28461, "state": "Zealand"}, {"city": "Stavtrup", "latitude": 56.13124, "longitude": 10.11987, "state": "Central Jutland"}, {"city": "Stavnsholt", "latitude": 55.81479, "longitude": 12.40545, "state": "Capital Region"}, {"city": "Starup", "latitude": 55.24097, "longitude": 9.53503, "state": "South Denmark"}, {"city": "Spentrup", "latitude": 56.53703, "longitude": 10.03792, "state": "Central Jutland"}, {"city": "Sor\u00f8", "latitude": 55.43184, "longitude": 11.55547, "state": "Zealand"}, {"city": "S\u00f8nders\u00f8", "latitude": 55.48526, "longitude": 10.2554, "state": "South Denmark"}, {"city": "S\u00f8nderborg", "latitude": 54.90896, "longitude": 9.78917, "state": "South Denmark"}, {"city": "S\u00f8nder Bjert", "latitude": 55.45272, "longitude": 9.56741, "state": "South Denmark"}, {"city": "S\u00f8llested", "latitude": 54.81019, "longitude": 11.27123, "state": "Zealand"}, {"city": "S\u00f8ften", "latitude": 56.23801, "longitude": 10.0851, "state": "Central Jutland"}, {"city": "Solr\u00f8d Strand", "latitude": 55.53285, "longitude": 12.22227, "state": "Zealand"}, {"city": "Solr\u00f8d", "latitude": 55.53628, "longitude": 12.1827, "state": "Zealand"}, {"city": "Solbjerg", "latitude": 56.04271, "longitude": 10.08631, "state": "Central Jutland"}, {"city": "Snogh\u00f8j", "latitude": 55.52253, "longitude": 9.72125, "state": "South Denmark"}, {"city": "Snejbjerg", "latitude": 56.13291, "longitude": 8.90353, "state": "Central Jutland"}, {"city": "Sm\u00f8rumnedre", "latitude": 55.74232, "longitude": 12.30276, "state": "Capital Region"}, {"city": "Slangerup", "latitude": 55.85, "longitude": 12.18333, "state": "Capital Region"}, {"city": "Slagelse", "latitude": 55.40276, "longitude": 11.35459, "state": "Zealand"}, {"city": "Sk\u00e6vinge", "latitude": 55.90785, "longitude": 12.15036, "state": "Capital Region"}, {"city": "Skaerbaek", "latitude": 55.15735, "longitude": 8.76901, "state": "South Denmark"}, {"city": "Skovby", "latitude": 56.15672, "longitude": 9.94523, "state": "Central Jutland"}, {"city": "Sk\u00f8rping", "latitude": 56.83626, "longitude": 9.89255, "state": "North Denmark"}, {"city": "Skodsborg", "latitude": 55.8225, "longitude": 12.57324, "state": "Capital Region"}, {"city": "Sk\u00e6lsk\u00f8r", "latitude": 55.25058, "longitude": 11.29352, "state": "Zealand"}, {"city": "Skjern", "latitude": 55.95, "longitude": 8.5, "state": "Central Jutland"}, {"city": "Skive", "latitude": 56.56699, "longitude": 9.02707, "state": "Central Jutland"}, {"city": "Skibby", "latitude": 55.75122, "longitude": 11.96083, "state": "Capital Region"}, {"city": "Skanderborg", "latitude": 56.03434, "longitude": 9.93177, "state": "Central Jutland"}, {"city": "Skals", "latitude": 56.55676, "longitude": 9.40381, "state": "Central Jutland"}, {"city": "Skagen", "latitude": 57.72093, "longitude": 10.58394, "state": "North Denmark"}, {"city": "Sindal", "latitude": 57.47117, "longitude": 10.20312, "state": "North Denmark"}, {"city": "Silkeborg", "latitude": 56.1697, "longitude": 9.54508, "state": "Central Jutland"}, {"city": "Seden", "latitude": 55.42648, "longitude": 10.44265, "state": "South Denmark"}, {"city": "S\u00e6by", "latitude": 57.33188, "longitude": 10.52251, "state": "North Denmark"}, {"city": "Saksk\u00f8bing", "latitude": 54.7997, "longitude": 11.62599, "state": "Zealand"}, {"city": "Sabro", "latitude": 56.21333, "longitude": 10.03441, "state": "Central Jutland"}, {"city": "Ryslinge", "latitude": 55.2416, "longitude": 10.53675, "state": "South Denmark"}, {"city": "Ryomg\u00e5rd", "latitude": 56.3843, "longitude": 10.50295, "state": "Central Jutland"}, {"city": "Ry", "latitude": 56.09038, "longitude": 9.76505, "state": "Central Jutland"}, {"city": "Ruds-Vedby", "latitude": 55.54093, "longitude": 11.37957, "state": "Zealand"}, {"city": "Rudk\u00f8bing", "latitude": 54.93639, "longitude": 10.71019, "state": "South Denmark"}, {"city": "Roskilde", "latitude": 55.64152, "longitude": 12.08035, "state": "Zealand"}, {"city": "R\u00f8rvig", "latitude": 55.94405, "longitude": 11.75268, "state": "Zealand"}, {"city": "R\u00f8nnede", "latitude": 55.2571, "longitude": 12.02125, "state": "Zealand"}, {"city": "R\u00f8nne", "latitude": 55.10091, "longitude": 14.70664, "state": "Capital Region"}, {"city": "R\u00f8nde", "latitude": 56.30145, "longitude": 10.47505, "state": "Central Jutland"}, {"city": "R\u00f8dvig", "latitude": 55.2554, "longitude": 12.37936, "state": "Zealand"}, {"city": "R\u00f8dovre", "latitude": 55.68062, "longitude": 12.45373, "state": "Capital Region"}, {"city": "R\u00f8dekro", "latitude": 55.07076, "longitude": 9.33531, "state": "South Denmark"}, {"city": "R\u00f8dding", "latitude": 55.36569, "longitude": 9.06316, "state": "South Denmark"}, {"city": "R\u00f8dbyhavn", "latitude": 54.65944, "longitude": 11.35504, "state": "Zealand"}, {"city": "R\u00f8dby", "latitude": 54.69495, "longitude": 11.38885, "state": "Zealand"}, {"city": "Ringsted", "latitude": 55.4426, "longitude": 11.79011, "state": "Zealand"}, {"city": "Ringk\u00f8bing", "latitude": 56.09006, "longitude": 8.24402, "state": "Central Jutland"}, {"city": "Ringe", "latitude": 55.23828, "longitude": 10.4786, "state": "South Denmark"}, {"city": "Ribe", "latitude": 55.33051, "longitude": 8.76966, "state": "South Denmark"}, {"city": "Randers", "latitude": 56.4607, "longitude": 10.03639, "state": "Central Jutland"}, {"city": "Raml\u00f8se", "latitude": 56.01398, "longitude": 12.11608, "state": "Capital Region"}, {"city": "Pr\u00e6st\u00f8", "latitude": 55.12374, "longitude": 12.04477, "state": "Zealand"}, {"city": "Pandrup", "latitude": 57.22147, "longitude": 9.67569, "state": "North Denmark"}, {"city": "Padborg", "latitude": 54.82657, "longitude": 9.36247, "state": "South Denmark"}, {"city": "Outrup", "latitude": 55.71919, "longitude": 8.34466, "state": "South Denmark"}, {"city": "Over Holluf", "latitude": 55.35771, "longitude": 10.46977, "state": "South Denmark"}, {"city": "Otterup", "latitude": 55.51527, "longitude": 10.39756, "state": "South Denmark"}, {"city": "Osted", "latitude": 55.56228, "longitude": 11.95786, "state": "Zealand"}, {"city": "\u00d8rum", "latitude": 56.48072, "longitude": 9.62537, "state": "Central Jutland"}, {"city": "\u00d8rslev", "latitude": 55.04356, "longitude": 11.96792, "state": "Zealand"}, {"city": "\u00d8rb\u00e6k", "latitude": 55.25849, "longitude": 10.67075, "state": "South Denmark"}, {"city": "\u00d8lstykke", "latitude": 55.79567, "longitude": 12.15509, "state": "Capital Region"}, {"city": "\u00d8lsted", "latitude": 55.92318, "longitude": 12.07071, "state": "Capital Region"}, {"city": "\u00d8lgod", "latitude": 55.80682, "longitude": 8.62859, "state": "South Denmark"}, {"city": "Oksb\u00f8l", "latitude": 55.6268, "longitude": 8.28757, "state": "South Denmark"}, {"city": "Odense", "latitude": 55.39594, "longitude": 10.38831, "state": "South Denmark"}, {"city": "Odder", "latitude": 55.97313, "longitude": 10.153, "state": "Central Jutland"}, {"city": "Nysted", "latitude": 54.66513, "longitude": 11.73426, "state": "Zealand"}, {"city": "Nyr\u00e5d", "latitude": 55.00511, "longitude": 11.9606, "state": "Zealand"}, {"city": "Nyk\u00f8bing Falster", "latitude": 54.76906, "longitude": 11.87425, "state": "Zealand"}, {"city": "Nyk\u00f8bing Sj\u00e6lland", "latitude": 55.92491, "longitude": 11.67109, "state": "Zealand"}, {"city": "Nyk\u00f8bing Mors", "latitude": 56.79334, "longitude": 8.85282, "state": "North Denmark"}, {"city": "Nyborg", "latitude": 55.31274, "longitude": 10.78964, "state": "South Denmark"}, {"city": "N\u00e6stved", "latitude": 55.22992, "longitude": 11.76092, "state": "Zealand"}, {"city": "Nordby", "latitude": 55.44603, "longitude": 8.39786, "state": "South Denmark"}, {"city": "Nordborg", "latitude": 55.05732, "longitude": 9.7408, "state": "South Denmark"}, {"city": "N\u00f8rresundby", "latitude": 57.05877, "longitude": 9.92284, "state": "North Denmark"}, {"city": "N\u00f8rre Nebel", "latitude": 55.77981, "longitude": 8.29524, "state": "South Denmark"}, {"city": "N\u00f8rre Broby", "latitude": 55.25164, "longitude": 10.22953, "state": "South Denmark"}, {"city": "N\u00f8rre Bindslev", "latitude": 57.54161, "longitude": 10.19868, "state": "North Denmark"}, {"city": "N\u00f8rre Alslev", "latitude": 54.89784, "longitude": 11.88414, "state": "Zealand"}, {"city": "N\u00f8rre \u00c5by", "latitude": 55.46107, "longitude": 9.8794, "state": "South Denmark"}, {"city": "N\u00f8rager", "latitude": 56.70642, "longitude": 9.62996, "state": "North Denmark"}, {"city": "N\u00f8debo", "latitude": 55.97877, "longitude": 12.34685, "state": "Capital Region"}, {"city": "Niv\u00e5", "latitude": 55.93405, "longitude": 12.50485, "state": "Capital Region"}, {"city": "Nibe", "latitude": 56.9815, "longitude": 9.63917, "state": "North Denmark"}, {"city": "Nex\u00f8", "latitude": 55.06067, "longitude": 15.13058, "state": "Capital Region"}, {"city": "Neder Vindinge", "latitude": 55.03211, "longitude": 11.88356, "state": "Zealand"}, {"city": "Neder Holluf", "latitude": 55.36451, "longitude": 10.44824, "state": "South Denmark"}, {"city": "Nakskov", "latitude": 54.83038, "longitude": 11.13567, "state": "Zealand"}, {"city": "Munkebo", "latitude": 55.45553, "longitude": 10.55433, "state": "South Denmark"}, {"city": "Middelfart", "latitude": 55.50591, "longitude": 9.73054, "state": "South Denmark"}, {"city": "Mern", "latitude": 55.04824, "longitude": 12.0556, "state": "Zealand"}, {"city": "Marstal", "latitude": 54.85621, "longitude": 10.51726, "state": "South Denmark"}, {"city": "M\u00e5rslet", "latitude": 56.0669, "longitude": 10.16112, "state": "Central Jutland"}, {"city": "Maribo", "latitude": 54.77662, "longitude": 11.50017, "state": "Zealand"}, {"city": "Mariager", "latitude": 56.64985, "longitude": 9.97515, "state": "North Denmark"}, {"city": "M\u00e5l\u00f8v", "latitude": 55.75528, "longitude": 12.32327, "state": "Capital Region"}, {"city": "Malling", "latitude": 56.03632, "longitude": 10.19632, "state": "Central Jutland"}, {"city": "Lystrup", "latitude": 56.49839, "longitude": 10.46887, "state": "Central Jutland"}, {"city": "Lystrup", "latitude": 56.2375, "longitude": 10.23778, "state": "Central Jutland"}, {"city": "Lynge", "latitude": 55.83941, "longitude": 12.27725, "state": "Capital Region"}, {"city": "Lunderskov", "latitude": 55.48375, "longitude": 9.29917, "state": "South Denmark"}, {"city": "L\u00f8sning", "latitude": 55.80236, "longitude": 9.69539, "state": "Central Jutland"}, {"city": "L\u00f8kken", "latitude": 57.37047, "longitude": 9.71466, "state": "North Denmark"}, {"city": "L\u00f8jt Kirkeby", "latitude": 55.08959, "longitude": 9.46084, "state": "South Denmark"}, {"city": "L\u00f8gumkloster", "latitude": 55.05941, "longitude": 8.95508, "state": "South Denmark"}, {"city": "L\u00f8gten", "latitude": 56.27459, "longitude": 10.31181, "state": "Central Jutland"}, {"city": "L\u00f8gstrup", "latitude": 56.51032, "longitude": 9.33538, "state": "Central Jutland"}, {"city": "L\u00f8gst\u00f8r", "latitude": 56.96245, "longitude": 9.2583, "state": "North Denmark"}, {"city": "Liseleje", "latitude": 56.01295, "longitude": 11.96544, "state": "Capital Region"}, {"city": "Lisbjerg", "latitude": 56.22075, "longitude": 10.16861, "state": "Central Jutland"}, {"city": "Lind", "latitude": 56.106, "longitude": 8.97915, "state": "Central Jutland"}, {"city": "V\u00e6rl\u00f8se", "latitude": 55.78251, "longitude": 12.36856, "state": "Capital Region"}, {"city": "Lille Skensved", "latitude": 55.50977, "longitude": 12.13506, "state": "Zealand"}, {"city": "Liller\u00f8d", "latitude": 55.87496, "longitude": 12.34579, "state": "Capital Region"}, {"city": "Lemvig", "latitude": 56.54856, "longitude": 8.31019, "state": "Central Jutland"}, {"city": "Lejre", "latitude": 55.60461, "longitude": 11.97477, "state": "Zealand"}, {"city": "L\u00e5sby", "latitude": 56.15022, "longitude": 9.80683, "state": "Central Jutland"}, {"city": "Langeskov", "latitude": 55.35655, "longitude": 10.58447, "state": "South Denmark"}, {"city": "Lang\u00e5", "latitude": 56.39026, "longitude": 9.89486, "state": "Central Jutland"}, {"city": "Kvistg\u00e5rd", "latitude": 55.99348, "longitude": 12.50446, "state": "Capital Region"}, {"city": "Krus\u00e5", "latitude": 54.85097, "longitude": 9.40129, "state": "South Denmark"}, {"city": "Kors\u00f8r", "latitude": 55.32993, "longitude": 11.13857, "state": "Zealand"}, {"city": "K\u00f8ge", "latitude": 55.45802, "longitude": 12.18214, "state": "Zealand"}, {"city": "Copenhagen", "latitude": 55.67594, "longitude": 12.56553, "state": "Capital Region"}, {"city": "Kongens Lyngby", "latitude": 55.77044, "longitude": 12.50378, "state": "Capital Region"}, {"city": "Kolt", "latitude": 56.10845, "longitude": 10.06986, "state": "Central Jutland"}, {"city": "Kolding", "latitude": 55.4904, "longitude": 9.47216, "state": "South Denmark"}, {"city": "Kokkedal", "latitude": 55.91179, "longitude": 12.49952, "state": "Capital Region"}, {"city": "Knabstrup", "latitude": 55.66423, "longitude": 11.55129, "state": "Zealand"}, {"city": "Klitm\u00f8ller", "latitude": 57.04072, "longitude": 8.49144, "state": "North Denmark"}, {"city": "Klinteby Frihed", "latitude": 55.19705, "longitude": 11.59603, "state": "Zealand"}, {"city": "Klarup", "latitude": 57.01194, "longitude": 10.05617, "state": "North Denmark"}, {"city": "Kjellerup", "latitude": 56.28581, "longitude": 9.43528, "state": "Central Jutland"}, {"city": "Kirke Hvals\u00f8", "latitude": 55.5917, "longitude": 11.86253, "state": "Zealand"}, {"city": "Kirke-Esb\u00f8nderup", "latitude": 56.04975, "longitude": 12.34636, "state": "Capital Region"}, {"city": "Kib\u00e6k", "latitude": 56.0317, "longitude": 8.85697, "state": "Central Jutland"}, {"city": "Kerteminde", "latitude": 55.44903, "longitude": 10.65769, "state": "South Denmark"}, {"city": "K\u00e5s", "latitude": 57.19774, "longitude": 9.67173, "state": "North Denmark"}, {"city": "Karup", "latitude": 56.30673, "longitude": 9.16835, "state": "Central Jutland"}, {"city": "Karise", "latitude": 55.30734, "longitude": 12.1972, "state": "Zealand"}, {"city": "Kalundborg", "latitude": 55.67954, "longitude": 11.08864, "state": "Zealand"}, {"city": "Jyllinge", "latitude": 55.75295, "longitude": 12.10315, "state": "Zealand"}, {"city": "Jyderup", "latitude": 55.83689, "longitude": 11.55333, "state": "Zealand"}, {"city": "Jyderup", "latitude": 55.66399, "longitude": 11.42029, "state": "Zealand"}, {"city": "Juelsminde", "latitude": 55.70876, "longitude": 10.01668, "state": "Central Jutland"}, {"city": "J\u00e6gerspris", "latitude": 55.85248, "longitude": 11.98565, "state": "Capital Region"}, {"city": "Jelling", "latitude": 55.75588, "longitude": 9.4258, "state": "South Denmark"}, {"city": "Ish\u00f8j", "latitude": 55.61543, "longitude": 12.35182, "state": "Capital Region"}, {"city": "Ikast", "latitude": 56.13883, "longitude": 9.15768, "state": "Central Jutland"}, {"city": "Idestrup", "latitude": 54.74312, "longitude": 11.95674, "state": "Zealand"}, {"city": "Hvidovre", "latitude": 55.64297, "longitude": 12.47708, "state": "Capital Region"}, {"city": "Hvide Sande", "latitude": 55.99866, "longitude": 8.12605, "state": "Central Jutland"}, {"city": "Hurup", "latitude": 56.74944, "longitude": 8.41953, "state": "North Denmark"}, {"city": "Hundested", "latitude": 55.96397, "longitude": 11.85044, "state": "Capital Region"}, {"city": "Humleb\u00e6k", "latitude": 55.9618, "longitude": 12.5341, "state": "Capital Region"}, {"city": "Horsens", "latitude": 55.86066, "longitude": 9.85034, "state": "Central Jutland"}, {"city": "Hornsyld", "latitude": 55.75621, "longitude": 9.85643, "state": "Central Jutland"}, {"city": "Hornslet", "latitude": 56.3155, "longitude": 10.32041, "state": "Central Jutland"}, {"city": "Hornb\u00e6k", "latitude": 56.09027, "longitude": 12.45693, "state": "Capital Region"}, {"city": "H\u00f8rve", "latitude": 55.75292, "longitude": 11.45298, "state": "Zealand"}, {"city": "H\u00f8ruphav", "latitude": 54.91017, "longitude": 9.89872, "state": "South Denmark"}, {"city": "H\u00f8rsholm", "latitude": 55.88098, "longitude": 12.50111, "state": "Capital Region"}, {"city": "H\u00f8rning", "latitude": 56.412, "longitude": 10.20018, "state": "Central Jutland"}, {"city": "H\u00f8rning", "latitude": 56.08701, "longitude": 10.03716, "state": "Central Jutland"}, {"city": "H\u00f8ng", "latitude": 55.50736, "longitude": 11.28873, "state": "Zealand"}, {"city": "H\u00f8jer", "latitude": 54.96344, "longitude": 8.69853, "state": "South Denmark"}, {"city": "H\u00f8jby", "latitude": 55.91148, "longitude": 11.59756, "state": "Zealand"}, {"city": "H\u00f8jby", "latitude": 55.33177, "longitude": 10.43725, "state": "South Denmark"}, {"city": "Holte", "latitude": 55.81667, "longitude": 12.46667, "state": "Capital Region"}, {"city": "Holsted", "latitude": 55.51086, "longitude": 8.91872, "state": "South Denmark"}, {"city": "Holstebro", "latitude": 56.36009, "longitude": 8.61607, "state": "Central Jutland"}, {"city": "Holeby", "latitude": 54.71148, "longitude": 11.46416, "state": "Zealand"}, {"city": "Holb\u00e6k", "latitude": 55.7175, "longitude": 11.71279, "state": "Zealand"}, {"city": "Hobro", "latitude": 56.64306, "longitude": 9.79029, "state": "North Denmark"}, {"city": "Hjortsh\u00f8j", "latitude": 56.24811, "longitude": 10.26533, "state": "Central Jutland"}, {"city": "Hjordk\u00e6r", "latitude": 55.02658, "longitude": 9.30509, "state": "South Denmark"}, {"city": "Hj\u00f8rring", "latitude": 57.46417, "longitude": 9.98229, "state": "North Denmark"}, {"city": "Hjallerup", "latitude": 57.16466, "longitude": 10.14571, "state": "North Denmark"}, {"city": "Hirtshals", "latitude": 57.58812, "longitude": 9.95922, "state": "North Denmark"}, {"city": "Hinnerup", "latitude": 56.7347, "longitude": 9.05874, "state": "Central Jutland"}, {"city": "Hinnerup", "latitude": 56.26608, "longitude": 10.06299, "state": "Central Jutland"}, {"city": "Hiller\u00f8d", "latitude": 55.92791, "longitude": 12.30081, "state": "Capital Region"}, {"city": "Herning", "latitude": 56.13615, "longitude": 8.97662, "state": "Central Jutland"}, {"city": "Herlev", "latitude": 55.72366, "longitude": 12.43998, "state": "Capital Region"}, {"city": "Helsing\u00f8r", "latitude": 56.03606, "longitude": 12.6136, "state": "Capital Region"}, {"city": "Helsinge", "latitude": 56.02283, "longitude": 12.19752, "state": "Capital Region"}, {"city": "Helleb\u00e6k", "latitude": 56.06823, "longitude": 12.55782, "state": "Capital Region"}, {"city": "Hedensted", "latitude": 55.77043, "longitude": 9.7011, "state": "Central Jutland"}, {"city": "Hedehusene", "latitude": 55.64951, "longitude": 12.19827, "state": "Capital Region"}, {"city": "Havdrup", "latitude": 55.54481, "longitude": 12.12392, "state": "Zealand"}, {"city": "Hatting", "latitude": 55.85295, "longitude": 9.76948, "state": "Central Jutland"}, {"city": "Hasselager", "latitude": 56.10555, "longitude": 10.10003, "state": "Central Jutland"}, {"city": "Haslev", "latitude": 55.32346, "longitude": 11.96389, "state": "Zealand"}, {"city": "Hasle", "latitude": 55.18212, "longitude": 14.71117, "state": "Capital Region"}, {"city": "Harlev", "latitude": 56.14105, "longitude": 9.99601, "state": "Central Jutland"}, {"city": "H\u00e5rlev", "latitude": 55.34936, "longitude": 12.23382, "state": "Zealand"}, {"city": "Haarby", "latitude": 55.22357, "longitude": 10.12268, "state": "South Denmark"}, {"city": "Harbo\u00f8re", "latitude": 56.61752, "longitude": 8.18069, "state": "Central Jutland"}, {"city": "Hanstholm", "latitude": 57.11548, "longitude": 8.6172, "state": "North Denmark"}, {"city": "Hammerum", "latitude": 56.13361, "longitude": 9.06121, "state": "Central Jutland"}, {"city": "Hammel", "latitude": 56.25762, "longitude": 9.86316, "state": "Central Jutland"}, {"city": "Hals", "latitude": 56.99609, "longitude": 10.30807, "state": "North Denmark"}, {"city": "Hadsund", "latitude": 56.71482, "longitude": 10.11682, "state": "North Denmark"}, {"city": "Hadsten", "latitude": 56.32819, "longitude": 10.04931, "state": "Central Jutland"}, {"city": "Haderslev", "latitude": 55.24943, "longitude": 9.48771, "state": "South Denmark"}, {"city": "Gunds\u00f8magle", "latitude": 55.73565, "longitude": 12.15158, "state": "Zealand"}, {"city": "Guderup", "latitude": 54.98978, "longitude": 9.87174, "state": "South Denmark"}, {"city": "Gr\u00e6sted", "latitude": 56.06558, "longitude": 12.28512, "state": "Capital Region"}, {"city": "Grindsted", "latitude": 55.75726, "longitude": 8.9275, "state": "South Denmark"}, {"city": "Greve", "latitude": 55.58333, "longitude": 12.3, "state": "Zealand"}, {"city": "Grenaa", "latitude": 56.41578, "longitude": 10.87825, "state": "Central Jutland"}, {"city": "Gr\u00e5sten", "latitude": 54.91918, "longitude": 9.59523, "state": "South Denmark"}, {"city": "Gram", "latitude": 55.28948, "longitude": 9.04913, "state": "South Denmark"}, {"city": "G\u00f8rlev", "latitude": 55.53926, "longitude": 11.22708, "state": "Zealand"}, {"city": "Glums\u00f8", "latitude": 55.35679, "longitude": 11.68557, "state": "Zealand"}, {"city": "Glostrup", "latitude": 55.6666, "longitude": 12.40377, "state": "Capital Region"}, {"city": "Glamsbjerg", "latitude": 55.27237, "longitude": 10.10483, "state": "South Denmark"}, {"city": "Gjern", "latitude": 56.23023, "longitude": 9.73912, "state": "Central Jutland"}, {"city": "Gjellerup", "latitude": 56.15683, "longitude": 10.13008, "state": "Central Jutland"}, {"city": "Gjellerup", "latitude": 56.14616, "longitude": 9.05467, "state": "Central Jutland"}, {"city": "Give", "latitude": 55.84523, "longitude": 9.23769, "state": "South Denmark"}, {"city": "Gistrup", "latitude": 56.9943, "longitude": 9.99085, "state": "North Denmark"}, {"city": "Gilleleje", "latitude": 56.12196, "longitude": 12.31056, "state": "Capital Region"}, {"city": "Gevninge", "latitude": 55.64544, "longitude": 11.95724, "state": "Zealand"}, {"city": "Gelsted", "latitude": 55.39878, "longitude": 9.97314, "state": "South Denmark"}, {"city": "Gedved", "latitude": 55.93085, "longitude": 9.84601, "state": "Central Jutland"}, {"city": "Ganl\u00f8se", "latitude": 55.79124, "longitude": 12.26421, "state": "Capital Region"}, {"city": "Gandrup", "latitude": 57.05744, "longitude": 10.18137, "state": "North Denmark"}, {"city": "Galten", "latitude": 56.15902, "longitude": 9.91691, "state": "Central Jutland"}, {"city": "Gadstrup", "latitude": 55.56915, "longitude": 12.09493, "state": "Zealand"}, {"city": "Fuglebjerg", "latitude": 55.30604, "longitude": 11.54766, "state": "Zealand"}, {"city": "Frejlev", "latitude": 57.00623, "longitude": 9.81711, "state": "North Denmark"}, {"city": "Frederiksv\u00e6rk", "latitude": 55.97073, "longitude": 12.0225, "state": "Capital Region"}, {"city": "Frederikssund", "latitude": 55.83956, "longitude": 12.06896, "state": "Capital Region"}, {"city": "Frederikshavn", "latitude": 57.44073, "longitude": 10.53661, "state": "North Denmark"}, {"city": "Frederiksberg", "latitude": 55.67938, "longitude": 12.53463, "state": "Capital Region"}, {"city": "Frederiksberg", "latitude": 55.41618, "longitude": 11.56934, "state": "Zealand"}, {"city": "Fredericia", "latitude": 55.56568, "longitude": 9.75257, "state": "South Denmark"}, {"city": "Fredensborg", "latitude": 55.97558, "longitude": 12.40314, "state": "Capital Region"}, {"city": "Framlev", "latitude": 56.15664, "longitude": 10.01318, "state": "Central Jutland"}, {"city": "Forlev", "latitude": 55.37445, "longitude": 11.25966, "state": "Zealand"}, {"city": "Fl\u00f8ng", "latitude": 55.66212, "longitude": 12.18698, "state": "Capital Region"}, {"city": "Fjerritslev", "latitude": 57.08822, "longitude": 9.26622, "state": "North Denmark"}, {"city": "Fensmark", "latitude": 55.27919, "longitude": 11.80382, "state": "Zealand"}, {"city": "Farum", "latitude": 55.80858, "longitude": 12.36066, "state": "Capital Region"}, {"city": "Fars\u00f8", "latitude": 56.77276, "longitude": 9.33925, "state": "North Denmark"}, {"city": "Faxe Ladeplads", "latitude": 55.21981, "longitude": 12.17013, "state": "Zealand"}, {"city": "Faxe", "latitude": 55.25561, "longitude": 12.11926, "state": "Zealand"}, {"city": "Faaborg", "latitude": 55.0951, "longitude": 10.24226, "state": "South Denmark"}, {"city": "Esperg\u00e6rde", "latitude": 55.99464, "longitude": 12.54733, "state": "Capital Region"}, {"city": "Eskilstrup", "latitude": 54.85574, "longitude": 11.88668, "state": "Zealand"}, {"city": "Esbjerg", "latitude": 55.47028, "longitude": 8.45187, "state": "South Denmark"}, {"city": "Elling", "latitude": 57.47689, "longitude": 10.47988, "state": "North Denmark"}, {"city": "Ejby", "latitude": 55.68923, "longitude": 11.84725, "state": "Zealand"}, {"city": "Ejby", "latitude": 55.4858, "longitude": 12.08171, "state": "Zealand"}, {"city": "Ejby", "latitude": 55.4301, "longitude": 9.92973, "state": "South Denmark"}, {"city": "Egtved", "latitude": 55.61613, "longitude": 9.30763, "state": "South Denmark"}, {"city": "Ebeltoft", "latitude": 56.19442, "longitude": 10.6821, "state": "Central Jutland"}, {"city": "Dybb\u00f8l", "latitude": 54.91079, "longitude": 9.73601, "state": "South Denmark"}, {"city": "Dronninglund", "latitude": 57.16035, "longitude": 10.29287, "state": "North Denmark"}, {"city": "Drag\u00f8r", "latitude": 55.5928, "longitude": 12.67221, "state": "Capital Region"}, {"city": "Dianalund", "latitude": 55.53133, "longitude": 11.4925, "state": "Zealand"}, {"city": "Christianshavn", "latitude": 55.67383, "longitude": 12.59541, "state": "Capital Region"}, {"city": "Christiansfeld", "latitude": 55.35817, "longitude": 9.48701, "state": "South Denmark"}, {"city": "Charlottenlund", "latitude": 55.75238, "longitude": 12.5745, "state": "Capital Region"}, {"city": "Byrum", "latitude": 57.25679, "longitude": 10.99738, "state": "North Denmark"}, {"city": "Bullerup", "latitude": 55.42686, "longitude": 10.47137, "state": "South Denmark"}, {"city": "Buddinge", "latitude": 55.74818, "longitude": 12.49532, "state": "Capital Region"}, {"city": "Brovst", "latitude": 57.0975, "longitude": 9.52264, "state": "North Denmark"}, {"city": "Br\u00f8rup", "latitude": 55.48194, "longitude": 9.01756, "state": "South Denmark"}, {"city": "Br\u00f8nderslev", "latitude": 57.27021, "longitude": 9.94102, "state": "North Denmark"}, {"city": "Br\u00f8ndbyvester", "latitude": 55.6455, "longitude": 12.41008, "state": "Capital Region"}, {"city": "Br\u00f8ndby Strand", "latitude": 55.61782, "longitude": 12.42219, "state": "Capital Region"}, {"city": "Broager", "latitude": 54.8894, "longitude": 9.67465, "state": "South Denmark"}, {"city": "Brenderup", "latitude": 55.48407, "longitude": 9.97908, "state": "South Denmark"}, {"city": "Brejning", "latitude": 55.66594, "longitude": 9.67217, "state": "South Denmark"}, {"city": "Bredsten", "latitude": 55.70129, "longitude": 9.385, "state": "South Denmark"}, {"city": "Bredebro", "latitude": 55.05483, "longitude": 8.82932, "state": "South Denmark"}, {"city": "Br\u00e6dstrup", "latitude": 55.97153, "longitude": 9.61129, "state": "Central Jutland"}, {"city": "Brande", "latitude": 55.94316, "longitude": 9.12798, "state": "Central Jutland"}, {"city": "Bramming", "latitude": 55.46946, "longitude": 8.70007, "state": "South Denmark"}, {"city": "Borup", "latitude": 55.69369, "longitude": 11.63424, "state": "Zealand"}, {"city": "Borup", "latitude": 55.49472, "longitude": 11.97584, "state": "Zealand"}, {"city": "Bording Kirkeby", "latitude": 56.16871, "longitude": 9.24384, "state": "Central Jutland"}, {"city": "B\u00f8rkop", "latitude": 55.64195, "longitude": 9.64958, "state": "South Denmark"}, {"city": "Bogense", "latitude": 55.56691, "longitude": 10.08863, "state": "South Denmark"}, {"city": "Blovstr\u00f8d", "latitude": 55.87038, "longitude": 12.3864, "state": "Capital Region"}, {"city": "B\u00e6kke", "latitude": 55.57025, "longitude": 9.13974, "state": "South Denmark"}, {"city": "Bj\u00e6verskov", "latitude": 55.45756, "longitude": 12.03651, "state": "Zealand"}, {"city": "Bjerringbro", "latitude": 56.37797, "longitude": 9.66065, "state": "Central Jutland"}, {"city": "Birker\u00f8d", "latitude": 55.84759, "longitude": 12.42791, "state": "Capital Region"}, {"city": "Billund", "latitude": 55.73349, "longitude": 9.10785, "state": "South Denmark"}, {"city": "Bellinge", "latitude": 55.33535, "longitude": 10.32045, "state": "South Denmark"}, {"city": "Beder", "latitude": 56.06025, "longitude": 10.21179, "state": "Central Jutland"}, {"city": "Ballerup", "latitude": 55.73165, "longitude": 12.36328, "state": "Capital Region"}, {"city": "Avlum", "latitude": 56.26539, "longitude": 8.79256, "state": "Central Jutland"}, {"city": "Aved\u00f8re", "latitude": 55.62722, "longitude": 12.45644, "state": "Capital Region"}, {"city": "Auning", "latitude": 56.43079, "longitude": 10.37818, "state": "Central Jutland"}, {"city": "Augustenborg", "latitude": 54.95201, "longitude": 9.87216, "state": "South Denmark"}, {"city": "Assentoft", "latitude": 56.4421, "longitude": 10.1517, "state": "Central Jutland"}, {"city": "Assens", "latitude": 55.27023, "longitude": 9.90081, "state": "South Denmark"}, {"city": "Asn\u00e6s", "latitude": 55.81229, "longitude": 11.50129, "state": "Zealand"}, {"city": "\u00c5rup", "latitude": 55.37315, "longitude": 10.04131, "state": "South Denmark"}, {"city": "\u00c5rslev", "latitude": 55.30353, "longitude": 10.46428, "state": "South Denmark"}, {"city": "Aars", "latitude": 56.80399, "longitude": 9.51441, "state": "North Denmark"}, {"city": "\u00c5rhus", "latitude": 56.15674, "longitude": 10.21076, "state": "Central Jutland"}, {"city": "Arden", "latitude": 56.76899, "longitude": 9.86184, "state": "North Denmark"}, {"city": "Ans", "latitude": 56.30712, "longitude": 9.59276, "state": "Central Jutland"}, {"city": "\u00c5lsg\u00e5rde", "latitude": 56.07559, "longitude": 12.53995, "state": "Capital Region"}, {"city": "Alling\u00e5bro", "latitude": 56.46432, "longitude": 10.31957, "state": "Central Jutland"}, {"city": "Aller\u00f8d", "latitude": 55.87035, "longitude": 12.35737, "state": "Capital Region"}, {"city": "Alholm", "latitude": 54.66483, "longitude": 11.72303, "state": "Zealand"}, {"city": "\u00c5lestrup", "latitude": 56.6947, "longitude": 9.49336, "state": "North Denmark"}, {"city": "Aalborg", "latitude": 57.048, "longitude": 9.9187, "state": "North Denmark"}, {"city": "\u00c5lb\u00e6k", "latitude": 57.59253, "longitude": 10.40456, "state": "North Denmark"}, {"city": "Albertslund", "latitude": 55.65691, "longitude": 12.36381, "state": "Capital Region"}, {"city": "\u00c5kirkeby", "latitude": 55.0708, "longitude": 14.91978, "state": "Capital Region"}, {"city": "\u00c6r\u00f8sk\u00f8bing", "latitude": 54.88803, "longitude": 10.41117, "state": "South Denmark"}, {"city": "\u00c5bybro", "latitude": 57.16249, "longitude": 9.72996, "state": "North Denmark"}, {"city": "Aabenraa", "latitude": 55.04434, "longitude": 9.41741, "state": "South Denmark"}, {"city": "Sundby", "latitude": 54.76711, "longitude": 11.84979, "state": "Zealand"}, {"city": "Christians\u00f8", "latitude": 55.32006, "longitude": 15.18662, "state": "Capital Region"}]