[{"city": "Yeed", "latitude": 4.55, "longitude": 43.03333, "state": "Bakool"}, {"city": "Xuddur", "latitude": 4.12129, "longitude": 43.88945, "state": "Bakool"}, {"city": "Xarardheere", "latitude": 4.6544, "longitude": 47.8575, "state": "Mudug"}, {"city": "Wanlaweyn", "latitude": 2.6185, "longitude": 44.8938, "state": "Lower Shabeelle"}, {"city": "Waajid", "latitude": 3.80958, "longitude": 43.24627, "state": "Bakool"}, {"city": "Tog Wajaale", "latitude": 9.59972, "longitude": 43.335, "state": "Woqooyi Galbeed"}, {"city": "Tayeeglow", "latitude": 4.01897, "longitude": 44.51111, "state": "Bakool"}, {"city": "Saylac", "latitude": 11.3539, "longitude": 43.4731, "state": "Awdal"}, {"city": "Saacow", "latitude": 1.62794, "longitude": 42.44067, "state": "Middle Juba"}, {"city": "Ruqi", "latitude": 9.97293, "longitude": 43.4276, "state": "Awdal"}, {"city": "Qoryooley", "latitude": 1.78784, "longitude": 44.52999, "state": "Lower Shabeelle"}, {"city": "Qandala", "latitude": 11.47197, "longitude": 49.87282, "state": "Bari"}, {"city": "Oodweyne", "latitude": 9.4092, "longitude": 45.06397, "state": "Togdheer"}, {"city": "Mogadishu", "latitude": 2.03711, "longitude": 45.34375, "state": "Banaadir"}, {"city": "Marka", "latitude": 1.71594, "longitude": 44.77166, "state": "Lower Shabeelle"}, {"city": "Mahaddayweyne", "latitude": 2.9726, "longitude": 45.5347, "state": "Middle Shabele"}, {"city": "Luuq", "latitude": 3.80315, "longitude": 42.54417, "state": "Gedo"}, {"city": "Lughaye", "latitude": 10.68573, "longitude": 43.94397, "state": "Awdal"}, {"city": "Las Khorey", "latitude": 11.1595, "longitude": 48.1967, "state": "Sanaag"}, {"city": "Kismayo", "latitude": -0.35817, "longitude": 42.54536, "state": "Lower Juba"}, {"city": "Jilib", "latitude": 0.48829, "longitude": 42.78535, "state": "Middle Juba"}, {"city": "Jawhar", "latitude": 2.78087, "longitude": 45.50048, "state": "Middle Shabele"}, {"city": "Jamaame", "latitude": 0.06968, "longitude": 42.74497, "state": "Lower Juba"}, {"city": "Jalalaqsi", "latitude": 3.3766, "longitude": 45.5996, "state": "Hiiraan"}, {"city": "Iskushuban", "latitude": 10.2837, "longitude": 50.23, "state": "Bari"}, {"city": "Hobyo", "latitude": 5.3505, "longitude": 48.5268, "state": "Mudug"}, {"city": "Hargeysa", "latitude": 9.56, "longitude": 44.065, "state": "Woqooyi Galbeed"}, {"city": "Gorayacowl", "latitude": 9.86899, "longitude": 43.2275, "state": "Awdal"}, {"city": "Gebiley", "latitude": 9.70028, "longitude": 43.62444, "state": "Woqooyi Galbeed"}, {"city": "Garoowe", "latitude": 8.40207, "longitude": 48.48284, "state": "Nugaal"}, {"city": "Garbahaarrey", "latitude": 3.32892, "longitude": 42.22091, "state": "Gedo"}, {"city": "Gaalkacyo", "latitude": 6.76972, "longitude": 47.43083, "state": "Mudug"}, {"city": "Eyl", "latitude": 7.9803, "longitude": 49.8164, "state": "Nugaal"}, {"city": "Dujuuma", "latitude": 1.25311, "longitude": 42.57377, "state": "Middle Juba"}, {"city": "Diinsoor", "latitude": 2.4085, "longitude": 42.9771, "state": "Bay"}, {"city": "Dhuusamarreeb", "latitude": 5.53597, "longitude": 46.38666, "state": "Galguduud"}, {"city": "Ceerigaabo", "latitude": 10.61616, "longitude": 47.36795, "state": "Sanaag"}, {"city": "Ceeldheer", "latitude": 3.84878, "longitude": 47.18064, "state": "Galguduud"}, {"city": "Ceelbuur", "latitude": 4.68501, "longitude": 46.6176, "state": "Galguduud"}, {"city": "Ceek", "latitude": 8.99907, "longitude": 45.35824, "state": "Togdheer"}, {"city": "Caluula", "latitude": 11.96611, "longitude": 50.75694, "state": "Bari"}, {"city": "Cadale", "latitude": 2.7603, "longitude": 46.3222, "state": "Middle Shabele"}, {"city": "Adado", "latitude": 6.13603, "longitude": 46.62761, "state": "Galguduud"}, {"city": "Cabudwaaq", "latitude": 6.24585, "longitude": 46.2247, "state": "Galguduud"}, {"city": "Buurhakaba", "latitude": 2.80257, "longitude": 44.07805, "state": "Bay"}, {"city": "Buur Gaabo", "latitude": -1.21917, "longitude": 41.83725, "state": "Lower Juba"}, {"city": "Buulobarde", "latitude": 3.85375, "longitude": 45.56744, "state": "Hiiraan"}, {"city": "Burao", "latitude": 9.52213, "longitude": 45.53363, "state": "Togdheer"}, {"city": "Bu\u2019aale", "latitude": 1.08333, "longitude": 42.58333, "state": "Middle Juba"}, {"city": "Bosaso", "latitude": 11.28421, "longitude": 49.18158, "state": "Bari"}, {"city": "Borama", "latitude": 9.93611, "longitude": 43.18278, "state": "Awdal"}, {"city": "Bereeda", "latitude": 11.87037, "longitude": 51.05795, "state": "Bari"}, {"city": "Berbera", "latitude": 10.43959, "longitude": 45.01432, "state": "Woqooyi Galbeed"}, {"city": "Beledweyne", "latitude": 4.73583, "longitude": 45.20361, "state": "Hiiraan"}, {"city": "Baidoa", "latitude": 3.11383, "longitude": 43.6498, "state": "Bay"}, {"city": "Bargaal", "latitude": 11.28636, "longitude": 51.0773, "state": "Bari"}, {"city": "Bandarbeyla", "latitude": 9.4942, "longitude": 50.8122, "state": "Bari"}, {"city": "Baardheere", "latitude": 2.34464, "longitude": 42.27644, "state": "Gedo"}, {"city": "Afgooye", "latitude": 2.1381, "longitude": 45.1212, "state": "Lower Shabeelle"}, {"city": "Balanbale", "latitude": 5.76897, "longitude": 45.76297, "state": "Galguduud"}, {"city": "Laascaanood", "latitude": 8.47738, "longitude": 47.35971, "state": "Sool"}, {"city": "Saaxo", "latitude": 6.77287, "longitude": 46.79689, "state": "Mudug"}, {"city": "Dhabad", "latitude": 6.43167, "longitude": 46.46194, "state": "Galguduud"}, {"city": "Baki", "latitude": 9.89206, "longitude": 43.38531, "state": "Awdal"}, {"city": "Baligubadle", "latitude": 9.0, "longitude": 44.00028, "state": "Woqooyi Galbeed"}, {"city": "Beled Hawo", "latitude": 3.9284, "longitude": 41.87997, "state": "Gedo"}, {"city": "Diga gaw", "latitude": 5.69935, "longitude": 48.4664, "state": "Mudug"}]