[{"city": "Viken", "latitude": 64.72587, "longitude": 20.91548, "state": "V\u00e4sterbotten"}, {"city": "Ursviken", "latitude": 64.71261, "longitude": 21.1658, "state": "V\u00e4sterbotten"}, {"city": "Ume\u00e5", "latitude": 63.82842, "longitude": 20.25972, "state": "V\u00e4sterbotten"}, {"city": "T\u00f6re", "latitude": 65.91243, "longitude": 22.65128, "state": "Norrbotten"}, {"city": "T\u00e4fte\u00e5", "latitude": 63.8397, "longitude": 20.47857, "state": "V\u00e4sterbotten"}, {"city": "Storvik", "latitude": 65.15, "longitude": 20.73333, "state": "V\u00e4sterbotten"}, {"city": "S\u00f6dra Sunderbyn", "latitude": 65.65983, "longitude": 21.94004, "state": "Norrbotten"}, {"city": "Skelleftehamn", "latitude": 64.68333, "longitude": 21.23333, "state": "V\u00e4sterbotten"}, {"city": "Skellefte\u00e5", "latitude": 64.75067, "longitude": 20.95279, "state": "V\u00e4sterbotten"}, {"city": "R\u00e5ne\u00e5", "latitude": 65.85482, "longitude": 22.29126, "state": "Norrbotten"}, {"city": "S\u00e4var", "latitude": 63.90383, "longitude": 20.55014, "state": "V\u00e4sterbotten"}, {"city": "Rosvik", "latitude": 65.43333, "longitude": 21.7, "state": "Norrbotten"}, {"city": "Rolfs", "latitude": 65.85, "longitude": 23.11667, "state": "Norrbotten"}, {"city": "Rokn\u00e4s", "latitude": 65.35, "longitude": 21.2, "state": "Norrbotten"}, {"city": "Robertsfors", "latitude": 64.19324, "longitude": 20.84806, "state": "V\u00e4sterbotten"}, {"city": "R\u00f6b\u00e4ck", "latitude": 63.80879, "longitude": 20.18901, "state": "V\u00e4sterbotten"}, {"city": "S\u00e4vast", "latitude": 65.77002, "longitude": 21.73113, "state": "Norrbotten"}, {"city": "Pite\u00e5", "latitude": 65.31717, "longitude": 21.47944, "state": "Norrbotten"}, {"city": "Pajala", "latitude": 67.21284, "longitude": 23.36607, "state": "Norrbotten"}, {"city": "\u00d6vertorne\u00e5", "latitude": 66.38778, "longitude": 23.65425, "state": "Norrbotten"}, {"city": "\u00d6verkalix", "latitude": 66.32754, "longitude": 22.84414, "state": "Norrbotten"}, {"city": "Obbola", "latitude": 63.7, "longitude": 20.31667, "state": "V\u00e4sterbotten"}, {"city": "Norrfj\u00e4rden", "latitude": 65.41805, "longitude": 21.50151, "state": "Norrbotten"}, {"city": "Malmberget", "latitude": 67.17529, "longitude": 20.65495, "state": "Norrbotten"}, {"city": "Lule\u00e5", "latitude": 65.58415, "longitude": 22.15465, "state": "Norrbotten"}, {"city": "L\u00e5ngsele", "latitude": 64.81667, "longitude": 20.25, "state": "V\u00e4sterbotten"}, {"city": "Kiruna", "latitude": 67.85572, "longitude": 20.22513, "state": "Norrbotten"}, {"city": "Kalix", "latitude": 65.85298, "longitude": 23.15645, "state": "Norrbotten"}, {"city": "K\u00e5ge", "latitude": 64.83571, "longitude": 20.98453, "state": "V\u00e4sterbotten"}, {"city": "Hortlax", "latitude": 65.28188, "longitude": 21.40544, "state": "Norrbotten"}, {"city": "Holmsund", "latitude": 63.70602, "longitude": 20.36409, "state": "V\u00e4sterbotten"}, {"city": "Haparanda", "latitude": 65.83549, "longitude": 24.13676, "state": "Norrbotten"}, {"city": "Gammelstad", "latitude": 65.63931, "longitude": 22.01145, "state": "Norrbotten"}, {"city": "G\u00e4llivare", "latitude": 67.13387, "longitude": 20.65278, "state": "Norrbotten"}, {"city": "Forsbacka", "latitude": 64.76667, "longitude": 20.5, "state": "V\u00e4sterbotten"}, {"city": "Ersmark", "latitude": 63.88333, "longitude": 20.31667, "state": "V\u00e4sterbotten"}, {"city": "Byske", "latitude": 64.95258, "longitude": 21.2058, "state": "V\u00e4sterbotten"}, {"city": "Burtr\u00e4sk", "latitude": 64.51667, "longitude": 20.65, "state": "V\u00e4sterbotten"}, {"city": "Bure\u00e5", "latitude": 64.61667, "longitude": 21.2, "state": "V\u00e4sterbotten"}, {"city": "Boliden", "latitude": 64.86667, "longitude": 20.38333, "state": "V\u00e4sterbotten"}, {"city": "Boden", "latitude": 65.82518, "longitude": 21.68864, "state": "Norrbotten"}, {"city": "Bergsviken", "latitude": 65.3, "longitude": 21.38333, "state": "Norrbotten"}, {"city": "Bergn\u00e4set", "latitude": 65.57791, "longitude": 22.10844, "state": "Norrbotten"}, {"city": "Backa", "latitude": 64.98333, "longitude": 21.06667, "state": "V\u00e4sterbotten"}, {"city": "\u00c4lvsbyn", "latitude": 65.67624, "longitude": 21.00162, "state": "Norrbotten"}, {"city": "Alunda", "latitude": 60.26667, "longitude": 18.4, "state": "Uppsala"}, {"city": "Anneberg", "latitude": 60.24167, "longitude": 18.41667, "state": "Uppsala"}, {"city": "Bj\u00f6rklinge", "latitude": 60.03004, "longitude": 17.55203, "state": "Uppsala"}, {"city": "Marieberg", "latitude": 60.23333, "longitude": 18.5, "state": "Uppsala"}, {"city": "Ystad", "latitude": 55.42966, "longitude": 13.82041, "state": "Sk\u00e5ne"}, {"city": "Vrigstad", "latitude": 57.35, "longitude": 14.46667, "state": "J\u00f6nk\u00f6ping"}, {"city": "Vittsj\u00f6", "latitude": 56.34366, "longitude": 13.66081, "state": "Sk\u00e5ne"}, {"city": "Vislanda", "latitude": 56.78333, "longitude": 14.45, "state": "Kronoberg"}, {"city": "Viskafors", "latitude": 57.62941, "longitude": 12.8489, "state": "V\u00e4stra G\u00f6taland"}, {"city": "Visby", "latitude": 57.64089, "longitude": 18.29602, "state": "Gotland"}, {"city": "Virserum", "latitude": 57.31667, "longitude": 15.58333, "state": "Kalmar"}, {"city": "Vintrosa", "latitude": 59.25, "longitude": 14.95, "state": "\u00d6rebro"}, {"city": "Vinsl\u00f6v", "latitude": 56.1, "longitude": 13.91667, "state": "Sk\u00e5ne"}, {"city": "Vinninga", "latitude": 58.45, "longitude": 13.26667, "state": "V\u00e4stra G\u00f6taland"}, {"city": "Ving\u00e5ker", "latitude": 59.0433, "longitude": 15.87374, "state": "S\u00f6dermanland"}, {"city": "Vindeln", "latitude": 64.20175, "longitude": 19.71945, "state": "V\u00e4sterbotten"}, {"city": "Vimmerby", "latitude": 57.66588, "longitude": 15.85515, "state": "Kalmar"}, {"city": "Vilhelmina", "latitude": 64.62417, "longitude": 16.65596, "state": "V\u00e4sterbotten"}, {"city": "Vikingstad", "latitude": 58.38304, "longitude": 15.43201, "state": "\u00d6sterg\u00f6tland"}, {"city": "Viken", "latitude": 56.15063, "longitude": 12.57429, "state": "Sk\u00e5ne"}, {"city": "Vikarbyn", "latitude": 60.91667, "longitude": 15.01667, "state": "Dalarna"}, {"city": "Vi", "latitude": 62.3, "longitude": 17.16667, "state": "V\u00e4sternorrland"}, {"city": "Vibble", "latitude": 57.60452, "longitude": 18.25601, "state": "Gotland"}, {"city": "Vetlanda", "latitude": 57.42887, "longitude": 15.07762, "state": "J\u00f6nk\u00f6ping"}, {"city": "Vellinge", "latitude": 55.47124, "longitude": 13.01971, "state": "Sk\u00e5ne"}, {"city": "Vejbystrand", "latitude": 56.31778, "longitude": 12.76722, "state": "Sk\u00e5ne"}, {"city": "Veinge", "latitude": 56.55, "longitude": 13.06667, "state": "Halland"}, {"city": "Veddige", "latitude": 57.26591, "longitude": 12.3322, "state": "Halland"}, {"city": "Veber\u00f6d", "latitude": 55.63333, "longitude": 13.48333, "state": "Sk\u00e5ne"}, {"city": "V\u00e4xj\u00f6", "latitude": 56.87767, "longitude": 14.80906, "state": "Kronoberg"}, {"city": "Vaxholm", "latitude": 59.40225, "longitude": 18.35317, "state": "Stockholm"}, {"city": "Vattholma", "latitude": 60.01667, "longitude": 17.73333, "state": "Uppsala"}, {"city": "V\u00e4stra Fr\u00f6lunda", "latitude": 57.64667, "longitude": 11.92944, "state": "V\u00e4stra G\u00f6taland"}, {"city": "V\u00e4stervik", "latitude": 57.7584, "longitude": 16.63733, "state": "Kalmar"}, {"city": "V\u00e4ster\u00e5s", "latitude": 59.61617, "longitude": 16.55276, "state": "V\u00e4stmanland"}, {"city": "Vasastan", "latitude": 59.34571, "longitude": 18.04985, "state": "Stockholm"}, {"city": "V\u00e5rsta", "latitude": 59.16528, "longitude": 17.79722, "state": "Stockholm"}, {"city": "V\u00e4rnamo", "latitude": 57.18604, "longitude": 14.04001, "state": "J\u00f6nk\u00f6ping"}, {"city": "Varg\u00f6n", "latitude": 58.35599, "longitude": 12.3906, "state": "V\u00e4stra G\u00f6taland"}, {"city": "V\u00e5rg\u00e5rda", "latitude": 58.03706, "longitude": 12.80907, "state": "V\u00e4stra G\u00f6taland"}, {"city": "V\u00e5rby", "latitude": 59.26671, "longitude": 17.88407, "state": "Stockholm"}, {"city": "Varberg", "latitude": 57.10557, "longitude": 12.25078, "state": "Halland"}, {"city": "Vara", "latitude": 58.26234, "longitude": 12.95413, "state": "V\u00e4stra G\u00f6taland"}, {"city": "Vansbro", "latitude": 60.50893, "longitude": 14.22458, "state": "Dalarna"}, {"city": "V\u00e4nn\u00e4sby", "latitude": 63.91564, "longitude": 19.82438, "state": "V\u00e4sterbotten"}, {"city": "V\u00e4nn\u00e4s", "latitude": 63.90676, "longitude": 19.75712, "state": "V\u00e4sterbotten"}, {"city": "V\u00e4nersborg", "latitude": 58.38075, "longitude": 12.3234, "state": "V\u00e4stra G\u00f6taland"}, {"city": "Vallentuna", "latitude": 59.53436, "longitude": 18.07758, "state": "Stockholm"}, {"city": "Vallda", "latitude": 57.4775, "longitude": 12.00139, "state": "Halland"}, {"city": "Valla", "latitude": 63.55, "longitude": 13.8, "state": "J\u00e4mtland"}, {"city": "Valla", "latitude": 59.01667, "longitude": 16.38333, "state": "S\u00f6dermanland"}, {"city": "Valje", "latitude": 56.06279, "longitude": 14.54388, "state": "Sk\u00e5ne"}, {"city": "Valdemarsvik", "latitude": 58.2031, "longitude": 16.60225, "state": "\u00d6sterg\u00f6tland"}, {"city": "Valbo", "latitude": 60.65, "longitude": 17.03333, "state": "G\u00e4vleborg"}, {"city": "V\u00e5lberg", "latitude": 59.39145, "longitude": 13.18633, "state": "V\u00e4rmland"}, {"city": "Vagnh\u00e4rad", "latitude": 58.94587, "longitude": 17.48757, "state": "S\u00f6dermanland"}, {"city": "Vaggeryd", "latitude": 57.49807, "longitude": 14.14842, "state": "J\u00f6nk\u00f6ping"}, {"city": "Vadstena", "latitude": 58.44863, "longitude": 14.88969, "state": "\u00d6sterg\u00f6tland"}, {"city": "Uppsala", "latitude": 59.85882, "longitude": 17.63889, "state": null}, {"city": "Upplands V\u00e4sby", "latitude": 59.51839, "longitude": 17.91128, "state": "Stockholm"}, {"city": "Hj\u00e4rup", "latitude": 55.6688, "longitude": 13.13931, "state": "Sk\u00e5ne"}, {"city": "Ulricehamn", "latitude": 57.79159, "longitude": 13.41422, "state": "V\u00e4stra G\u00f6taland"}, {"city": "Uddevalla", "latitude": 58.34784, "longitude": 11.9424, "state": "V\u00e4stra G\u00f6taland"}, {"city": "Tyringe", "latitude": 56.16037, "longitude": 13.59811, "state": "Sk\u00e5ne"}, {"city": "Tygelsj\u00f6", "latitude": 55.51667, "longitude": 13.0, "state": "Sk\u00e5ne"}, {"city": "Tv\u00e5\u00e5ker", "latitude": 57.04147, "longitude": 12.3995, "state": "Halland"}, {"city": "Tumba", "latitude": 59.19858, "longitude": 17.83317, "state": "Stockholm"}, {"city": "Tullinge", "latitude": 59.2, "longitude": 17.9, "state": "Stockholm"}, {"city": "Trosa", "latitude": 58.89621, "longitude": 17.54812, "state": "S\u00f6dermanland"}, {"city": "Tr\u00f6nninge", "latitude": 56.61667, "longitude": 12.93333, "state": "Halland"}, {"city": "Trollh\u00e4ttan", "latitude": 58.28365, "longitude": 12.28864, "state": "V\u00e4stra G\u00f6taland"}, {"city": "Gimo", "latitude": 60.17304, "longitude": 18.18507, "state": "Uppsala"}, {"city": "Trelleborg", "latitude": 55.37514, "longitude": 13.15691, "state": "Sk\u00e5ne"}, {"city": "Trekanten", "latitude": 56.7, "longitude": 16.11667, "state": "Kalmar"}, {"city": "Tr\u00e4sl\u00f6vsl\u00e4ge", "latitude": 57.05417, "longitude": 12.27899, "state": "Halland"}, {"city": "Tranemo", "latitude": 57.48333, "longitude": 13.35, "state": "V\u00e4stra G\u00f6taland"}, {"city": "Tran\u00e5s", "latitude": 58.03717, "longitude": 14.9782, "state": "J\u00f6nk\u00f6ping"}, {"city": "Torup", "latitude": 56.95663, "longitude": 13.07725, "state": "Halland"}, {"city": "Torslanda", "latitude": 57.72432, "longitude": 11.77013, "state": "V\u00e4stra G\u00f6taland"}, {"city": "Torsh\u00e4lla", "latitude": 59.41667, "longitude": 16.46667, "state": "S\u00f6dermanland"}, {"city": "Torsby", "latitude": 60.13527, "longitude": 13.0082, "state": "V\u00e4rmland"}, {"city": "Tors\u00e5s", "latitude": 56.41251, "longitude": 15.99844, "state": "Kalmar"}, {"city": "Tormestorp", "latitude": 56.1135, "longitude": 13.74516, "state": "Sk\u00e5ne"}, {"city": "Torekov", "latitude": 56.425, "longitude": 12.63333, "state": "Sk\u00e5ne"}, {"city": "T\u00f6reboda", "latitude": 58.70739, "longitude": 14.12597, "state": "V\u00e4stra G\u00f6taland"}, {"city": "Tomelilla", "latitude": 55.54293, "longitude": 13.9546, "state": "Sk\u00e5ne"}, {"city": "Tollarp1", "latitude": 56.16667, "longitude": 14.28333, "state": "Sk\u00e5ne"}, {"city": "Tollarp", "latitude": 55.93333, "longitude": 13.98333, "state": "Sk\u00e5ne"}, {"city": "T\u00f6cksfors", "latitude": 59.50816, "longitude": 11.84431, "state": "V\u00e4rmland"}, {"city": "Tjuvkil", "latitude": 57.9, "longitude": 11.73333, "state": "V\u00e4stra G\u00f6taland"}, {"city": "Tingsryd", "latitude": 56.5247, "longitude": 14.97902, "state": "Kronoberg"}, {"city": "Timr\u00e5", "latitude": 62.48654, "longitude": 17.32613, "state": "V\u00e4sternorrland"}, {"city": "Timmernabben", "latitude": 56.96667, "longitude": 16.43333, "state": "Kalmar"}, {"city": "Tillberga", "latitude": 59.68333, "longitude": 16.61667, "state": "V\u00e4stmanland"}, {"city": "Tierp", "latitude": 60.34269, "longitude": 17.51812, "state": "Uppsala"}, {"city": "Tidaholm", "latitude": 58.18035, "longitude": 13.95824, "state": "V\u00e4stra G\u00f6taland"}, {"city": "Tibro", "latitude": 58.42453, "longitude": 14.16162, "state": "V\u00e4stra G\u00f6taland"}, {"city": "Tenhult", "latitude": 57.70761, "longitude": 14.32205, "state": "J\u00f6nk\u00f6ping"}, {"city": "Teckomatorp", "latitude": 55.86667, "longitude": 13.08333, "state": "Sk\u00e5ne"}, {"city": "T\u00e4rnsj\u00f6", "latitude": 60.15, "longitude": 16.93333, "state": "Uppsala"}, {"city": "Tanumshede", "latitude": 58.72385, "longitude": 11.32587, "state": "V\u00e4stra G\u00f6taland"}, {"city": "Tallboda", "latitude": 58.42521, "longitude": 15.68154, "state": "\u00d6sterg\u00f6tland"}, {"city": "T\u00e4by", "latitude": 59.4439, "longitude": 18.06872, "state": "Stockholm"}, {"city": "Taberg", "latitude": 57.67722, "longitude": 14.08876, "state": "J\u00f6nk\u00f6ping"}, {"city": "Svenljunga", "latitude": 57.49551, "longitude": 13.11078, "state": "V\u00e4stra G\u00f6taland"}, {"city": "Sveg", "latitude": 62.03407, "longitude": 14.36577, "state": "J\u00e4mtland"}, {"city": "Svedala", "latitude": 55.50788, "longitude": 13.23515, "state": "Sk\u00e5ne"}, {"city": "Sv\u00e4rtinge", "latitude": 58.65507, "longitude": 16.02823, "state": "\u00d6sterg\u00f6tland"}, {"city": "Sv\u00e4rdsj\u00f6", "latitude": 60.74022, "longitude": 15.90173, "state": "Dalarna"}, {"city": "Sv\u00e4ngsta", "latitude": 56.26667, "longitude": 14.76667, "state": "Blekinge"}, {"city": "Svanesund", "latitude": 58.14292, "longitude": 11.81821, "state": "V\u00e4stra G\u00f6taland"}, {"city": "Svalsta", "latitude": 58.74273, "longitude": 16.86978, "state": "S\u00f6dermanland"}, {"city": "Sval\u00f6v", "latitude": 55.9134, "longitude": 13.10762, "state": "Sk\u00e5ne"}, {"city": "Surte", "latitude": 57.82533, "longitude": 12.01604, "state": "V\u00e4stra G\u00f6taland"}, {"city": "Surahammar", "latitude": 59.70725, "longitude": 16.22188, "state": "V\u00e4stmanland"}, {"city": "Sunne", "latitude": 59.83764, "longitude": 13.14302, "state": "V\u00e4rmland"}, {"city": "Sundsvall", "latitude": 62.39129, "longitude": 17.3063, "state": "V\u00e4sternorrland"}, {"city": "Sundsbruk", "latitude": 62.45806, "longitude": 17.34889, "state": "V\u00e4sternorrland"}, {"city": "Sundbyberg", "latitude": 59.36128, "longitude": 17.97114, "state": "Stockholm"}, {"city": "Styrs\u00f6", "latitude": 57.61639, "longitude": 11.78556, "state": "V\u00e4stra G\u00f6taland"}, {"city": "Sturk\u00f6", "latitude": 56.08333, "longitude": 15.7, "state": "Blekinge"}, {"city": "Sturefors", "latitude": 58.33333, "longitude": 15.73333, "state": "\u00d6sterg\u00f6tland"}, {"city": "Str\u00f6velstorp", "latitude": 56.16979, "longitude": 12.83925, "state": "Sk\u00e5ne"}, {"city": "Str\u00f6msund", "latitude": 63.85206, "longitude": 15.55583, "state": "J\u00e4mtland"}, {"city": "Str\u00f6mstad", "latitude": 58.93945, "longitude": 11.1712, "state": "V\u00e4stra G\u00f6taland"}, {"city": "Str\u00f6msn\u00e4sbruk", "latitude": 56.55, "longitude": 13.71667, "state": "Kronoberg"}, {"city": "Str\u00f6mma", "latitude": 59.28333, "longitude": 18.53333, "state": "Stockholm"}, {"city": "Str\u00e4ngn\u00e4s", "latitude": 59.37741, "longitude": 17.03119, "state": "S\u00f6dermanland"}, {"city": "Storvreta", "latitude": 59.95933, "longitude": 17.70588, "state": "Uppsala"}, {"city": "Storvik", "latitude": 60.58333, "longitude": 16.53333, "state": "G\u00e4vleborg"}, {"city": "Storuman", "latitude": 65.0959, "longitude": 17.11731, "state": "V\u00e4sterbotten"}, {"city": "Storfors", "latitude": 59.53183, "longitude": 14.27201, "state": "V\u00e4rmland"}, {"city": "Storebro", "latitude": 57.58333, "longitude": 15.85, "state": "Kalmar"}, {"city": "Stora H\u00f6ga", "latitude": 58.01667, "longitude": 11.83333, "state": "V\u00e4stra G\u00f6taland"}, {"city": "Stor\u00e5", "latitude": 59.71409, "longitude": 15.13169, "state": "\u00d6rebro"}, {"city": "St\u00f6pen", "latitude": 58.47802, "longitude": 13.86611, "state": "V\u00e4stra G\u00f6taland"}, {"city": "Stockvik", "latitude": 62.33667, "longitude": 17.36583, "state": "V\u00e4sternorrland"}, {"city": "Stockholm", "latitude": 59.32938, "longitude": 18.06871, "state": null}, {"city": "Stockaryd", "latitude": 57.31737, "longitude": 14.59341, "state": "J\u00f6nk\u00f6ping"}, {"city": "Stigtomta", "latitude": 58.8, "longitude": 16.78333, "state": "S\u00f6dermanland"}, {"city": "Stenungsund", "latitude": 58.07046, "longitude": 11.8181, "state": "V\u00e4stra G\u00f6taland"}, {"city": "Stenstorp", "latitude": 58.48333, "longitude": 15.06667, "state": "\u00d6sterg\u00f6tland"}, {"city": "Stenstorp", "latitude": 58.27254, "longitude": 13.71454, "state": "V\u00e4stra G\u00f6taland"}, {"city": "Stenkullen", "latitude": 57.79476, "longitude": 12.31688, "state": "V\u00e4stra G\u00f6taland"}, {"city": "Steninge", "latitude": 56.769, "longitude": 12.63034, "state": "Halland"}, {"city": "Stenhamra", "latitude": 59.3344, "longitude": 17.68842, "state": "Stockholm"}, {"city": "Stehag", "latitude": 55.90188, "longitude": 13.39577, "state": "Sk\u00e5ne"}, {"city": "Stavsn\u00e4s", "latitude": 59.28333, "longitude": 18.68333, "state": "Stockholm"}, {"city": "St\u00e5ngby", "latitude": 55.7503, "longitude": 13.19797, "state": "Sk\u00e5ne"}, {"city": "Stallarholmen", "latitude": 59.36667, "longitude": 17.2, "state": "S\u00f6dermanland"}, {"city": "Staffanstorp", "latitude": 55.64277, "longitude": 13.20638, "state": "Sk\u00e5ne"}, {"city": "Gamla Stan", "latitude": 59.32627, "longitude": 18.07251, "state": "Stockholm"}, {"city": "S\u00f6sdala", "latitude": 56.03992, "longitude": 13.67811, "state": "Sk\u00e5ne"}, {"city": "Sorsele", "latitude": 65.53484, "longitude": 17.53702, "state": "V\u00e4sterbotten"}, {"city": "S\u00f6rforsa", "latitude": 61.73333, "longitude": 16.98333, "state": "G\u00e4vleborg"}, {"city": "S\u00f6r\u00e5ker", "latitude": 62.50561, "longitude": 17.51032, "state": "V\u00e4sternorrland"}, {"city": "S\u00f6lvesborg", "latitude": 56.05205, "longitude": 14.57525, "state": "Blekinge"}, {"city": "Solna", "latitude": 59.36004, "longitude": 18.00086, "state": "Stockholm"}, {"city": "Sollentuna", "latitude": 59.42804, "longitude": 17.95093, "state": "Stockholm"}, {"city": "Sollefte\u00e5", "latitude": 63.16667, "longitude": 17.26667, "state": "V\u00e4sternorrland"}, {"city": "Sollebrunn", "latitude": 58.11667, "longitude": 12.53333, "state": "V\u00e4stra G\u00f6taland"}, {"city": "S\u00f6dra Vi", "latitude": 57.73993, "longitude": 15.79391, "state": "Kalmar"}, {"city": "S\u00f6dra Sandby", "latitude": 56.56667, "longitude": 16.61667, "state": "Kalmar"}, {"city": "S\u00f6dra Sandby", "latitude": 55.71677, "longitude": 13.34659, "state": "Sk\u00e5ne"}, {"city": "S\u00f6dert\u00e4lje", "latitude": 59.19554, "longitude": 17.62525, "state": "Stockholm"}, {"city": "S\u00f6dermalm", "latitude": 59.31278, "longitude": 18.07577, "state": "Stockholm"}, {"city": "S\u00f6derk\u00f6ping", "latitude": 58.48057, "longitude": 16.32221, "state": "\u00d6sterg\u00f6tland"}, {"city": "S\u00f6derhamn", "latitude": 61.30373, "longitude": 17.05921, "state": "G\u00e4vleborg"}, {"city": "S\u00f6derfors", "latitude": 64.81667, "longitude": 18.05, "state": "V\u00e4sterbotten"}, {"city": "S\u00f6derfors", "latitude": 60.38333, "longitude": 17.23333, "state": "Uppsala"}, {"city": "Smygehamn", "latitude": 55.34337, "longitude": 13.36989, "state": "Sk\u00e5ne"}, {"city": "Sm\u00f6gen", "latitude": 58.35593, "longitude": 11.22411, "state": "V\u00e4stra G\u00f6taland"}, {"city": "Smedjebacken", "latitude": 60.14181, "longitude": 15.41416, "state": "Dalarna"}, {"city": "Smedby", "latitude": 60.7, "longitude": 15.05, "state": "Dalarna"}, {"city": "Smedby", "latitude": 56.67413, "longitude": 16.2432, "state": "Kalmar"}, {"city": "Sm\u00e5landsstenar", "latitude": 57.16241, "longitude": 13.41212, "state": "J\u00f6nk\u00f6ping"}, {"city": "Slottsbron", "latitude": 59.3227, "longitude": 13.10268, "state": "V\u00e4rmland"}, {"city": "Skutsk\u00e4r", "latitude": 60.62507, "longitude": 17.41552, "state": "Uppsala"}, {"city": "Skurup", "latitude": 55.47839, "longitude": 13.50186, "state": "Sk\u00e5ne"}, {"city": "Skultuna", "latitude": 59.71667, "longitude": 16.41667, "state": "V\u00e4stmanland"}, {"city": "Skultorp", "latitude": 58.35, "longitude": 13.83333, "state": "V\u00e4stra G\u00f6taland"}, {"city": "Skrea", "latitude": 56.88333, "longitude": 12.56667, "state": "Halland"}, {"city": "Sk\u00f6vde", "latitude": 58.39118, "longitude": 13.84506, "state": "V\u00e4stra G\u00f6taland"}, {"city": "Skottsund", "latitude": 62.29056, "longitude": 17.38694, "state": "V\u00e4sternorrland"}, {"city": "Sk\u00f6llersta", "latitude": 59.13738, "longitude": 15.3394, "state": "\u00d6rebro"}, {"city": "Skogstorp", "latitude": 59.32472, "longitude": 16.48284, "state": "S\u00f6dermanland"}, {"city": "Skoghall", "latitude": 59.32324, "longitude": 13.46552, "state": "V\u00e4rmland"}, {"city": "Skivarp", "latitude": 55.41667, "longitude": 13.56667, "state": "Sk\u00e5ne"}, {"city": "Skinnskatteberg", "latitude": 59.83028, "longitude": 15.69337, "state": "V\u00e4stmanland"}, {"city": "Skillingaryd", "latitude": 57.43044, "longitude": 14.09383, "state": "J\u00f6nk\u00f6ping"}, {"city": "Skepplanda", "latitude": 57.98333, "longitude": 12.2, "state": "V\u00e4stra G\u00f6taland"}, {"city": "Skegrie", "latitude": 55.40633, "longitude": 13.07693, "state": "Sk\u00e5ne"}, {"city": "Skattk\u00e4rr", "latitude": 59.41208, "longitude": 13.67078, "state": "V\u00e4rmland"}, {"city": "Sk\u00e4rhamn", "latitude": 57.98665, "longitude": 11.55742, "state": "V\u00e4stra G\u00f6taland"}, {"city": "Sk\u00e5re", "latitude": 55.38333, "longitude": 13.05, "state": "Sk\u00e5ne"}, {"city": "Sk\u00e5re", "latitude": 59.43333, "longitude": 13.43333, "state": "V\u00e4rmland"}, {"city": "Sk\u00e4rblacka", "latitude": 58.56667, "longitude": 15.9, "state": "\u00d6sterg\u00f6tland"}, {"city": "Skara", "latitude": 58.38659, "longitude": 13.43836, "state": "V\u00e4stra G\u00f6taland"}, {"city": "Sk\u00e4nninge", "latitude": 59.93333, "longitude": 18.48333, "state": "Stockholm"}, {"city": "Sk\u00e4nninge", "latitude": 58.39427, "longitude": 15.08659, "state": "\u00d6sterg\u00f6tland"}, {"city": "Sjuntorp", "latitude": 58.2, "longitude": 12.21667, "state": "V\u00e4stra G\u00f6taland"}, {"city": "Sj\u00f6marken", "latitude": 57.71533, "longitude": 12.83495, "state": "V\u00e4stra G\u00f6taland"}, {"city": "Sj\u00f6bo", "latitude": 55.63135, "longitude": 13.70622, "state": "Sk\u00e5ne"}, {"city": "Simrishamn", "latitude": 55.55653, "longitude": 14.35037, "state": "Sk\u00e5ne"}, {"city": "Siljansn\u00e4s", "latitude": 60.78333, "longitude": 14.85, "state": "Dalarna"}, {"city": "Sigtuna", "latitude": 59.61731, "longitude": 17.72361, "state": "Stockholm"}, {"city": "Sibbhult", "latitude": 56.26667, "longitude": 14.2, "state": "Sk\u00e5ne"}, {"city": "Segeltorp", "latitude": 59.27597, "longitude": 17.93072, "state": "Stockholm"}, {"city": "S\u00e4vsj\u00f6", "latitude": 57.40327, "longitude": 14.66244, "state": "J\u00f6nk\u00f6ping"}, {"city": "S\u00e4vja", "latitude": 59.81872, "longitude": 17.69958, "state": "Uppsala"}, {"city": "S\u00e4tofta", "latitude": 55.91667, "longitude": 13.55, "state": "Sk\u00e5ne"}, {"city": "S\u00e4tila", "latitude": 57.54172, "longitude": 12.43429, "state": "V\u00e4stra G\u00f6taland"}, {"city": "S\u00e4ter", "latitude": 60.34778, "longitude": 15.75051, "state": "Dalarna"}, {"city": "S\u00e4r\u00f6", "latitude": 57.50577, "longitude": 11.9321, "state": "Halland"}, {"city": "Sandviken", "latitude": 60.61667, "longitude": 16.76667, "state": "G\u00e4vleborg"}, {"city": "Sandarne", "latitude": 61.25893, "longitude": 17.15284, "state": "G\u00e4vleborg"}, {"city": "Sandared", "latitude": 57.70992, "longitude": 12.79238, "state": "V\u00e4stra G\u00f6taland"}, {"city": "Saltsj\u00f6baden", "latitude": 59.28333, "longitude": 18.3, "state": "Stockholm"}, {"city": "S\u00e5landa", "latitude": 57.98333, "longitude": 12.21667, "state": "V\u00e4stra G\u00f6taland"}, {"city": "Sala", "latitude": 59.91993, "longitude": 16.60655, "state": "V\u00e4stmanland"}, {"city": "S\u00e4ffle", "latitude": 59.13229, "longitude": 12.92888, "state": "V\u00e4rmland"}, {"city": "Rydsg\u00e5rd", "latitude": 55.47285, "longitude": 13.58829, "state": "Sk\u00e5ne"}, {"city": "Rydeb\u00e4ck", "latitude": 55.96667, "longitude": 12.76667, "state": "Sk\u00e5ne"}, {"city": "Rydaholm", "latitude": 56.98388, "longitude": 14.30849, "state": "J\u00f6nk\u00f6ping"}, {"city": "Ryd", "latitude": 58.66667, "longitude": 15.08333, "state": "\u00d6sterg\u00f6tland"}, {"city": "Ryd", "latitude": 56.46667, "longitude": 14.68333, "state": "Kronoberg"}, {"city": "Rottne", "latitude": 57.01667, "longitude": 14.9, "state": "Kronoberg"}, {"city": "Rosersberg", "latitude": 59.58333, "longitude": 17.88333, "state": "Stockholm"}, {"city": "R\u00f6nninge", "latitude": 59.2, "longitude": 17.73333, "state": "Stockholm"}, {"city": "Ronneby", "latitude": 56.20999, "longitude": 15.27602, "state": "Blekinge"}, {"city": "R\u00f6nn\u00e4ng", "latitude": 57.93333, "longitude": 11.58333, "state": "V\u00e4stra G\u00f6taland"}, {"city": "Romme", "latitude": 60.43333, "longitude": 15.5, "state": "Dalarna"}, {"city": "R\u00f6deby", "latitude": 56.26078, "longitude": 15.62143, "state": "Blekinge"}, {"city": "Rinkabyholm", "latitude": 56.64972, "longitude": 16.26667, "state": "Kalmar"}, {"city": "Rind\u00f6", "latitude": 59.39688, "longitude": 18.39434, "state": "Stockholm"}, {"city": "Rimforsa", "latitude": 58.13624, "longitude": 15.6865, "state": "\u00d6sterg\u00f6tland"}, {"city": "Rimbo", "latitude": 59.75, "longitude": 18.36667, "state": "Stockholm"}, {"city": "Resar\u00f6", "latitude": 59.4291, "longitude": 18.33386, "state": "Stockholm"}, {"city": "Reftele", "latitude": 57.17467, "longitude": 13.59498, "state": "J\u00f6nk\u00f6ping"}, {"city": "R\u00e4vlanda", "latitude": 57.65338, "longitude": 12.49791, "state": "V\u00e4stra G\u00f6taland"}, {"city": "R\u00e4ttvik", "latitude": 60.88632, "longitude": 15.11787, "state": "Dalarna"}, {"city": "R\u00e5torp", "latitude": 59.40197, "longitude": 13.49144, "state": "V\u00e4rmland"}, {"city": "R\u00e5sunda", "latitude": 59.36588, "longitude": 17.99569, "state": "Stockholm"}, {"city": "Ramn\u00e4s", "latitude": 59.76667, "longitude": 16.2, "state": "V\u00e4stmanland"}, {"city": "Perstorp", "latitude": 56.13829, "longitude": 13.39476, "state": "Sk\u00e5ne"}, {"city": "Pershagen", "latitude": 59.15494, "longitude": 17.6534, "state": "Stockholm"}, {"city": "P\u00e5skallavik", "latitude": 57.16667, "longitude": 16.45, "state": "Kalmar"}, {"city": "Partille", "latitude": 57.7395, "longitude": 12.10642, "state": "V\u00e4stra G\u00f6taland"}, {"city": "P\u00e5lsboda", "latitude": 59.06565, "longitude": 15.33747, "state": "\u00d6rebro"}, {"city": "P\u00e5arp", "latitude": 56.03333, "longitude": 12.81667, "state": "Sk\u00e5ne"}, {"city": "Oxie", "latitude": 55.54014, "longitude": 13.09605, "state": "Sk\u00e5ne"}, {"city": "Oxel\u00f6sund", "latitude": 58.67057, "longitude": 17.10152, "state": "S\u00f6dermanland"}, {"city": "\u00d6verum", "latitude": 57.98856, "longitude": 16.3139, "state": "Kalmar"}, {"city": "\u00d6stra Ljungby", "latitude": 56.19601, "longitude": 13.09199, "state": "Sk\u00e5ne"}, {"city": "\u00d6sthammar", "latitude": 60.25909, "longitude": 18.37408, "state": "Uppsala"}, {"city": "\u00d6sterv\u00e5la", "latitude": 60.18333, "longitude": 17.18333, "state": "Uppsala"}, {"city": "\u00d6stersund", "latitude": 63.1792, "longitude": 14.63566, "state": "J\u00e4mtland"}, {"city": "\u00d6stermalm", "latitude": 59.33879, "longitude": 18.08487, "state": "Stockholm"}, {"city": "\u00d6sterbymo", "latitude": 57.82465, "longitude": 15.27357, "state": "\u00d6sterg\u00f6tland"}, {"city": "\u00d6sterbybruk", "latitude": 60.2, "longitude": 17.9, "state": "Uppsala"}, {"city": "\u00d6smo", "latitude": 58.98333, "longitude": 17.9, "state": "Stockholm"}, {"city": "Oskarstr\u00f6m", "latitude": 56.8, "longitude": 12.96667, "state": "Halland"}, {"city": "Oskarshamn", "latitude": 57.26455, "longitude": 16.44837, "state": "Kalmar"}, {"city": "Osby", "latitude": 56.38165, "longitude": 13.99364, "state": "Sk\u00e5ne"}, {"city": "\u00d6rsundsbro", "latitude": 59.73333, "longitude": 17.3, "state": "Uppsala"}, {"city": "Orsa", "latitude": 61.12034, "longitude": 14.6155, "state": "Dalarna"}, {"city": "\u00d6rnsk\u00f6ldsvik", "latitude": 63.29091, "longitude": 18.71525, "state": "V\u00e4sternorrland"}, {"city": "Orn\u00e4s", "latitude": 60.50944, "longitude": 15.54128, "state": "Dalarna"}, {"city": "\u00d6rkelljunga", "latitude": 56.28338, "longitude": 13.27773, "state": "Sk\u00e5ne"}, {"city": "\u00d6regrund", "latitude": 60.33333, "longitude": 18.43333, "state": "Uppsala"}, {"city": "\u00d6rebro", "latitude": 59.27412, "longitude": 15.2066, "state": null}, {"city": "\u00d6rbyhus", "latitude": 60.22407, "longitude": 17.70138, "state": "Uppsala"}, {"city": "\u00d6nnestad", "latitude": 56.05747, "longitude": 14.02233, "state": "Sk\u00e5ne"}, {"city": "Olstorp", "latitude": 58.81667, "longitude": 16.63333, "state": "S\u00f6dermanland"}, {"city": "Olofstr\u00f6m", "latitude": 56.2773, "longitude": 14.53402, "state": "Blekinge"}, {"city": "Olofstorp", "latitude": 58.25, "longitude": 14.0, "state": "V\u00e4stra G\u00f6taland"}, {"city": "Olofstorp", "latitude": 57.80444, "longitude": 12.17131, "state": "V\u00e4stra G\u00f6taland"}, {"city": "\u00d6jersj\u00f6", "latitude": 57.69882, "longitude": 12.13448, "state": "V\u00e4stra G\u00f6taland"}, {"city": "\u00d6dsm\u00e5l", "latitude": 58.1, "longitude": 11.85, "state": "V\u00e4stra G\u00f6taland"}, {"city": "\u00d6desh\u00f6g", "latitude": 58.22949, "longitude": 14.65294, "state": "\u00d6sterg\u00f6tland"}, {"city": "Odensj\u00f6", "latitude": 57.71667, "longitude": 14.16667, "state": "J\u00f6nk\u00f6ping"}, {"city": "Odensbacken", "latitude": 59.16667, "longitude": 15.53333, "state": "\u00d6rebro"}, {"city": "\u00d6d\u00e5kra", "latitude": 56.10412, "longitude": 12.7477, "state": "Sk\u00e5ne"}, {"city": "\u00d6cker\u00f6", "latitude": 57.70814, "longitude": 11.65585, "state": "V\u00e4stra G\u00f6taland"}, {"city": "Ockelbo", "latitude": 60.8912, "longitude": 16.71846, "state": "G\u00e4vleborg"}, {"city": "Nyn\u00e4shamn", "latitude": 58.90337, "longitude": 17.94793, "state": "Stockholm"}, {"city": "Nykvarn", "latitude": 59.8, "longitude": 18.3, "state": "Stockholm"}, {"city": "Nykvarn", "latitude": 59.17718, "longitude": 17.4323, "state": "Stockholm"}, {"city": "Nyk\u00f6ping", "latitude": 58.753, "longitude": 17.00788, "state": "S\u00f6dermanland"}, {"city": "Nyhammar", "latitude": 60.28333, "longitude": 14.96667, "state": "Dalarna"}, {"city": "Nybro", "latitude": 56.74461, "longitude": 15.90714, "state": "Kalmar"}, {"city": "Nossebro", "latitude": 58.18808, "longitude": 12.71599, "state": "V\u00e4stra G\u00f6taland"}, {"city": "Norsj\u00f6", "latitude": 64.91206, "longitude": 19.48153, "state": "V\u00e4sterbotten"}, {"city": "Norrt\u00e4lje", "latitude": 59.75799, "longitude": 18.70496, "state": "Stockholm"}, {"city": "Norrk\u00f6ping", "latitude": 58.59419, "longitude": 16.1826, "state": "\u00d6sterg\u00f6tland"}, {"city": "Norra \u00c5sum", "latitude": 55.98333, "longitude": 14.15, "state": "Sk\u00e5ne"}, {"city": "Nordmaling", "latitude": 63.56852, "longitude": 19.50244, "state": "V\u00e4sterbotten"}, {"city": "Norberg", "latitude": 60.06505, "longitude": 15.92366, "state": "V\u00e4stmanland"}, {"city": "Nora", "latitude": 59.51926, "longitude": 15.03979, "state": "\u00d6rebro"}, {"city": "Nolby", "latitude": 62.2875, "longitude": 17.36917, "state": "V\u00e4sternorrland"}, {"city": "Njurundabommen", "latitude": 62.26339, "longitude": 17.38354, "state": "V\u00e4sternorrland"}, {"city": "N\u00e4ttraby", "latitude": 56.2, "longitude": 15.51667, "state": "Blekinge"}, {"city": "N\u00e4sum", "latitude": 56.17693, "longitude": 14.49706, "state": "Sk\u00e5ne"}, {"city": "N\u00e4ssj\u00f6", "latitude": 57.65307, "longitude": 14.69676, "state": "J\u00f6nk\u00f6ping"}, {"city": "Nacka", "latitude": 59.31053, "longitude": 18.16372, "state": "Stockholm"}, {"city": "Myggen\u00e4s", "latitude": 58.06176, "longitude": 11.74936, "state": "V\u00e4stra G\u00f6taland"}, {"city": "Munkfors", "latitude": 59.83856, "longitude": 13.54361, "state": "V\u00e4rmland"}, {"city": "Munkedal", "latitude": 58.46634, "longitude": 11.67345, "state": "V\u00e4stra G\u00f6taland"}, {"city": "Munka-Ljungby", "latitude": 56.25, "longitude": 12.96667, "state": "Sk\u00e5ne"}, {"city": "Mullsj\u00f6", "latitude": 57.9171, "longitude": 13.87831, "state": "J\u00f6nk\u00f6ping"}, {"city": "Motala", "latitude": 58.53706, "longitude": 15.03649, "state": "\u00d6sterg\u00f6tland"}, {"city": "M\u00f6rtn\u00e4s", "latitude": 59.31862, "longitude": 18.44312, "state": "Stockholm"}, {"city": "M\u00f6rrum", "latitude": 56.19281, "longitude": 14.74739, "state": "Blekinge"}, {"city": "Morgong\u00e5va", "latitude": 59.93395, "longitude": 16.96353, "state": "Uppsala"}, {"city": "M\u00f6rbyl\u00e5nga", "latitude": 56.5248, "longitude": 16.37877, "state": "Kalmar"}, {"city": "M\u00f6rarp", "latitude": 56.05749, "longitude": 12.88018, "state": "Sk\u00e5ne"}, {"city": "Mora", "latitude": 61.00704, "longitude": 14.54316, "state": "Dalarna"}, {"city": "M\u00f6nster\u00e5s", "latitude": 57.04134, "longitude": 16.44463, "state": "Kalmar"}, {"city": "M\u00f6lnlycke", "latitude": 57.65893, "longitude": 12.11792, "state": "V\u00e4stra G\u00f6taland"}, {"city": "M\u00f6lndal", "latitude": 57.6554, "longitude": 12.01378, "state": "V\u00e4stra G\u00f6taland"}, {"city": "M\u00f6lnbo", "latitude": 59.05, "longitude": 17.41667, "state": "Stockholm"}, {"city": "M\u00f6lltorp", "latitude": 58.5, "longitude": 14.4, "state": "V\u00e4stra G\u00f6taland"}, {"city": "Molkom", "latitude": 59.60057, "longitude": 13.72115, "state": "V\u00e4rmland"}, {"city": "Moheda", "latitude": 57.0, "longitude": 14.56667, "state": "Kronoberg"}, {"city": "Mockfj\u00e4rd", "latitude": 60.5, "longitude": 14.96667, "state": "Dalarna"}, {"city": "Mj\u00f6lby", "latitude": 58.32595, "longitude": 15.12365, "state": "\u00d6sterg\u00f6tland"}, {"city": "Mj\u00e4llby", "latitude": 56.68333, "longitude": 12.76667, "state": "Halland"}, {"city": "Mj\u00e4llby", "latitude": 56.05, "longitude": 14.68333, "state": "Blekinge"}, {"city": "Mellerud", "latitude": 58.69979, "longitude": 12.45312, "state": "V\u00e4stra G\u00f6taland"}, {"city": "Mellbystrand", "latitude": 56.48561, "longitude": 12.93958, "state": "Halland"}, {"city": "Matfors", "latitude": 62.34864, "longitude": 17.03173, "state": "V\u00e4sternorrland"}, {"city": "M\u00e4rsta", "latitude": 59.62157, "longitude": 17.85476, "state": "Stockholm"}, {"city": "Markaryd", "latitude": 56.46135, "longitude": 13.59644, "state": "Kronoberg"}, {"city": "Mariestad", "latitude": 58.70971, "longitude": 13.82367, "state": "V\u00e4stra G\u00f6taland"}, {"city": "Marieholm", "latitude": 57.38333, "longitude": 13.85, "state": "J\u00f6nk\u00f6ping"}, {"city": "Marieholm", "latitude": 55.86667, "longitude": 13.15, "state": "Sk\u00e5ne"}, {"city": "Mariefred", "latitude": 59.25963, "longitude": 17.223, "state": "S\u00f6dermanland"}, {"city": "Mariannelund", "latitude": 57.61667, "longitude": 15.56667, "state": "J\u00f6nk\u00f6ping"}, {"city": "Mantorp", "latitude": 58.35, "longitude": 15.28333, "state": "\u00d6sterg\u00f6tland"}, {"city": "Malung", "latitude": 60.68329, "longitude": 13.71542, "state": "Dalarna"}, {"city": "Malmsl\u00e4tt", "latitude": 58.41102, "longitude": 15.51647, "state": "\u00d6sterg\u00f6tland"}, {"city": "Malm\u00f6", "latitude": 55.60587, "longitude": 13.00073, "state": "Sk\u00e5ne"}, {"city": "Malmk\u00f6ping", "latitude": 59.13333, "longitude": 16.73333, "state": "S\u00f6dermanland"}, {"city": "Malmb\u00e4ck", "latitude": 57.57667, "longitude": 14.4617, "state": "J\u00f6nk\u00f6ping"}, {"city": "M\u00e5lilla", "latitude": 57.38773, "longitude": 15.80675, "state": "Kalmar"}, {"city": "Mal\u00e5", "latitude": 65.18501, "longitude": 18.74243, "state": "V\u00e4sterbotten"}, {"city": "Lysekil", "latitude": 58.27429, "longitude": 11.43576, "state": "V\u00e4stra G\u00f6taland"}, {"city": "Lycksele", "latitude": 64.59537, "longitude": 18.67351, "state": "V\u00e4sterbotten"}, {"city": "Lund", "latitude": 55.70584, "longitude": 13.19321, "state": "Sk\u00e5ne"}, {"city": "Ludvika", "latitude": 60.14959, "longitude": 15.18776, "state": "Dalarna"}, {"city": "L\u00f6vstal\u00f6t", "latitude": 59.9574, "longitude": 17.57826, "state": "Uppsala"}, {"city": "L\u00f6nsboda", "latitude": 56.4, "longitude": 14.31667, "state": "Sk\u00e5ne"}, {"city": "Lomma", "latitude": 55.67244, "longitude": 13.06849, "state": "Sk\u00e5ne"}, {"city": "L\u00f6d\u00f6se", "latitude": 58.02994, "longitude": 12.15934, "state": "V\u00e4stra G\u00f6taland"}, {"city": "L\u00f6ddek\u00f6pinge", "latitude": 55.76667, "longitude": 13.01667, "state": "Sk\u00e5ne"}, {"city": "L\u00f6ber\u00f6d", "latitude": 55.7761, "longitude": 13.52414, "state": "Sk\u00e5ne"}, {"city": "Ljusne", "latitude": 61.2117, "longitude": 17.1279, "state": "G\u00e4vleborg"}, {"city": "Ljusdal", "latitude": 61.82883, "longitude": 16.09126, "state": "G\u00e4vleborg"}, {"city": "Ljungskile", "latitude": 58.22452, "longitude": 11.92014, "state": "V\u00e4stra G\u00f6taland"}, {"city": "Ljungsbro", "latitude": 58.51667, "longitude": 15.5, "state": "\u00d6sterg\u00f6tland"}, {"city": "Ljunghusen", "latitude": 55.39793, "longitude": 12.92486, "state": "Sk\u00e5ne"}, {"city": "Ljungbyholm", "latitude": 56.63333, "longitude": 16.16667, "state": "Kalmar"}, {"city": "Ljungbyhed", "latitude": 56.07437, "longitude": 13.2401, "state": "Sk\u00e5ne"}, {"city": "Ljungby", "latitude": 56.83324, "longitude": 13.94082, "state": "Kronoberg"}, {"city": "Lit", "latitude": 63.32029, "longitude": 14.84594, "state": "J\u00e4mtland"}, {"city": "Link\u00f6ping", "latitude": 58.41086, "longitude": 15.62157, "state": "\u00d6sterg\u00f6tland"}, {"city": "Linghem", "latitude": 58.43333, "longitude": 15.78333, "state": "\u00d6sterg\u00f6tland"}, {"city": "Lindsdal", "latitude": 56.73333, "longitude": 16.3, "state": "Kalmar"}, {"city": "Lindome", "latitude": 57.56667, "longitude": 12.08333, "state": "V\u00e4stra G\u00f6taland"}, {"city": "Lind\u00f6", "latitude": 58.61667, "longitude": 16.25, "state": "\u00d6sterg\u00f6tland"}, {"city": "Lindholmen", "latitude": 59.58333, "longitude": 18.1, "state": "Stockholm"}, {"city": "Lindesberg", "latitude": 59.59202, "longitude": 15.2304, "state": "\u00d6rebro"}, {"city": "Limmared", "latitude": 57.53592, "longitude": 13.35566, "state": "V\u00e4stra G\u00f6taland"}, {"city": "Lilla Edet", "latitude": 58.13333, "longitude": 12.13333, "state": "V\u00e4stra G\u00f6taland"}, {"city": "Lidk\u00f6ping", "latitude": 58.50517, "longitude": 13.15765, "state": "V\u00e4stra G\u00f6taland"}, {"city": "Liding\u00f6", "latitude": 59.36667, "longitude": 18.13333, "state": "Stockholm"}, {"city": "Lessebo", "latitude": 56.75185, "longitude": 15.26969, "state": "Kronoberg"}, {"city": "Lerum", "latitude": 57.77051, "longitude": 12.26904, "state": "V\u00e4stra G\u00f6taland"}, {"city": "Lenhovda", "latitude": 57.0, "longitude": 15.28333, "state": "Kronoberg"}, {"city": "Leksand", "latitude": 60.7303, "longitude": 14.99994, "state": "Dalarna"}, {"city": "Lax\u00e5", "latitude": 58.9863, "longitude": 14.61904, "state": "\u00d6rebro"}, {"city": "L\u00e5ngvik", "latitude": 59.24583, "longitude": 18.51667, "state": "Stockholm"}, {"city": "L\u00e5ngshyttan", "latitude": 60.45238, "longitude": 16.03831, "state": "Dalarna"}, {"city": "L\u00e5ngsele", "latitude": 63.18333, "longitude": 17.06667, "state": "V\u00e4sternorrland"}, {"city": "L\u00e4nghem", "latitude": 57.6, "longitude": 13.23333, "state": "V\u00e4stra G\u00f6taland"}, {"city": "Landvetter", "latitude": 57.68665, "longitude": 12.21169, "state": "V\u00e4stra G\u00f6taland"}, {"city": "Landskrona", "latitude": 55.8708, "longitude": 12.83016, "state": "Sk\u00e5ne"}, {"city": "Landsbro", "latitude": 57.36667, "longitude": 14.9, "state": "J\u00f6nk\u00f6ping"}, {"city": "Lammhult", "latitude": 57.16667, "longitude": 14.58333, "state": "Kronoberg"}, {"city": "Laholm", "latitude": 56.51207, "longitude": 13.04371, "state": "Halland"}, {"city": "Lagan", "latitude": 56.91667, "longitude": 13.98333, "state": "Kronoberg"}, {"city": "Kvissleby", "latitude": 62.29361, "longitude": 17.375, "state": "V\u00e4sternorrland"}, {"city": "Kvidinge", "latitude": 56.13386, "longitude": 13.04678, "state": "Sk\u00e5ne"}, {"city": "Kvicksund", "latitude": 59.45099, "longitude": 16.32131, "state": "S\u00f6dermanland"}, {"city": "Kv\u00e4num", "latitude": 58.3, "longitude": 13.18333, "state": "V\u00e4stra G\u00f6taland"}, {"city": "Kungs\u00f6r", "latitude": 59.42245, "longitude": 16.09656, "state": "V\u00e4stmanland"}, {"city": "Kungsholmen", "latitude": 59.33183, "longitude": 18.04118, "state": "Stockholm"}, {"city": "Kungshamn", "latitude": 58.36305, "longitude": 11.25938, "state": "V\u00e4stra G\u00f6taland"}, {"city": "Kungsbacka", "latitude": 57.48719, "longitude": 12.07612, "state": "Halland"}, {"city": "Kungs\u00e4ngen", "latitude": 59.47857, "longitude": 17.74834, "state": "Stockholm"}, {"city": "Kung\u00e4lv", "latitude": 57.87096, "longitude": 11.98054, "state": "V\u00e4stra G\u00f6taland"}, {"city": "Kummeln\u00e4s", "latitude": 59.35, "longitude": 18.28333, "state": "Stockholm"}, {"city": "Kumla", "latitude": 59.1277, "longitude": 15.14341, "state": "\u00d6rebro"}, {"city": "Krylbo", "latitude": 60.13333, "longitude": 16.21667, "state": "Dalarna"}, {"city": "Krokom", "latitude": 63.32589, "longitude": 14.44883, "state": "J\u00e4mtland"}, {"city": "Krokek", "latitude": 58.67231, "longitude": 16.36741, "state": "\u00d6sterg\u00f6tland"}, {"city": "Kristinehamn", "latitude": 59.30978, "longitude": 14.10808, "state": "V\u00e4rmland"}, {"city": "Kristianstad", "latitude": 56.03129, "longitude": 14.15242, "state": "Sk\u00e5ne"}, {"city": "Kristdala", "latitude": 57.4007, "longitude": 16.20496, "state": "Kalmar"}, {"city": "Kramfors", "latitude": 62.93161, "longitude": 17.77646, "state": "V\u00e4sternorrland"}, {"city": "Kopparmora", "latitude": 59.33306, "longitude": 18.58306, "state": "Stockholm"}, {"city": "Kopparberg", "latitude": 59.87597, "longitude": 14.99436, "state": "\u00d6rebro"}, {"city": "K\u00f6pmanholmen", "latitude": 63.16667, "longitude": 18.56667, "state": "V\u00e4sternorrland"}, {"city": "K\u00f6pingebro", "latitude": 55.45526, "longitude": 13.93453, "state": "Sk\u00e5ne"}, {"city": "K\u00f6ping", "latitude": 59.51404, "longitude": 15.99255, "state": "V\u00e4stmanland"}, {"city": "Kolsva", "latitude": 59.6, "longitude": 15.83333, "state": "V\u00e4stmanland"}, {"city": "Kolb\u00e4ck", "latitude": 59.56516, "longitude": 16.23037, "state": "V\u00e4stmanland"}, {"city": "Kode", "latitude": 57.94263, "longitude": 11.85051, "state": "V\u00e4stra G\u00f6taland"}, {"city": "Knivsta", "latitude": 59.72564, "longitude": 17.78753, "state": "Uppsala"}, {"city": "Knislinge", "latitude": 56.18333, "longitude": 14.08333, "state": "Sk\u00e5ne"}, {"city": "Kn\u00e4red", "latitude": 56.51861, "longitude": 13.32423, "state": "Halland"}, {"city": "Klippan", "latitude": 56.13559, "longitude": 13.13086, "state": "Sk\u00e5ne"}, {"city": "Klintehamn", "latitude": 57.38667, "longitude": 18.20371, "state": "Gotland"}, {"city": "Kl\u00e5gerup", "latitude": 55.59416, "longitude": 13.24574, "state": "Sk\u00e5ne"}, {"city": "Kista", "latitude": 59.40316, "longitude": 17.94479, "state": "Stockholm"}, {"city": "Kisa", "latitude": 57.98781, "longitude": 15.63303, "state": "\u00d6sterg\u00f6tland"}, {"city": "Kinna", "latitude": 57.50728, "longitude": 12.69463, "state": "V\u00e4stra G\u00f6taland"}, {"city": "Kimstad", "latitude": 58.54967, "longitude": 15.96296, "state": "\u00d6sterg\u00f6tland"}, {"city": "Kilafors", "latitude": 61.23333, "longitude": 16.56667, "state": "G\u00e4vleborg"}, {"city": "Kil", "latitude": 59.50234, "longitude": 13.31277, "state": "V\u00e4rmland"}, {"city": "Kaxholmen", "latitude": 57.85345, "longitude": 14.30457, "state": "J\u00f6nk\u00f6ping"}, {"city": "K\u00e4vlinge", "latitude": 55.79188, "longitude": 13.11021, "state": "Sk\u00e5ne"}, {"city": "Katrineholm", "latitude": 58.99587, "longitude": 16.20721, "state": "S\u00f6dermanland"}, {"city": "Karlstad", "latitude": 59.3793, "longitude": 13.50357, "state": "V\u00e4rmland"}, {"city": "Karlskrona", "latitude": 56.16156, "longitude": 15.58661, "state": "Blekinge"}, {"city": "Karlskoga", "latitude": 59.32667, "longitude": 14.52386, "state": "\u00d6rebro"}, {"city": "Karlshamn", "latitude": 56.1706, "longitude": 14.86188, "state": "Blekinge"}, {"city": "Karlsborg", "latitude": 58.53724, "longitude": 14.5047, "state": "V\u00e4stra G\u00f6taland"}, {"city": "Karlholmsbruk", "latitude": 60.52091, "longitude": 17.63152, "state": "Uppsala"}, {"city": "Kalmar", "latitude": 56.66157, "longitude": 16.36163, "state": null}, {"city": "Kallinge", "latitude": 56.24841, "longitude": 15.28721, "state": "Blekinge"}, {"city": "K\u00e5llered", "latitude": 57.60992, "longitude": 12.05106, "state": "V\u00e4stra G\u00f6taland"}, {"city": "K\u00e4llby", "latitude": 58.50999, "longitude": 13.30582, "state": "V\u00e4stra G\u00f6taland"}, {"city": "K\u00e5ger\u00f6d", "latitude": 55.99976, "longitude": 13.08795, "state": "Sk\u00e5ne"}, {"city": "Jursla", "latitude": 58.66667, "longitude": 16.18333, "state": "\u00d6sterg\u00f6tland"}, {"city": "J\u00f6rlanda", "latitude": 57.9863, "longitude": 11.82943, "state": "V\u00e4stra G\u00f6taland"}, {"city": "Jordbro", "latitude": 59.14972, "longitude": 18.11667, "state": "Stockholm"}, {"city": "Jonstorp", "latitude": 58.0, "longitude": 12.71667, "state": "V\u00e4stra G\u00f6taland"}, {"city": "Jonstorp", "latitude": 56.2338, "longitude": 12.67184, "state": "Sk\u00e5ne"}, {"city": "J\u00f6nk\u00f6ping", "latitude": 57.78145, "longitude": 14.15618, "state": null}, {"city": "Jokkmokk", "latitude": 66.60665, "longitude": 19.82324, "state": "Norrbotten"}, {"city": "Johannedal", "latitude": 62.43424, "longitude": 17.37273, "state": "V\u00e4sternorrland"}, {"city": "J\u00e4rvs\u00f6", "latitude": 61.71667, "longitude": 16.16667, "state": "G\u00e4vleborg"}, {"city": "J\u00e4rpen", "latitude": 63.3462, "longitude": 13.46572, "state": "J\u00e4mtland"}, {"city": "J\u00e4rna", "latitude": 60.53333, "longitude": 14.36667, "state": "Dalarna"}, {"city": "J\u00e4rna", "latitude": 59.09165, "longitude": 17.56615, "state": "Stockholm"}, {"city": "J\u00e4rbo", "latitude": 60.71667, "longitude": 16.6, "state": "G\u00e4vleborg"}, {"city": "J\u00e4msh\u00f6g", "latitude": 56.23333, "longitude": 14.51667, "state": "Blekinge"}, {"city": "J\u00e4mj\u00f6", "latitude": 56.19187, "longitude": 15.84115, "state": "Blekinge"}, {"city": "Jakobsberg", "latitude": 59.42268, "longitude": 17.83508, "state": "Stockholm"}, {"city": "Irsta", "latitude": 59.7, "longitude": 16.93333, "state": "Uppsala"}, {"city": "Irsta", "latitude": 59.6, "longitude": 16.7, "state": "V\u00e4stmanland"}, {"city": "Insj\u00f6n", "latitude": 64.4, "longitude": 17.48333, "state": "V\u00e4sterbotten"}, {"city": "Insj\u00f6n", "latitude": 60.67688, "longitude": 15.09487, "state": "Dalarna"}, {"city": "Ingelstad", "latitude": 56.75, "longitude": 14.91667, "state": "Kronoberg"}, {"city": "Iggesund", "latitude": 61.64219, "longitude": 17.07477, "state": "G\u00e4vleborg"}, {"city": "Hyltebruk", "latitude": 56.99892, "longitude": 13.23958, "state": "Halland"}, {"city": "Hyllinge", "latitude": 56.1, "longitude": 12.85, "state": "Sk\u00e5ne"}, {"city": "Husum", "latitude": 63.33333, "longitude": 19.16667, "state": "V\u00e4sternorrland"}, {"city": "Huskvarna", "latitude": 57.78596, "longitude": 14.30214, "state": "J\u00f6nk\u00f6ping"}, {"city": "Hunnebostrand", "latitude": 58.44127, "longitude": 11.3032, "state": "V\u00e4stra G\u00f6taland"}, {"city": "Hultsfred", "latitude": 57.48815, "longitude": 15.84357, "state": "Kalmar"}, {"city": "Hudiksvall", "latitude": 61.72744, "longitude": 17.10558, "state": "G\u00e4vleborg"}, {"city": "Huddinge", "latitude": 59.23705, "longitude": 17.98192, "state": "Stockholm"}, {"city": "Hovsta", "latitude": 59.35, "longitude": 15.21667, "state": "\u00d6rebro"}, {"city": "Hovmantorp", "latitude": 56.78685, "longitude": 15.14023, "state": "Kronoberg"}, {"city": "H\u00f6viksn\u00e4s", "latitude": 58.03333, "longitude": 11.76667, "state": "V\u00e4stra G\u00f6taland"}, {"city": "Hova", "latitude": 58.85363, "longitude": 14.21914, "state": "V\u00e4stra G\u00f6taland"}, {"city": "Horred", "latitude": 57.35475, "longitude": 12.47777, "state": "V\u00e4stra G\u00f6taland"}, {"city": "H\u00f6rnefors", "latitude": 63.62312, "longitude": 19.90856, "state": "V\u00e4sterbotten"}, {"city": "Horndal", "latitude": 60.3, "longitude": 16.41667, "state": "Dalarna"}, {"city": "H\u00f6rby", "latitude": 55.85238, "longitude": 13.66094, "state": "Sk\u00e5ne"}, {"city": "H\u00f6\u00f6r", "latitude": 55.93444, "longitude": 13.5385, "state": "Sk\u00e5ne"}, {"city": "H\u00f6n\u00f6", "latitude": 57.68972, "longitude": 11.64972, "state": "V\u00e4stra G\u00f6taland"}, {"city": "H\u00f6l\u00f6", "latitude": 59.28333, "longitude": 18.66667, "state": "Stockholm"}, {"city": "H\u00f6l\u00f6", "latitude": 59.01667, "longitude": 17.53333, "state": "Stockholm"}, {"city": "H\u00f6llviken", "latitude": 55.40982, "longitude": 12.9558, "state": "Sk\u00e5ne"}, {"city": "H\u00f6k\u00f6pinge", "latitude": 55.49411, "longitude": 13.00782, "state": "Sk\u00e5ne"}, {"city": "H\u00f6k\u00e5sen", "latitude": 59.66667, "longitude": 16.58333, "state": "V\u00e4stmanland"}, {"city": "H\u00f6gsby", "latitude": 57.16597, "longitude": 16.02562, "state": "Kalmar"}, {"city": "H\u00f6gan\u00e4s", "latitude": 56.19971, "longitude": 12.55795, "state": "Sk\u00e5ne"}, {"city": "Hofterup", "latitude": 55.80485, "longitude": 12.9797, "state": "Sk\u00e5ne"}, {"city": "Hofors", "latitude": 60.54573, "longitude": 16.28668, "state": "G\u00e4vleborg"}, {"city": "Hjuvik", "latitude": 57.70167, "longitude": 11.71639, "state": "V\u00e4stra G\u00f6taland"}, {"city": "Hjo", "latitude": 58.30133, "longitude": 14.28784, "state": "V\u00e4stra G\u00f6taland"}, {"city": "Hj\u00e4rnarp", "latitude": 56.31667, "longitude": 12.91667, "state": "Sk\u00e5ne"}, {"city": "Hittarp", "latitude": 56.28333, "longitude": 14.11667, "state": "Sk\u00e5ne"}, {"city": "Hittarp", "latitude": 56.1, "longitude": 12.63333, "state": "Sk\u00e5ne"}, {"city": "Hind\u00e5s", "latitude": 57.70338, "longitude": 12.44657, "state": "V\u00e4stra G\u00f6taland"}, {"city": "Hillerstorp", "latitude": 57.31293, "longitude": 13.88437, "state": "J\u00f6nk\u00f6ping"}, {"city": "Hestra", "latitude": 57.91667, "longitude": 14.58333, "state": "J\u00f6nk\u00f6ping"}, {"city": "Hestra", "latitude": 57.44232, "longitude": 13.59575, "state": "J\u00f6nk\u00f6ping"}, {"city": "Herrljunga", "latitude": 58.07739, "longitude": 13.02662, "state": "V\u00e4stra G\u00f6taland"}, {"city": "Herrestad", "latitude": 58.38333, "longitude": 14.8, "state": "\u00d6sterg\u00f6tland"}, {"city": "Hen\u00e5n", "latitude": 58.23848, "longitude": 11.67598, "state": "V\u00e4stra G\u00f6taland"}, {"city": "Hemse", "latitude": 57.23788, "longitude": 18.37443, "state": "Gotland"}, {"city": "Hemmesta", "latitude": 59.32273, "longitude": 18.48675, "state": "Stockholm"}, {"city": "Helsingborg", "latitude": 56.04673, "longitude": 12.69437, "state": "Sk\u00e5ne"}, {"city": "Hedesunda", "latitude": 60.4, "longitude": 17.0, "state": "G\u00e4vleborg"}, {"city": "Hedemora", "latitude": 60.27973, "longitude": 15.98855, "state": "Dalarna"}, {"city": "Heby", "latitude": 59.93815, "longitude": 16.86217, "state": "Uppsala"}, {"city": "Haverdal", "latitude": 56.72222, "longitude": 12.67194, "state": "Halland"}, {"city": "H\u00e4stveda", "latitude": 56.28468, "longitude": 13.93547, "state": "Sk\u00e5ne"}, {"city": "Hassl\u00f6", "latitude": 56.11667, "longitude": 15.48333, "state": "Blekinge"}, {"city": "H\u00e4ssleholm", "latitude": 56.15905, "longitude": 13.76638, "state": "Sk\u00e5ne"}, {"city": "Harplinge", "latitude": 56.74491, "longitude": 12.72758, "state": "Halland"}, {"city": "H\u00e4rn\u00f6sand", "latitude": 62.63228, "longitude": 17.93794, "state": "V\u00e4sternorrland"}, {"city": "Haninge", "latitude": 59.16775, "longitude": 18.14478, "state": "Stockholm"}, {"city": "Handen", "latitude": 59.16809, "longitude": 18.13796, "state": "Stockholm"}, {"city": "Hanaskog", "latitude": 56.16061, "longitude": 14.09307, "state": "Sk\u00e5ne"}, {"city": "Hammerdal", "latitude": 63.57615, "longitude": 15.36516, "state": "J\u00e4mtland"}, {"city": "Hammarstrand", "latitude": 63.11041, "longitude": 16.35377, "state": "J\u00e4mtland"}, {"city": "Hammar", "latitude": 56.01667, "longitude": 14.21667, "state": "Sk\u00e5ne"}, {"city": "Halmstad", "latitude": 56.67446, "longitude": 12.85676, "state": "Halland"}, {"city": "Hallstavik", "latitude": 60.05, "longitude": 18.6, "state": "Stockholm"}, {"city": "Hallstahammar", "latitude": 59.61395, "longitude": 16.22846, "state": "V\u00e4stmanland"}, {"city": "Hallsberg", "latitude": 59.06463, "longitude": 15.10993, "state": "\u00d6rebro"}, {"city": "H\u00e4llevik", "latitude": 56.01667, "longitude": 14.7, "state": "Blekinge"}, {"city": "H\u00e4lleforsn\u00e4s", "latitude": 59.15208, "longitude": 16.497, "state": "S\u00f6dermanland"}, {"city": "H\u00e4llefors", "latitude": 59.78388, "longitude": 14.52197, "state": "\u00d6rebro"}, {"city": "H\u00e4llbybrunn", "latitude": 59.39152, "longitude": 16.42229, "state": "S\u00f6dermanland"}, {"city": "H\u00e4llabrottet", "latitude": 59.11667, "longitude": 15.2, "state": "\u00d6rebro"}, {"city": "H\u00e4ljarp", "latitude": 55.85, "longitude": 12.91667, "state": "Sk\u00e5ne"}, {"city": "Hagfors", "latitude": 60.02378, "longitude": 13.67214, "state": "V\u00e4rmland"}, {"city": "Habo", "latitude": 57.91185, "longitude": 14.07444, "state": "J\u00f6nk\u00f6ping"}, {"city": "Gusum", "latitude": 58.2688, "longitude": 16.49894, "state": "\u00d6sterg\u00f6tland"}, {"city": "Gustavsberg", "latitude": 59.32684, "longitude": 18.38975, "state": "Stockholm"}, {"city": "Gunnebo", "latitude": 57.71667, "longitude": 16.53333, "state": "Kalmar"}, {"city": "Gullsp\u00e5ng", "latitude": 58.98615, "longitude": 14.09644, "state": "V\u00e4stra G\u00f6taland"}, {"city": "Gullbrandstorp", "latitude": 56.7, "longitude": 12.73333, "state": "Halland"}, {"city": "Grycksbo", "latitude": 60.68751, "longitude": 15.48507, "state": "Dalarna"}, {"city": "Grums", "latitude": 59.35141, "longitude": 13.11105, "state": "V\u00e4rmland"}, {"city": "Grillby", "latitude": 59.62603, "longitude": 17.25787, "state": "Uppsala"}, {"city": "Grebo", "latitude": 58.30145, "longitude": 15.87085, "state": "\u00d6sterg\u00f6tland"}, {"city": "Grebbestad", "latitude": 58.70248, "longitude": 11.25738, "state": "V\u00e4stra G\u00f6taland"}, {"city": "Gr\u00e4storp", "latitude": 58.33219, "longitude": 12.68122, "state": "V\u00e4stra G\u00f6taland"}, {"city": "Gr\u00e4nna", "latitude": 58.01667, "longitude": 14.46667, "state": "J\u00f6nk\u00f6ping"}, {"city": "Gr\u00e4ngesberg", "latitude": 60.07465, "longitude": 15.00784, "state": "Dalarna"}, {"city": "Gr\u00e5bo", "latitude": 57.83625, "longitude": 12.29954, "state": "V\u00e4stra G\u00f6taland"}, {"city": "G\u00f6tene", "latitude": 58.52824, "longitude": 13.49458, "state": "V\u00e4stra G\u00f6taland"}, {"city": "G\u00f6teborg", "latitude": 57.70716, "longitude": 11.96679, "state": "V\u00e4stra G\u00f6taland"}, {"city": "G\u00f6ta", "latitude": 58.10617, "longitude": 12.15254, "state": "V\u00e4stra G\u00f6taland"}, {"city": "Gnosj\u00f6", "latitude": 57.3585, "longitude": 13.73686, "state": "J\u00f6nk\u00f6ping"}, {"city": "Gnesta", "latitude": 59.04751, "longitude": 17.31191, "state": "S\u00f6dermanland"}, {"city": "Gnarp", "latitude": 62.04874, "longitude": 17.25858, "state": "G\u00e4vleborg"}, {"city": "Glumsl\u00f6v", "latitude": 55.94091, "longitude": 12.80929, "state": "Sk\u00e5ne"}, {"city": "Glommen", "latitude": 56.93333, "longitude": 12.35, "state": "Halland"}, {"city": "Glim\u00e5kra", "latitude": 56.3, "longitude": 14.13333, "state": "Sk\u00e5ne"}, {"city": "Gislaved", "latitude": 57.3044, "longitude": 13.54078, "state": "J\u00f6nk\u00f6ping"}, {"city": "Getinge", "latitude": 56.81667, "longitude": 12.73333, "state": "Halland"}, {"city": "Genarp", "latitude": 55.59907, "longitude": 13.3982, "state": "Sk\u00e5ne"}, {"city": "Gemla", "latitude": 56.86753, "longitude": 14.64379, "state": "Kronoberg"}, {"city": "G\u00e4vle", "latitude": 60.67452, "longitude": 17.14174, "state": "G\u00e4vleborg"}, {"city": "G\u00e4rsn\u00e4s", "latitude": 55.54949, "longitude": 14.17923, "state": "Sk\u00e5ne"}, {"city": "Garphyttan", "latitude": 59.30429, "longitude": 14.94623, "state": "\u00d6rebro"}, {"city": "Gantofta", "latitude": 55.98729, "longitude": 12.80482, "state": "Sk\u00e5ne"}, {"city": "G\u00e5nghester", "latitude": 57.7, "longitude": 13.01667, "state": "V\u00e4stra G\u00f6taland"}, {"city": "Gamleby", "latitude": 57.89485, "longitude": 16.40508, "state": "Kalmar"}, {"city": "Gamla Uppsala", "latitude": 59.89817, "longitude": 17.63386, "state": "Uppsala"}, {"city": "Gagnef", "latitude": 60.59856, "longitude": 15.07745, "state": "Dalarna"}, {"city": "Fyllinge", "latitude": 56.65, "longitude": 12.91667, "state": "Halland"}, {"city": "Furulund", "latitude": 57.71667, "longitude": 12.13333, "state": "V\u00e4stra G\u00f6taland"}, {"city": "Furulund", "latitude": 55.7738, "longitude": 13.09022, "state": "Sk\u00e5ne"}, {"city": "Fr\u00f6vi", "latitude": 59.46667, "longitude": 15.36667, "state": "\u00d6rebro"}, {"city": "Fr\u00f6sakull", "latitude": 56.68333, "longitude": 12.73333, "state": "Halland"}, {"city": "Fritsla", "latitude": 57.55655, "longitude": 12.78457, "state": "V\u00e4stra G\u00f6taland"}, {"city": "Fristad", "latitude": 57.82483, "longitude": 13.01064, "state": "V\u00e4stra G\u00f6taland"}, {"city": "Frilles\u00e5s", "latitude": 57.31667, "longitude": 12.16667, "state": "Halland"}, {"city": "Fr\u00e4nsta", "latitude": 62.49855, "longitude": 16.17016, "state": "V\u00e4sternorrland"}, {"city": "F\u00f6rsl\u00f6v", "latitude": 56.35, "longitude": 12.81667, "state": "Sk\u00e5ne"}, {"city": "Forsheda", "latitude": 57.16415, "longitude": 13.83016, "state": "J\u00f6nk\u00f6ping"}, {"city": "Forshaga", "latitude": 59.52541, "longitude": 13.48127, "state": "V\u00e4rmland"}, {"city": "Forserum", "latitude": 57.7, "longitude": 14.46667, "state": "J\u00f6nk\u00f6ping"}, {"city": "Forsbacka", "latitude": 60.61667, "longitude": 16.88333, "state": "G\u00e4vleborg"}, {"city": "Floby", "latitude": 58.13333, "longitude": 13.33333, "state": "V\u00e4stra G\u00f6taland"}, {"city": "Flen", "latitude": 59.05834, "longitude": 16.58781, "state": "S\u00f6dermanland"}, {"city": "Fjugesta", "latitude": 59.17375, "longitude": 14.87227, "state": "\u00d6rebro"}, {"city": "Fj\u00e4r\u00e5s kyrkby", "latitude": 57.45913, "longitude": 12.17508, "state": "Halland"}, {"city": "Fj\u00e4lkinge", "latitude": 56.04364, "longitude": 14.27562, "state": "Sk\u00e5ne"}, {"city": "Fittja", "latitude": 59.24868, "longitude": 17.85991, "state": "Stockholm"}, {"city": "Finsp\u00e5ng", "latitude": 58.70578, "longitude": 15.76739, "state": "\u00d6sterg\u00f6tland"}, {"city": "Filipstad", "latitude": 59.71236, "longitude": 14.16831, "state": "V\u00e4rmland"}, {"city": "Fellingsbro", "latitude": 59.43333, "longitude": 15.58333, "state": "\u00d6rebro"}, {"city": "F\u00e4rl\u00f6v", "latitude": 56.06667, "longitude": 14.08333, "state": "Sk\u00e5ne"}, {"city": "F\u00e4rjestaden", "latitude": 56.6499, "longitude": 16.46859, "state": "Kalmar"}, {"city": "F\u00e4rila", "latitude": 61.80011, "longitude": 15.84422, "state": "G\u00e4vleborg"}, {"city": "F\u00e4rgelanda", "latitude": 58.56816, "longitude": 11.99235, "state": "V\u00e4stra G\u00f6taland"}, {"city": "Falun", "latitude": 60.60357, "longitude": 15.62597, "state": "Dalarna"}, {"city": "Falk\u00f6ping", "latitude": 58.17347, "longitude": 13.55068, "state": "V\u00e4stra G\u00f6taland"}, {"city": "Falkenberg", "latitude": 56.90552, "longitude": 12.49118, "state": "Halland"}, {"city": "Fagersta", "latitude": 60.00418, "longitude": 15.79316, "state": "V\u00e4stmanland"}, {"city": "Esl\u00f6v", "latitude": 55.83928, "longitude": 13.30393, "state": "Sk\u00e5ne"}, {"city": "Eskilstuna", "latitude": 59.36661, "longitude": 16.5077, "state": "S\u00f6dermanland"}, {"city": "Eriksberg", "latitude": 59.24241, "longitude": 17.81631, "state": "Stockholm"}, {"city": "Enk\u00f6ping", "latitude": 59.63607, "longitude": 17.07768, "state": "Uppsala"}, {"city": "Enebyberg", "latitude": 59.43333, "longitude": 18.05, "state": "Stockholm"}, {"city": "Enbacka", "latitude": 60.40993, "longitude": 15.59575, "state": "Dalarna"}, {"city": "Emmaboda", "latitude": 56.63268, "longitude": 15.53648, "state": "Kalmar"}, {"city": "Ell\u00f6s", "latitude": 58.18333, "longitude": 11.46667, "state": "V\u00e4stra G\u00f6taland"}, {"city": "Eksj\u00f6", "latitude": 57.66643, "longitude": 14.97205, "state": "J\u00f6nk\u00f6ping"}, {"city": "Eksh\u00e4rad", "latitude": 60.17275, "longitude": 13.49647, "state": "V\u00e4rmland"}, {"city": "Eker\u00f6", "latitude": 59.291, "longitude": 17.81212, "state": "Stockholm"}, {"city": "Eken\u00e4ssj\u00f6n", "latitude": 57.49175, "longitude": 15.02226, "state": "J\u00f6nk\u00f6ping"}, {"city": "Ekeby-Almby", "latitude": 59.26, "longitude": 15.33, "state": "\u00d6rebro"}, {"city": "Ek\u00e4ngen", "latitude": 58.46667, "longitude": 15.63333, "state": "\u00d6sterg\u00f6tland"}, {"city": "Edsbyn", "latitude": 61.37692, "longitude": 15.81747, "state": "G\u00e4vleborg"}, {"city": "Ed", "latitude": 58.91247, "longitude": 11.93308, "state": "V\u00e4stra G\u00f6taland"}, {"city": "Dorotea", "latitude": 64.26185, "longitude": 16.41306, "state": "V\u00e4sterbotten"}, {"city": "Dons\u00f6", "latitude": 57.6, "longitude": 11.79917, "state": "V\u00e4stra G\u00f6taland"}, {"city": "Djursholm", "latitude": 59.39926, "longitude": 18.05619, "state": "Stockholm"}, {"city": "Djur\u00f6", "latitude": 59.32653, "longitude": 18.71152, "state": "Stockholm"}, {"city": "Djur\u00e5s", "latitude": 60.56061, "longitude": 15.13281, "state": "Dalarna"}, {"city": "Diser\u00f6d", "latitude": 57.92636, "longitude": 12.02598, "state": "V\u00e4stra G\u00f6taland"}, {"city": "Dingtuna", "latitude": 59.57279, "longitude": 16.38722, "state": "V\u00e4stmanland"}, {"city": "Delsbo", "latitude": 61.80104, "longitude": 16.55571, "state": "G\u00e4vleborg"}, {"city": "Deje", "latitude": 59.603, "longitude": 13.472, "state": "V\u00e4rmland"}, {"city": "Degerfors", "latitude": 59.23797, "longitude": 14.43077, "state": "\u00d6rebro"}, {"city": "Degeberga", "latitude": 55.83333, "longitude": 14.08333, "state": "Sk\u00e5ne"}, {"city": "Dals L\u00e5nged", "latitude": 58.92555, "longitude": 12.30865, "state": "V\u00e4stra G\u00f6taland"}, {"city": "Dalsj\u00f6fors", "latitude": 57.71667, "longitude": 13.08333, "state": "V\u00e4stra G\u00f6taland"}, {"city": "Dalby", "latitude": 55.66655, "longitude": 13.34976, "state": "Sk\u00e5ne"}, {"city": "Dalar\u00f6", "latitude": 59.13306, "longitude": 18.40639, "state": "Stockholm"}, {"city": "Charlottenberg", "latitude": 59.88422, "longitude": 12.30398, "state": "V\u00e4rmland"}, {"city": "Bunkeflostrand", "latitude": 55.54478, "longitude": 12.92375, "state": "Sk\u00e5ne"}, {"city": "Bua", "latitude": 57.2378, "longitude": 12.12187, "state": "Halland"}, {"city": "Brunna", "latitude": 60.26255, "longitude": 16.01034, "state": "Dalarna"}, {"city": "Brunna", "latitude": 59.51667, "longitude": 17.75, "state": "Stockholm"}, {"city": "Brunn", "latitude": 59.28, "longitude": 18.43, "state": "Stockholm"}, {"city": "Brunflo", "latitude": 63.07586, "longitude": 14.83203, "state": "J\u00e4mtland"}, {"city": "Brom\u00f6lla", "latitude": 56.07551, "longitude": 14.46958, "state": "Sk\u00e5ne"}, {"city": "Bromma", "latitude": 59.34, "longitude": 17.94, "state": "Stockholm"}, {"city": "Broby", "latitude": 56.25521, "longitude": 14.07797, "state": "Sk\u00e5ne"}, {"city": "Bro", "latitude": 59.51667, "longitude": 17.63333, "state": "Stockholm"}, {"city": "Brevik", "latitude": 59.35, "longitude": 18.2, "state": "Stockholm"}, {"city": "Brevik", "latitude": 59.21667, "longitude": 18.38333, "state": "Stockholm"}, {"city": "Bredbyn", "latitude": 63.44655, "longitude": 18.11019, "state": "V\u00e4sternorrland"}, {"city": "Bredaryd", "latitude": 57.17343, "longitude": 13.73789, "state": "J\u00f6nk\u00f6ping"}, {"city": "Brastad", "latitude": 58.38333, "longitude": 11.48333, "state": "V\u00e4stra G\u00f6taland"}, {"city": "Br\u00e5landa", "latitude": 58.56344, "longitude": 12.34923, "state": "V\u00e4stra G\u00f6taland"}, {"city": "Br\u00e4kne-Hoby", "latitude": 56.23333, "longitude": 15.11667, "state": "Blekinge"}, {"city": "Br\u00e4cke", "latitude": 62.75067, "longitude": 15.42193, "state": "J\u00e4mtland"}, {"city": "Bra\u00e5s", "latitude": 57.06667, "longitude": 15.05, "state": "Kronoberg"}, {"city": "Boxholm", "latitude": 58.19719, "longitude": 15.05376, "state": "\u00d6sterg\u00f6tland"}, {"city": "Borl\u00e4nge", "latitude": 60.4858, "longitude": 15.43714, "state": "Dalarna"}, {"city": "Borgholm", "latitude": 56.8793, "longitude": 16.65634, "state": "Kalmar"}, {"city": "Borensberg", "latitude": 58.56667, "longitude": 15.28333, "state": "\u00d6sterg\u00f6tland"}, {"city": "Bor\u00e5s", "latitude": 57.72101, "longitude": 12.9401, "state": "V\u00e4stra G\u00f6taland"}, {"city": "Bor", "latitude": 57.11667, "longitude": 14.16667, "state": "J\u00f6nk\u00f6ping"}, {"city": "Bollstabruk", "latitude": 62.99777, "longitude": 17.67348, "state": "V\u00e4sternorrland"}, {"city": "Bolln\u00e4s", "latitude": 61.34817, "longitude": 16.39464, "state": "G\u00e4vleborg"}, {"city": "Bollmora", "latitude": 59.24196, "longitude": 18.22762, "state": "Stockholm"}, {"city": "Bollebygd", "latitude": 57.66866, "longitude": 12.57272, "state": "V\u00e4stra G\u00f6taland"}, {"city": "Bodafors", "latitude": 57.5, "longitude": 14.7, "state": "J\u00f6nk\u00f6ping"}, {"city": "Boo", "latitude": 59.33333, "longitude": 18.28333, "state": "Stockholm"}, {"city": "Blomsterm\u00e5la", "latitude": 56.98333, "longitude": 16.33333, "state": "Kalmar"}, {"city": "Blentarp", "latitude": 55.58333, "longitude": 13.6, "state": "Sk\u00e5ne"}, {"city": "Bjuv", "latitude": 56.08372, "longitude": 12.91914, "state": "Sk\u00e5ne"}, {"city": "Bjurs\u00e5s", "latitude": 60.73726, "longitude": 15.45291, "state": "Dalarna"}, {"city": "Bjurholm", "latitude": 63.93027, "longitude": 19.21369, "state": "V\u00e4sterbotten"}, {"city": "Bj\u00f6rneborg", "latitude": 59.24122, "longitude": 14.24942, "state": "V\u00e4rmland"}, {"city": "Bj\u00f6rlanda", "latitude": 57.76667, "longitude": 11.83333, "state": "V\u00e4stra G\u00f6taland"}, {"city": "Bj\u00f6rk\u00f6", "latitude": 57.73221, "longitude": 11.67916, "state": "V\u00e4stra G\u00f6taland"}, {"city": "Bj\u00f6rboholm", "latitude": 57.87096, "longitude": 12.32546, "state": "V\u00e4stra G\u00f6taland"}, {"city": "Bj\u00e4sta", "latitude": 63.2, "longitude": 18.5, "state": "V\u00e4sternorrland"}, {"city": "Bj\u00e4rred", "latitude": 55.71667, "longitude": 13.01667, "state": "Sk\u00e5ne"}, {"city": "Bj\u00e4rnum", "latitude": 56.29032, "longitude": 13.71128, "state": "Sk\u00e5ne"}, {"city": "Billingsfors", "latitude": 58.98333, "longitude": 12.25, "state": "V\u00e4stra G\u00f6taland"}, {"city": "Billesholm", "latitude": 56.05, "longitude": 13.0, "state": "Sk\u00e5ne"}, {"city": "Billeberga", "latitude": 55.88333, "longitude": 13.0, "state": "Sk\u00e5ne"}, {"city": "Billdal", "latitude": 57.56667, "longitude": 11.93333, "state": "V\u00e4stra G\u00f6taland"}, {"city": "Bergsj\u00f6", "latitude": 61.98253, "longitude": 17.06368, "state": "G\u00e4vleborg"}, {"city": "Bergshamra", "latitude": 59.38083, "longitude": 18.03427, "state": "Stockholm"}, {"city": "Hoverberg", "latitude": 62.81381, "longitude": 14.44735, "state": "J\u00e4mtland"}, {"city": "Bergkvara", "latitude": 56.39063, "longitude": 16.07274, "state": "Kalmar"}, {"city": "Bergeforsen", "latitude": 62.53074, "longitude": 17.38123, "state": "V\u00e4sternorrland"}, {"city": "Bergby", "latitude": 60.92931, "longitude": 17.04194, "state": "G\u00e4vleborg"}, {"city": "Berg", "latitude": 58.48831, "longitude": 15.52969, "state": "\u00d6sterg\u00f6tland"}, {"city": "Bengtsfors", "latitude": 59.02912, "longitude": 12.23207, "state": "V\u00e4stra G\u00f6taland"}, {"city": "B\u00e5stad", "latitude": 56.42689, "longitude": 12.85339, "state": "Sk\u00e5ne"}, {"city": "B\u00e5rsl\u00f6v", "latitude": 56.0091, "longitude": 12.8058, "state": "Sk\u00e5ne"}, {"city": "Barkar\u00f6", "latitude": 59.54935, "longitude": 16.5074, "state": "V\u00e4stmanland"}, {"city": "Bara", "latitude": 58.68333, "longitude": 17.06667, "state": "S\u00f6dermanland"}, {"city": "Bara", "latitude": 55.58155, "longitude": 13.17862, "state": "Sk\u00e5ne"}, {"city": "Bankeryd", "latitude": 57.86021, "longitude": 14.124, "state": "J\u00f6nk\u00f6ping"}, {"city": "B\u00e5lsta", "latitude": 59.5671, "longitude": 17.52781, "state": "Uppsala"}, {"city": "B\u00e4linge", "latitude": 59.95, "longitude": 17.53333, "state": "Uppsala"}, {"city": "Axvall", "latitude": 58.38333, "longitude": 13.56667, "state": "V\u00e4stra G\u00f6taland"}, {"city": "Avesta", "latitude": 60.14274, "longitude": 16.16295, "state": "Dalarna"}, {"city": "\u00c5tvidaberg", "latitude": 58.20152, "longitude": 15.9977, "state": "\u00d6sterg\u00f6tland"}, {"city": "\u00c5storp", "latitude": 56.13566, "longitude": 12.9443, "state": "Sk\u00e5ne"}, {"city": "Asmundtorp", "latitude": 55.88333, "longitude": 12.93333, "state": "Sk\u00e5ne"}, {"city": "Askersund", "latitude": 58.87988, "longitude": 14.9023, "state": "\u00d6rebro"}, {"city": "\u00c5sele", "latitude": 64.16026, "longitude": 17.34762, "state": "V\u00e4sterbotten"}, {"city": "\u00c5seda", "latitude": 57.1701, "longitude": 15.3443, "state": "Kronoberg"}, {"city": "\u00c5sbro", "latitude": 59.0, "longitude": 15.05, "state": "\u00d6rebro"}, {"city": "\u00c5sa", "latitude": 57.35, "longitude": 12.11667, "state": "Halland"}, {"city": "\u00c5s", "latitude": 63.36667, "longitude": 16.58333, "state": "V\u00e4sternorrland"}, {"city": "\u00c5s", "latitude": 63.25, "longitude": 14.56667, "state": "J\u00e4mtland"}, {"city": "Arvika", "latitude": 59.65528, "longitude": 12.58518, "state": "V\u00e4rmland"}, {"city": "Arvidsjaur", "latitude": 65.59033, "longitude": 19.16682, "state": "Norrbotten"}, {"city": "\u00c5rsunda", "latitude": 60.51644, "longitude": 16.73436, "state": "G\u00e4vleborg"}, {"city": "\u00c5rsta", "latitude": 59.2978, "longitude": 18.0514, "state": "Stockholm"}, {"city": "Arn\u00f6", "latitude": 60.11667, "longitude": 18.63333, "state": "Stockholm"}, {"city": "Arn\u00f6", "latitude": 58.72675, "longitude": 17.02322, "state": "S\u00f6dermanland"}, {"city": "Arl\u00f6v", "latitude": 55.63248, "longitude": 13.07141, "state": "Sk\u00e5ne"}, {"city": "\u00c4rla", "latitude": 59.27983, "longitude": 16.67896, "state": "S\u00f6dermanland"}, {"city": "Arjeplog", "latitude": 66.05173, "longitude": 17.88606, "state": "Norrbotten"}, {"city": "\u00c5rj\u00e4ng", "latitude": 59.39217, "longitude": 12.13336, "state": "V\u00e4rmland"}, {"city": "Arbr\u00e5", "latitude": 61.46667, "longitude": 16.38333, "state": "G\u00e4vleborg"}, {"city": "Arboga", "latitude": 59.39387, "longitude": 15.83882, "state": "V\u00e4stmanland"}, {"city": "Annelund", "latitude": 57.98843, "longitude": 13.07483, "state": "V\u00e4stra G\u00f6taland"}, {"city": "Ankarsrum", "latitude": 57.69896, "longitude": 16.33407, "state": "Kalmar"}, {"city": "Angered", "latitude": 57.78628, "longitude": 12.09852, "state": "V\u00e4stra G\u00f6taland"}, {"city": "\u00c4ngelholm", "latitude": 56.2428, "longitude": 12.86219, "state": "Sk\u00e5ne"}, {"city": "\u00c5nge", "latitude": 62.52495, "longitude": 15.65904, "state": "V\u00e4sternorrland"}, {"city": "Aneby", "latitude": 57.83895, "longitude": 14.81016, "state": "J\u00f6nk\u00f6ping"}, {"city": "Anderstorp", "latitude": 58.88333, "longitude": 14.28333, "state": "V\u00e4stra G\u00f6taland"}, {"city": "Anderstorp", "latitude": 57.28333, "longitude": 13.63333, "state": "J\u00f6nk\u00f6ping"}, {"city": "Andersl\u00f6v", "latitude": 55.43836, "longitude": 13.31966, "state": "Sk\u00e5ne"}, {"city": "\u00c5motfors", "latitude": 59.76191, "longitude": 12.36211, "state": "V\u00e4rmland"}, {"city": "\u00c5m\u00e5l", "latitude": 59.051, "longitude": 12.70492, "state": "V\u00e4stra G\u00f6taland"}, {"city": "\u00c4lvkarleby", "latitude": 60.57081, "longitude": 17.44895, "state": "Uppsala"}, {"city": "Alvesta", "latitude": 56.89935, "longitude": 14.55559, "state": "Kronoberg"}, {"city": "\u00c4lvdalen", "latitude": 61.22774, "longitude": 14.03935, "state": "Dalarna"}, {"city": "\u00c4lv\u00e4ngen", "latitude": 57.95872, "longitude": 12.1235, "state": "V\u00e4stra G\u00f6taland"}, {"city": "Alunda", "latitude": 60.06667, "longitude": 18.08333, "state": "Uppsala"}, {"city": "\u00c4lta", "latitude": 59.26667, "longitude": 18.18333, "state": "Stockholm"}, {"city": "Alsike", "latitude": 59.75324, "longitude": 17.77331, "state": "Uppsala"}, {"city": "\u00c4lmsta", "latitude": 59.96667, "longitude": 18.8, "state": "Stockholm"}, {"city": "\u00c4lmhult", "latitude": 56.55146, "longitude": 14.13827, "state": "Kronoberg"}, {"city": "Alings\u00e5s", "latitude": 57.93033, "longitude": 12.53345, "state": "V\u00e4stra G\u00f6taland"}, {"city": "Alfta", "latitude": 61.34675, "longitude": 16.07499, "state": "G\u00e4vleborg"}, {"city": "\u00c5led", "latitude": 56.75, "longitude": 12.93333, "state": "Halland"}, {"city": "Alafors", "latitude": 57.92579, "longitude": 12.07835, "state": "V\u00e4stra G\u00f6taland"}, {"city": "\u00c5kers Styckebruk", "latitude": 59.25, "longitude": 17.08333, "state": "S\u00f6dermanland"}, {"city": "\u00c5kersberga", "latitude": 59.47944, "longitude": 18.29967, "state": "Stockholm"}, {"city": "\u00c5karp", "latitude": 58.23333, "longitude": 13.65, "state": "V\u00e4stra G\u00f6taland"}, {"city": "\u00c5karp", "latitude": 55.65396, "longitude": 13.11107, "state": "Sk\u00e5ne"}, {"city": "\u00c5hus", "latitude": 55.91667, "longitude": 14.28333, "state": "Sk\u00e5ne"}, {"city": "\u00c5by", "latitude": 58.66667, "longitude": 16.18333, "state": "\u00d6sterg\u00f6tland"}, {"city": "Abborrberget", "latitude": 60.15, "longitude": 14.8, "state": "Dalarna"}, {"city": "V\u00e4stra Hagen", "latitude": 57.42444, "longitude": 11.93583, "state": "Halland"}, {"city": "Enhagen-Ekbacken", "latitude": 59.56543, "longitude": 16.53045, "state": "V\u00e4stmanland"}, {"city": "Saxtorpsskogen", "latitude": 55.83208, "longitude": 12.94429, "state": "Sk\u00e5ne"}, {"city": "Andalen", "latitude": 57.70039, "longitude": 11.76136, "state": "V\u00e4stra G\u00f6taland"}, {"city": "Nolvik", "latitude": 57.775, "longitude": 11.83333, "state": "V\u00e4stra G\u00f6taland"}, {"city": "Vi", "latitude": 62.43333, "longitude": 17.41667, "state": "V\u00e4sternorrland"}, {"city": "Fisks\u00e4tra", "latitude": 59.29153, "longitude": 18.2549, "state": "Stockholm"}, {"city": "Ekeby", "latitude": 56.0, "longitude": 12.96667, "state": "Sk\u00e5ne"}, {"city": "Skan\u00f6r med Falsterbo", "latitude": 55.4, "longitude": 12.85, "state": "Sk\u00e5ne"}, {"city": "Ingared", "latitude": 57.85989, "longitude": 12.45161, "state": "V\u00e4stra G\u00f6taland"}, {"city": "Majorna", "latitude": 57.69195, "longitude": 11.91605, "state": "V\u00e4stra G\u00f6taland"}, {"city": "Onsala", "latitude": 57.42531, "longitude": 12.02903, "state": "Halland"}, {"city": "Olstorp", "latitude": 57.82277, "longitude": 12.27696, "state": "V\u00e4stra G\u00f6taland"}, {"city": "Akalla", "latitude": 59.41465, "longitude": 17.91398, "state": "Stockholm"}, {"city": "Tensta", "latitude": 59.3939, "longitude": 17.90111, "state": "Stockholm"}, {"city": "Bj\u00f6rkskatan", "latitude": 65.61373, "longitude": 22.17702, "state": "Norrbotten"}, {"city": "Alby", "latitude": 59.2335, "longitude": 17.8538, "state": "Stockholm"}, {"city": "Hammarkullen", "latitude": 57.78049, "longitude": 12.03604, "state": "V\u00e4stra G\u00f6taland"}, {"city": "Rannebergen", "latitude": 57.80236, "longitude": 12.07131, "state": "V\u00e4stra G\u00f6taland"}, {"city": "Eriksbo", "latitude": 57.77141, "longitude": 12.04183, "state": "V\u00e4stra G\u00f6taland"}, {"city": "G\u00e5rdsten", "latitude": 57.8048, "longitude": 12.02883, "state": "V\u00e4stra G\u00f6taland"}, {"city": "L\u00f6vg\u00e4rdet", "latitude": 57.81555, "longitude": 12.03861, "state": "V\u00e4stra G\u00f6taland"}, {"city": "\u00c5re", "latitude": 63.39911, "longitude": 13.07995, "state": "J\u00e4mtland"}, {"city": "Marielund", "latitude": 65.85307, "longitude": 24.10486, "state": "Norrbotten"}]