[{"city": "Vi\u00f0 Sj\u00f3gv", "latitude": 62.11967, "longitude": -6.75005, "state": "Eysturoy"}, {"city": "Vi\u00f0arei\u00f0i", "latitude": 62.35999, "longitude": -6.5313, "state": "Nor\u00f0oyar"}, {"city": "Vestmanna", "latitude": 62.15354, "longitude": -7.17291, "state": "Streymoy"}, {"city": "V\u00e1gur", "latitude": 61.47324, "longitude": -6.81185, "state": "Su\u00f0uroy"}, {"city": "Tv\u00f8royri", "latitude": 61.55557, "longitude": -6.81109, "state": "Su\u00f0uroy"}, {"city": "T\u00f3rshavn", "latitude": 62.00973, "longitude": -6.77164, "state": "Streymoy"}, {"city": "S\u00f8rv\u00e1gur", "latitude": 62.07203, "longitude": -7.30749, "state": "V\u00e1gar"}, {"city": "Sk\u00favoy", "latitude": 61.77103, "longitude": -6.80501, "state": "Sandoy"}, {"city": "Skopun", "latitude": 61.90285, "longitude": -6.88234, "state": "Sandoy"}, {"city": "Sk\u00e1lav\u00edk", "latitude": 61.83141, "longitude": -6.6623, "state": "Sandoy"}, {"city": "Sandur", "latitude": 61.8425, "longitude": -6.80778, "state": "Sandoy"}, {"city": "Sandav\u00e1gur", "latitude": 62.05372, "longitude": -7.14982, "state": "V\u00e1gar"}, {"city": "Saltangar\u00e1", "latitude": 62.11647, "longitude": -6.71797, "state": "Eysturoy"}, {"city": "Porkeri", "latitude": 61.48135, "longitude": -6.74497, "state": "Su\u00f0uroy"}, {"city": "Mi\u00f0v\u00e1gur", "latitude": 62.05111, "longitude": -7.19389, "state": "V\u00e1gar"}, {"city": "Leirv\u00edk", "latitude": 62.20992, "longitude": -6.69284, "state": "Eysturoy"}, {"city": "Kunoy", "latitude": 62.30388, "longitude": -6.64754, "state": "Nor\u00f0oyar"}, {"city": "Klaksv\u00edk", "latitude": 62.22655, "longitude": -6.58901, "state": "Nor\u00f0oyar"}, {"city": "Kirkja", "latitude": 62.31851, "longitude": -6.31646, "state": "Nor\u00f0oyar"}, {"city": "Hvalba", "latitude": 61.60237, "longitude": -6.96063, "state": "Su\u00f0uroy"}, {"city": "Hoyv\u00edk", "latitude": 62.03407, "longitude": -6.78127, "state": "Streymoy"}, {"city": "Hov", "latitude": 61.50684, "longitude": -6.75993, "state": "Su\u00f0uroy"}, {"city": "Fuglafj\u00f8r\u00f0ur", "latitude": 62.24398, "longitude": -6.81395, "state": "Eysturoy"}, {"city": "Ei\u00f0i", "latitude": 62.2993, "longitude": -7.09245, "state": "Eysturoy"}, {"city": "Argir", "latitude": 61.99595, "longitude": -6.77154, "state": "Streymoy"}, {"city": "Eystur", "latitude": 62.20907, "longitude": -6.75247, "state": "Eysturoy"}]