[{"city": "Balkanabat", "latitude": 39.51075, "longitude": 54.36713, "state": "Balkan"}, {"city": "Kaka", "latitude": 37.34821, "longitude": 59.61431, "state": "Ahal"}, {"city": "Serdar", "latitude": 38.97644, "longitude": 56.27575, "state": "Balkan"}, {"city": "Gumdag", "latitude": 39.20611, "longitude": 54.59056, "state": "Balkan"}, {"city": "Bereket", "latitude": 39.24463, "longitude": 55.51536, "state": "Balkan"}, {"city": "Magtymguly", "latitude": 38.43749, "longitude": 56.28081, "state": "Balkan"}, {"city": "Ar\u00e7abil", "latitude": 37.915, "longitude": 58.08987, "state": "Ahal"}, {"city": "Abadan", "latitude": 38.05415, "longitude": 58.19721, "state": "Ahal"}, {"city": "Baharly", "latitude": 38.43624, "longitude": 57.43158, "state": "Ahal"}, {"city": "Ashgabat", "latitude": 37.95, "longitude": 58.38333, "state": null}, {"city": "\u00c4new", "latitude": 37.88754, "longitude": 58.51596, "state": "Ahal"}, {"city": "Yylanly", "latitude": 41.83333, "longitude": 59.65, "state": "Da\u015foguz"}, {"city": "Tagta", "latitude": 41.65041, "longitude": 59.9164, "state": "Da\u015foguz"}, {"city": "Akdepe", "latitude": 42.05513, "longitude": 59.37877, "state": "Da\u015foguz"}, {"city": "T\u00fcrkmenba\u015fy", "latitude": 40.02216, "longitude": 52.95517, "state": "Balkan"}, {"city": "K\u00f6ne\u00fcrgench", "latitude": 42.32773, "longitude": 59.15442, "state": "Da\u015foguz"}, {"city": "Boldumsaz", "latitude": 42.12824, "longitude": 59.67101, "state": "Da\u015foguz"}, {"city": "Da\u015foguz", "latitude": 41.83625, "longitude": 59.96661, "state": null}, {"city": "Yol\u00f6ten", "latitude": 37.29886, "longitude": 62.35975, "state": "Mary"}, {"city": "Tejen", "latitude": 37.38338, "longitude": 60.50545, "state": "Ahal"}, {"city": "Seydi", "latitude": 39.4816, "longitude": 62.91374, "state": "Mary"}, {"city": "Sa\u00fdat", "latitude": 38.78393, "longitude": 63.88035, "state": "Lebap"}, {"city": "Murgab", "latitude": 37.49656, "longitude": 61.97142, "state": null}, {"city": "Mary", "latitude": 37.59378, "longitude": 61.83031, "state": null}, {"city": "Kerki", "latitude": 37.83573, "longitude": 65.21058, "state": "Lebap"}, {"city": "Serhetabat", "latitude": 35.27992, "longitude": 62.34383, "state": "Mary"}, {"city": "Gowurdak", "latitude": 37.81244, "longitude": 66.04656, "state": "Lebap"}, {"city": "Farap", "latitude": 39.17037, "longitude": 63.61165, "state": "Lebap"}, {"city": "T\u00fcrkmenabat", "latitude": 39.07328, "longitude": 63.57861, "state": "Lebap"}, {"city": "Bayramaly", "latitude": 37.61852, "longitude": 62.16715, "state": "Mary"}, {"city": "Gazojak", "latitude": 41.18746, "longitude": 61.4036, "state": "Lebap"}]