[{"city": "Zghart\u0101", "latitude": 34.39739, "longitude": 35.89493, "state": "Liban-Nord"}, {"city": "Zahl\u00e9", "latitude": 33.84675, "longitude": 35.90203, "state": "B\u00e9qaa"}, {"city": "Tripoli", "latitude": 34.43352, "longitude": 35.84415, "state": "Liban-Nord"}, {"city": "Tyre", "latitude": 33.27333, "longitude": 35.19389, "state": "South Governorate"}, {"city": "S\u00eer ed Danniy\u00e9", "latitude": 34.38528, "longitude": 36.03111, "state": "Liban-Nord"}, {"city": "Sidon", "latitude": 33.55751, "longitude": 35.37148, "state": "South Governorate"}, {"city": "Ra\u2019s Bayr\u016bt", "latitude": 33.9, "longitude": 35.48333, "state": "Beyrouth"}, {"city": "Q\u00e2na", "latitude": 33.20889, "longitude": 35.29944, "state": "South Governorate"}, {"city": "Marjayo\u00fbn", "latitude": 33.36028, "longitude": 35.59111, "state": "Nabat\u00eey\u00e9"}, {"city": "Jounieh", "latitude": 33.98083, "longitude": 35.61778, "state": "Mont-Liban"}, {"city": "Joubb Jann\u00eene", "latitude": 33.62694, "longitude": 35.78417, "state": "B\u00e9qaa"}, {"city": "Jba\u00efl", "latitude": 34.12111, "longitude": 35.64806, "state": "Mont-Liban"}, {"city": "Jezz\u00eene", "latitude": 33.54167, "longitude": 35.58444, "state": "South Governorate"}, {"city": "H\u00e2sba\u00efya", "latitude": 33.39778, "longitude": 35.685, "state": "Nabat\u00eey\u00e9"}, {"city": "Hrajel", "latitude": 34.01722, "longitude": 35.79244, "state": "Mont-Liban"}, {"city": "Halba", "latitude": 34.54278, "longitude": 36.07972, "state": "Aakk\u00e2r"}, {"city": "Habbo\u00fbch", "latitude": 33.40729, "longitude": 35.48169, "state": "Nabat\u00eey\u00e9"}, {"city": "Bcharr\u00e9", "latitude": 34.25083, "longitude": 36.01056, "state": "Liban-Nord"}, {"city": "Bent Jba\u00efl", "latitude": 33.11944, "longitude": 35.43333, "state": "Nabat\u00eey\u00e9"}, {"city": "Bhamdo\u00fbn el Mhatta", "latitude": 33.80861, "longitude": 35.65972, "state": "Mont-Liban"}, {"city": "Bhamdoun", "latitude": 33.795, "longitude": 35.65111, "state": "Mont-Liban"}, {"city": "Be\u00eft ed D\u00eene", "latitude": 33.69417, "longitude": 35.58083, "state": "Mont-Liban"}, {"city": "Beirut", "latitude": 33.89332, "longitude": 35.50157, "state": "Beyrouth"}, {"city": "Baalbek", "latitude": 34.00583, "longitude": 36.21806, "state": "Baalbek-Hermel Governorate"}, {"city": "Baabda", "latitude": 33.83389, "longitude": 35.54417, "state": "Mont-Liban"}, {"city": "Aa\u00eftan\u00eet", "latitude": 33.56139, "longitude": 35.67028, "state": "B\u00e9qaa"}, {"city": "Ain Ebel", "latitude": 33.11023, "longitude": 35.40251, "state": "Nabat\u00eey\u00e9"}, {"city": "Sarafand", "latitude": 33.44948, "longitude": 35.29948, "state": "South Governorate"}, {"city": "En N\u00e2qo\u00fbra", "latitude": 33.11806, "longitude": 35.13972, "state": "South Governorate"}, {"city": "Nabat\u00eey\u00e9 et Tahta", "latitude": 33.37889, "longitude": 35.48389, "state": "Nabat\u00eey\u00e9"}, {"city": "Aanjar", "latitude": 33.72778, "longitude": 35.93111, "state": "B\u00e9qaa"}, {"city": "Amio\u00fbn", "latitude": 34.3, "longitude": 35.80889, "state": "Liban-Nord"}, {"city": "Aalma ech Chaab", "latitude": 33.10417, "longitude": 35.18194, "state": "South Governorate"}, {"city": "Jdaidet el Matn", "latitude": 33.89056, "longitude": 35.56639, "state": "Mont-Liban"}, {"city": "El Hermel", "latitude": 34.39417, "longitude": 36.38472, "state": "Baalbek-Hermel Governorate"}, {"city": "Ghazieh", "latitude": 33.5175, "longitude": 35.36889, "state": "South Governorate"}, {"city": "Batro\u00fbn", "latitude": 34.25528, "longitude": 35.65806, "state": "Liban-Nord"}, {"city": "Aaley", "latitude": 33.80528, "longitude": 35.6, "state": "Mont-Liban"}, {"city": "Aajalto\u00fbn", "latitude": 33.96528, "longitude": 35.68278, "state": "Mont-Liban"}, {"city": "R\u00e2cha\u00efya el Ouadi", "latitude": 33.50089, "longitude": 35.8437, "state": "B\u00e9qaa"}, {"city": "Tebnine", "latitude": 33.19399, "longitude": 35.40967, "state": "Nabat\u00eey\u00e9"}]