[{"city": "Da\u1e29asuways", "latitude": 15.72389, "longitude": 50.72944, "state": "Al Mahrah Governorate"}, {"city": "Ash Shi\u1e29r", "latitude": 14.76026, "longitude": 49.60537, "state": "Muhafazat Hadramaout"}, {"city": "Al Ghaylah", "latitude": 14.59583, "longitude": 45.58333, "state": "Al Bayda"}, {"city": "Judaydah", "latitude": 15.07512, "longitude": 45.29962, "state": "Ma\u2019rib"}, {"city": "\u1e10awr\u0101n", "latitude": 13.77436, "longitude": 44.44196, "state": "A\u1e11 \u1e10\u0101li\u2018"}, {"city": "Najd al Jam\u0101\u2018\u012b", "latitude": 13.91577, "longitude": 44.32446, "state": "Ibb Governorate"}, {"city": "Z\u0327almah al \u2018Uly\u0101", "latitude": 14.1023, "longitude": 44.09404, "state": "Ibb Governorate"}, {"city": "S\u016bq ar Rub\u016b\u2018", "latitude": 14.51155, "longitude": 44.01511, "state": "Dham\u0101r"}, {"city": "Ash Shuqayrah", "latitude": 13.13452, "longitude": 43.78636, "state": "Ta\u2018izz"}, {"city": "Al Mas\u0101l\u012byah", "latitude": 13.53201, "longitude": 43.99564, "state": "Ta\u2018izz"}, {"city": "Ar Rawnah", "latitude": 13.75638, "longitude": 43.80286, "state": "Ta\u2018izz"}, {"city": "Ar Ram\u0101d\u012b", "latitude": 13.95641, "longitude": 43.78457, "state": "Ibb Governorate"}, {"city": "Al A\u1e29ad", "latitude": 14.25833, "longitude": 43.64167, "state": "Dham\u0101r"}, {"city": "A\u1e11 \u1e10il\u2018", "latitude": 14.67199, "longitude": 43.81827, "state": "Raymah"}, {"city": "S\u016bq \u015eirw\u0101\u1e29", "latitude": 15.44933, "longitude": 45.01891, "state": "Ma\u2019rib"}, {"city": "Majzar", "latitude": 15.85, "longitude": 44.775, "state": "Ma\u2019rib"}, {"city": "Bidbadah", "latitude": 15.425, "longitude": 44.7, "state": "Ma\u2019rib"}, {"city": "Matwa\u1e29", "latitude": 15.0676, "longitude": 43.64213, "state": "Sanaa Governorate"}, {"city": "\u015euwayr", "latitude": 16.1818, "longitude": 43.60986, "state": "Omran"}, {"city": "Wa\u1e11arah", "latitude": 15.71073, "longitude": 43.48321, "state": "\u1e28ajjah"}, {"city": "Al Mirw\u0101\u1e29", "latitude": 15.47223, "longitude": 43.42939, "state": "Al Mahwit Governorate"}, {"city": "S\u016bq Shamar", "latitude": 15.885, "longitude": 43.36806, "state": "\u1e28ajjah"}, {"city": "Mustab\u0101\u2019", "latitude": 16.22816, "longitude": 43.24895, "state": "\u1e28ajjah"}, {"city": "An Naz\u0327\u012br", "latitude": 16.90916, "longitude": 43.26226, "state": "\u015ea\u2018dah"}, {"city": "A\u0163 \u0162aw\u012blah", "latitude": 15.49389, "longitude": 43.74778, "state": "Al Mahwit Governorate"}, {"city": "Zinjib\u0101r", "latitude": 13.12871, "longitude": 45.38073, "state": "Abyan Governorate"}, {"city": "Zar\u0101jah", "latitude": 14.86692, "longitude": 44.37868, "state": "Dham\u0101r"}, {"city": "Az Z\u0101hir", "latitude": 13.96667, "longitude": 45.48333, "state": "Al Bayda"}, {"city": "Zab\u012bd", "latitude": 14.1951, "longitude": 43.31518, "state": "Al Hudaydah"}, {"city": "Yufrus", "latitude": 13.45529, "longitude": 43.94704, "state": "Ta\u2018izz"}, {"city": "Yar\u012bm", "latitude": 14.29804, "longitude": 44.37795, "state": "Ibb Governorate"}, {"city": "Wash\u1e29ah", "latitude": 16.30774, "longitude": 43.41066, "state": "\u1e28ajjah"}, {"city": "Wa\u2018l\u0101n", "latitude": 15.07021, "longitude": 44.27641, "state": "Sanaa Governorate"}, {"city": "Dh\u012b Jal\u0101l", "latitude": 13.62378, "longitude": 44.70754, "state": "A\u1e11 \u1e10\u0101li\u2018"}, {"city": "\u2018Usayl\u0101n", "latitude": 15.03201, "longitude": 45.82832, "state": "Shabwah"}, {"city": "\u2018Ub\u0101l", "latitude": 14.98808, "longitude": 43.54444, "state": "Al Hudaydah"}, {"city": "Tham\u016bd", "latitude": 17.29245, "longitude": 49.91947, "state": "Muhafazat Hadramaout"}, {"city": "Tar\u012bm", "latitude": 16.05694, "longitude": 48.99889, "state": "Muhafazat Hadramaout"}, {"city": "Taiz", "latitude": 13.57952, "longitude": 44.02091, "state": "Ta\u2018izz"}, {"city": "As Suwayd\u0101", "latitude": 13.78694, "longitude": 45.2304, "state": "La\u1e29ij"}, {"city": "Al \u2018In\u0101n", "latitude": 16.72189, "longitude": 44.31252, "state": "Al Jawf"}, {"city": "Abs", "latitude": 16.00295, "longitude": 43.19725, "state": "\u1e28ajjah"}, {"city": "\u015e\u012bf", "latitude": 15.31389, "longitude": 48.33, "state": "Muhafazat Hadramaout"}, {"city": "Shi\u1e29an as Sufl\u00e1", "latitude": 17.76999, "longitude": 52.48925, "state": "Al Mahrah Governorate"}, {"city": "Shib\u0101m", "latitude": 15.50943, "longitude": 43.90445, "state": "Al Mahwit Governorate"}, {"city": "Ash Sharyah", "latitude": 14.35659, "longitude": 45.02244, "state": "Al Bayda"}, {"city": "Sharas", "latitude": 15.71233, "longitude": 43.64925, "state": "\u1e28ajjah"}, {"city": "Shah\u0101rat al Gh\u012bs", "latitude": 16.18411, "longitude": 43.70228, "state": "Omran"}, {"city": "Sayy\u0101n", "latitude": 15.17177, "longitude": 44.32442, "state": "Sanaa Governorate"}, {"city": "Say\u1e29\u016bt", "latitude": 15.21056, "longitude": 51.24556, "state": "Al Mahrah Governorate"}, {"city": "\u015ean\u0101\u2019", "latitude": 15.4, "longitude": 47.76667, "state": "Muhafazat Hadramaout"}, {"city": "Sanaa", "latitude": 15.35472, "longitude": 44.20667, "state": "Amanat Alasimah"}, {"city": "Sa\u1e29ar", "latitude": 15.31637, "longitude": 44.3088, "state": "Sanaa Governorate"}, {"city": "S\u0101h", "latitude": 15.57722, "longitude": 48.85056, "state": "Muhafazat Hadramaout"}, {"city": "Sa'dah", "latitude": 16.94021, "longitude": 43.76393, "state": "\u015ea\u2018dah"}, {"city": "Ri\u1e29\u0101b", "latitude": 14.22762, "longitude": 44.18814, "state": "Ibb Governorate"}, {"city": "Rad\u0101\u2018", "latitude": 14.4151, "longitude": 44.83709, "state": "Al Bayda"}, {"city": "Ar Raydah", "latitude": 15.035, "longitude": 50.47917, "state": "Muhafazat Hadramaout"}, {"city": "Raydah", "latitude": 15.81421, "longitude": 44.04085, "state": "Omran"}, {"city": "Ru\u1e11\u016bm", "latitude": 14.0851, "longitude": 47.74314, "state": "Shabwah"}, {"city": "Qalans\u012byah", "latitude": 12.68958, "longitude": 53.48709, "state": "Soqatra"}, {"city": "Qishn", "latitude": 15.42409, "longitude": 51.67836, "state": "Al Mahrah Governorate"}, {"city": "Qa\u2018\u0163abah", "latitude": 13.85493, "longitude": 44.7058, "state": "A\u1e11 \u1e10\u0101li\u2018"}, {"city": "Ni\u015f\u0101b", "latitude": 14.50743, "longitude": 46.49349, "state": "Shabwah"}, {"city": "Al Musaym\u012br", "latitude": 13.44389, "longitude": 44.61528, "state": "La\u1e29ij"}, {"city": "Mukayr\u0101s", "latitude": 13.94427, "longitude": 45.67074, "state": "Al Bayda"}, {"city": "M\u016bd\u012byah", "latitude": 13.9284, "longitude": 46.08254, "state": "Abyan Governorate"}, {"city": "Markaz Mudhaykirah", "latitude": 13.88953, "longitude": 43.9688, "state": "Ibb Governorate"}, {"city": "Minwakh", "latitude": 16.80035, "longitude": 48.10854, "state": "Muhafazat Hadramaout"}, {"city": "Mayfa\u2018ah", "latitude": 14.27533, "longitude": 47.58414, "state": "Shabwah"}, {"city": "M\u012bd\u012b", "latitude": 16.32101, "longitude": 42.81299, "state": "\u1e28ajjah"}, {"city": "Mawza\u2018", "latitude": 13.26831, "longitude": 43.50993, "state": "Ta\u2018izz"}, {"city": "M\u0101wiyah", "latitude": 13.58295, "longitude": 44.34768, "state": "Ta\u2018izz"}, {"city": "Al Jawl", "latitude": 14.45625, "longitude": 48.28066, "state": "Muhafazat Hadramaout"}, {"city": "Ma'rib", "latitude": 15.46253, "longitude": 45.32581, "state": "Ma\u2019rib"}, {"city": "Man\u0101khah", "latitude": 15.07422, "longitude": 43.74156, "state": "Sanaa Governorate"}, {"city": "Mil\u0101\u1e29", "latitude": 14.41617, "longitude": 44.78622, "state": "Al Bayda"}, {"city": "Al Mal\u0101\u1e29\u012b\u0163", "latitude": 16.76848, "longitude": 43.27582, "state": "\u015ea\u2018dah"}, {"city": "Al M\u0101f\u016bd", "latitude": 15.34264, "longitude": 47.25217, "state": "Shabwah"}, {"city": "Maf\u1e29aq", "latitude": 15.10162, "longitude": 43.90304, "state": "Sanaa Governorate"}, {"city": "Al Mad\u012bd", "latitude": 15.64453, "longitude": 44.47337, "state": "Sanaa Governorate"}, {"city": "Ma\u2018bar", "latitude": 14.79395, "longitude": 44.29354, "state": "Dham\u0101r"}, {"city": "Al Ma\u2018all\u0101\u2019", "latitude": 12.78987, "longitude": 45.00244, "state": "Aden"}, {"city": "Lawdar", "latitude": 13.88282, "longitude": 45.86859, "state": "Abyan Governorate"}, {"city": "La\u1e29ij", "latitude": 13.05667, "longitude": 44.88194, "state": null}, {"city": "Ku\u1e29l\u0101n \u2018Aff\u0101r", "latitude": 15.73309, "longitude": 43.71902, "state": "\u1e28ajjah"}, {"city": "Ku\u2018aydinah", "latitude": 15.82104, "longitude": 43.3372, "state": "\u1e28ajjah"}, {"city": "Crater", "latitude": 12.77522, "longitude": 45.03862, "state": "Aden"}, {"city": "Kit\u0101f", "latitude": 17.03165, "longitude": 44.10905, "state": "\u015ea\u2018dah"}, {"city": "Kilmia", "latitude": 12.18576, "longitude": 52.23332, "state": "Muhafazat Hadramaout"}, {"city": "Khawr Maksar", "latitude": 12.81227, "longitude": 45.03337, "state": "Aden"}, {"city": "Khawrah", "latitude": 14.43201, "longitude": 46.15435, "state": "Shabwah"}, {"city": "Khamir", "latitude": 15.98792, "longitude": 43.95362, "state": "Omran"}, {"city": "Juban", "latitude": 14.01164, "longitude": 44.8746, "state": "A\u1e11 \u1e10\u0101li\u2018"}, {"city": "Ji\u1e29\u0101nah", "latitude": 15.22628, "longitude": 44.48244, "state": "Sanaa Governorate"}, {"city": "Jiblah", "latitude": 13.92162, "longitude": 44.14668, "state": "Ibb Governorate"}, {"city": "Jawf al Maqb\u0101bah", "latitude": 13.83783, "longitude": 45.83488, "state": "Abyan Governorate"}, {"city": "Ja\u2018\u0101r", "latitude": 13.223, "longitude": 45.30559, "state": "Abyan Governorate"}, {"city": "Ibb", "latitude": 13.96667, "longitude": 44.18333, "state": "Ibb Governorate"}, {"city": "\u1e28\u016bth", "latitude": 16.23114, "longitude": 43.96854, "state": "Omran"}, {"city": "As Sal\u0101sil", "latitude": 16.47959, "longitude": 48.83153, "state": "Muhafazat Hadramaout"}, {"city": "Al \u2018Abr", "latitude": 16.1377, "longitude": 47.23545, "state": "Muhafazat Hadramaout"}, {"city": "\u1e28ays", "latitude": 13.9317, "longitude": 43.4831, "state": "Al Hudaydah"}, {"city": "\u1e28ayf\u0101n", "latitude": 13.31778, "longitude": 44.28011, "state": "Ta\u2018izz"}, {"city": "\u1e28awf", "latitude": 16.63383, "longitude": 53.03368, "state": "Al Mahrah Governorate"}, {"city": "\u1e28a\u015fwayn", "latitude": 15.59049, "longitude": 52.10077, "state": "Al Mahrah Governorate"}, {"city": "\u1e28ar\u012bb", "latitude": 14.93156, "longitude": 45.50356, "state": "Ma\u2019rib"}, {"city": "\u1e28ara\u1e11", "latitude": 16.40965, "longitude": 43.05883, "state": "\u1e28ajjah"}, {"city": "\u1e28amm\u0101m \u2018Al\u012b", "latitude": 14.66371, "longitude": 44.14763, "state": "Dham\u0101r"}, {"city": "\u1e28ajjah", "latitude": 15.69425, "longitude": 43.60582, "state": null}, {"city": "Mad\u012bnat Lab\u2018\u016bs", "latitude": 13.86667, "longitude": 45.25, "state": "La\u1e29ij"}, {"city": "Hadibu", "latitude": 12.64881, "longitude": 54.01895, "state": "Soqatra"}, {"city": "\u1e28ab\u012bl al Jabr", "latitude": 13.60422, "longitude": 44.98578, "state": "La\u1e29ij"}, {"city": "Al \u1e28ab\u012blayn", "latitude": 13.52002, "longitude": 44.85076, "state": "La\u1e29ij"}, {"city": "\u1e28abb\u0101n", "latitude": 14.35411, "longitude": 47.07649, "state": "Shabwah"}, {"city": "\u1e28ab\u0101bah", "latitude": 15.54418, "longitude": 43.87563, "state": "Omran"}, {"city": "Ghayl B\u0101 Waz\u012br", "latitude": 14.77611, "longitude": 49.36611, "state": "Muhafazat Hadramaout"}, {"city": "Dhub\u0101b", "latitude": 12.94305, "longitude": 43.41025, "state": "Ta\u2018izz"}, {"city": "Dh\u012b N\u0101\u2018im", "latitude": 14.10574, "longitude": 45.44807, "state": "Al Bayda"}, {"city": "Dhayb\u012bn", "latitude": 15.97712, "longitude": 44.12917, "state": "Omran"}, {"city": "Dh\u012b as Suf\u0101l", "latitude": 13.83446, "longitude": 44.11469, "state": "Ibb Governorate"}, {"city": "Dham\u0101r", "latitude": 14.54274, "longitude": 44.40514, "state": null}, {"city": "\u1e10awr\u0101n ad Daydah", "latitude": 14.73927, "longitude": 44.20664, "state": "Dham\u0101r"}, {"city": "D\u0101r an N\u0101\u015fir", "latitude": 13.5571, "longitude": 44.01521, "state": "Ta\u2018izz"}, {"city": "Bur\u016bm", "latitude": 14.36361, "longitude": 48.97972, "state": "Muhafazat Hadramaout"}, {"city": "Bayt \u2018Adh\u0101qah", "latitude": 15.61576, "longitude": 43.70228, "state": "Omran"}, {"city": "As S\u016bq al Jad\u012bd", "latitude": 15.82496, "longitude": 44.06204, "state": "Omran"}, {"city": "Bayt al Faq\u012bh", "latitude": 14.51635, "longitude": 43.32446, "state": "Al Hudaydah"}, {"city": "Bay\u1e29\u0101n", "latitude": 14.80067, "longitude": 45.71889, "state": "Shabwah"}, {"city": "Ban\u012b \u1e28ujj\u0101j", "latitude": 15.41683, "longitude": 43.3193, "state": "Al Mahwit Governorate"}, {"city": "Ban\u012b Bakr", "latitude": 13.93333, "longitude": 45.26667, "state": "La\u1e29ij"}, {"city": "B\u0101jil", "latitude": 15.05898, "longitude": 43.28731, "state": "Al Hudaydah"}, {"city": "Az Zuhrah", "latitude": 15.72377, "longitude": 42.99582, "state": "Al Hudaydah"}, {"city": "Az Zayd\u012byah", "latitude": 15.33049, "longitude": 43.00633, "state": "Al Hudaydah"}, {"city": "Az Z\u0101hir", "latitude": 16.31733, "longitude": 44.49505, "state": "Al Jawf"}, {"city": "Al \u1e28ajab", "latitude": 14.85192, "longitude": 45.52904, "state": "Shabwah"}, {"city": "Al \u2018Aw\u0101bil", "latitude": 13.83755, "longitude": 44.86431, "state": "A\u1e11 \u1e10\u0101li\u2018"}, {"city": "At Turbah", "latitude": 13.2127, "longitude": 44.12415, "state": "Ta\u2018izz"}, {"city": "At Tu\u1e29ayt\u0101\u2019", "latitude": 14.18356, "longitude": 43.22637, "state": "Al Hudaydah"}, {"city": "At Taw\u0101h\u012b", "latitude": 12.78471, "longitude": 44.9802, "state": "Aden"}, {"city": "Ataq", "latitude": 14.53767, "longitude": 46.83187, "state": "Shabwah"}, {"city": "As S\u016bdah", "latitude": 15.95861, "longitude": 43.78083, "state": "Omran"}, {"city": "As Sayy\u0101n\u012b", "latitude": 13.84266, "longitude": 44.17395, "state": "Ibb Governorate"}, {"city": "A\u015f \u015eawma\u2018ah", "latitude": 14.08505, "longitude": 45.80101, "state": "Al Bayda"}, {"city": "Al Bil\u0101d", "latitude": 16.13806, "longitude": 49.29167, "state": "Muhafazat Hadramaout"}, {"city": "As Saw\u0101d\u012byah", "latitude": 14.30113, "longitude": 45.22148, "state": "Al Bayda"}, {"city": "A\u015f \u015eal\u012bf", "latitude": 15.30755, "longitude": 42.67107, "state": "Al Hudaydah"}, {"city": "A\u015f \u015ea\u2018\u012bd", "latitude": 14.33011, "longitude": 46.87292, "state": "Shabwah"}, {"city": "A\u015f \u015eafaqayn", "latitude": 15.37922, "longitude": 43.42046, "state": "Al Mahwit Governorate"}, {"city": "As Saddah", "latitude": 14.1221, "longitude": 44.42139, "state": "Ibb Governorate"}, {"city": "Ash Shaykh \u2018Uthm\u0101n", "latitude": 12.87678, "longitude": 44.99309, "state": "Aden"}, {"city": "Ash Sha\u0163\u0163", "latitude": 12.89357, "longitude": 44.03571, "state": "La\u1e29ij"}, {"city": "Ash Sh\u0101hil", "latitude": 15.86656, "longitude": 43.40495, "state": "\u1e28ajjah"}, {"city": "Ash Shagh\u0101dirah", "latitude": 15.62, "longitude": 43.52056, "state": "\u1e28ajjah"}, {"city": "Asd\u0101s", "latitude": 15.76601, "longitude": 45.08151, "state": "Ma\u2019rib"}, {"city": "Marb\u0101\u0163", "latitude": 14.20567, "longitude": 46.38811, "state": "Shabwah"}, {"city": "Ar Raw\u1e11ah", "latitude": 15.43251, "longitude": 44.22399, "state": "Amanat Alasimah"}, {"city": "Ar Raw\u1e11ah", "latitude": 14.46725, "longitude": 47.27638, "state": "Shabwah"}, {"city": "An N\u0101dirah", "latitude": 14.09628, "longitude": 44.47559, "state": "Ibb Governorate"}, {"city": "\u2018Amr\u0101n", "latitude": 15.6594, "longitude": 43.94385, "state": "Omran"}, {"city": "\u2018Amd", "latitude": 15.3, "longitude": 47.98333, "state": "Muhafazat Hadramaout"}, {"city": "Al Wuday\u2018", "latitude": 13.7721, "longitude": 46.01785, "state": "Abyan Governorate"}, {"city": "Al \u2018Udayn", "latitude": 13.96918, "longitude": 43.99673, "state": "Ibb Governorate"}, {"city": "Al Qur\u1e29", "latitude": 16.73333, "longitude": 51.48333, "state": "Al Mahrah Governorate"}, {"city": "Al Qan\u0101wi\u015f", "latitude": 15.49285, "longitude": 43.1343, "state": "Al Hudaydah"}, {"city": "Al Qaflah", "latitude": 16.31897, "longitude": 43.76792, "state": "Omran"}, {"city": "Qaryat al Q\u0101bil", "latitude": 15.45033, "longitude": 44.12768, "state": "Amanat Alasimah"}, {"city": "\u0100l Ma\u2018\u016bdah", "latitude": 14.21055, "longitude": 45.38732, "state": "Al Bayda"}, {"city": "Al Mun\u012brah", "latitude": 15.32251, "longitude": 42.93005, "state": "Al Hudaydah"}, {"city": "Mukalla", "latitude": 14.54248, "longitude": 49.12424, "state": "Muhafazat Hadramaout"}, {"city": "Al Misr\u0101kh", "latitude": 13.46059, "longitude": 44.02043, "state": "Ta\u2018izz"}, {"city": "Al Mil\u0101\u1e29", "latitude": 13.42611, "longitude": 44.82556, "state": "La\u1e29ij"}, {"city": "Al Mighl\u0101f", "latitude": 15.28772, "longitude": 43.1891, "state": "Al Hudaydah"}, {"city": "Markaz al Mar\u012br", "latitude": 13.98178, "longitude": 43.59547, "state": "Al Hudaydah"}, {"city": "Al Mar\u0101wi\u2018ah", "latitude": 14.83069, "longitude": 43.15391, "state": "Al Hudaydah"}, {"city": "Al Man\u015f\u016br\u012byah", "latitude": 14.6856, "longitude": 43.29922, "state": "Al Hudaydah"}, {"city": "Al Man\u015f\u016brah", "latitude": 12.86019, "longitude": 44.98166, "state": "Aden"}, {"city": "Al Makh\u0101dir", "latitude": 14.12224, "longitude": 44.19797, "state": "Ibb Governorate"}, {"city": "Al Ma\u1e29w\u012bt", "latitude": 15.47007, "longitude": 43.54481, "state": "Al Mahwit Governorate"}, {"city": "Al Ma\u1e29fid", "latitude": 14.05847, "longitude": 46.91329, "state": "Abyan Governorate"}, {"city": "Al Ma\u1e29\u0101bishah", "latitude": 15.94758, "longitude": 43.43587, "state": "\u1e28ajjah"}, {"city": "Al Madu", "latitude": 13.85668, "longitude": 44.8184, "state": "A\u1e11 \u1e10\u0101li\u2018"}, {"city": "Al Lu\u1e29ayyah", "latitude": 15.70309, "longitude": 42.69093, "state": "Al Hudaydah"}, {"city": "Kirsh", "latitude": 13.36473, "longitude": 44.49046, "state": "La\u1e29ij"}, {"city": "Al Khawkhah", "latitude": 13.8071, "longitude": 43.2493, "state": "Al Hudaydah"}, {"city": "Al Jurbah", "latitude": 13.7915, "longitude": 45.15894, "state": "La\u1e29ij"}, {"city": "Al Jarr\u0101\u1e29\u012b", "latitude": 14.13254, "longitude": 43.38845, "state": "Al Hudaydah"}, {"city": "Al \u1e28usayn", "latitude": 13.79199, "longitude": 44.76886, "state": "A\u1e11 \u1e10\u0101li\u2018"}, {"city": "\u1e28uray\u1e11ah", "latitude": 15.59861, "longitude": 48.18278, "state": "Muhafazat Hadramaout"}, {"city": "Al \u1e28udaydah", "latitude": 14.79781, "longitude": 42.95452, "state": "Al Hudaydah"}, {"city": "Al \u1e28azm", "latitude": 16.16406, "longitude": 44.77692, "state": "Al Jawf"}, {"city": "Al Qa\u0163an", "latitude": 15.84056, "longitude": 48.45556, "state": "Muhafazat Hadramaout"}, {"city": "Al \u1e28arf", "latitude": 16.36395, "longitude": 44.09421, "state": "Omran"}, {"city": "\u1e28ajar al Mash\u0101\u2019ikh", "latitude": 16.13951, "longitude": 47.8323, "state": "Muhafazat Hadramaout"}, {"city": "Al Ghayz\u0327ah", "latitude": 16.20787, "longitude": 52.17605, "state": "Al Mahrah Governorate"}, {"city": "Al Burayqah", "latitude": 12.73944, "longitude": 44.88417, "state": "Aden"}, {"city": "Al Bayda", "latitude": 13.98523, "longitude": 45.57272, "state": null}, {"city": "Al B\u0101\u0163inah", "latitude": 15.48333, "longitude": 48.43333, "state": "Muhafazat Hadramaout"}, {"city": "Al \u2018\u0100qir", "latitude": 14.56816, "longitude": 45.91156, "state": "Shabwah"}, {"city": "A\u1e29war", "latitude": 13.52019, "longitude": 46.71367, "state": "Abyan Governorate"}, {"city": "Ad Durayhim\u012b", "latitude": 14.63702, "longitude": 43.05505, "state": "Al Hudaydah"}, {"city": "Ad D\u012bs ash Sharq\u012byah", "latitude": 14.9084, "longitude": 49.94847, "state": "Muhafazat Hadramaout"}, {"city": "Ad Dimnah", "latitude": 13.45398, "longitude": 44.18168, "state": "Ta\u2018izz"}, {"city": "Ad Dann", "latitude": 14.3518, "longitude": 43.85275, "state": "Dham\u0101r"}, {"city": "Az\u0327 Z\u0327al\u012b\u2018ah", "latitude": 15.01667, "longitude": 48.01667, "state": "Muhafazat Hadramaout"}, {"city": "A\u1e11 \u1e10\u0101li\u2018", "latitude": 13.69572, "longitude": 44.73137, "state": null}, {"city": "A\u1e11 \u1e10a\u1e29\u012b", "latitude": 15.21518, "longitude": 43.0702, "state": "Al Hudaydah"}, {"city": "Markaz Bil\u0101d a\u0163 \u0162a\u2018\u0101m", "latitude": 14.83361, "longitude": 43.53639, "state": "Raymah"}, {"city": "Al Jum\u2018ah", "latitude": 14.73779, "longitude": 43.96489, "state": "Dham\u0101r"}, {"city": "Al \u1e28ad\u012byah", "latitude": 14.52638, "longitude": 43.57045, "state": "Raymah"}, {"city": "Kusmah", "latitude": 14.58175, "longitude": 43.63676, "state": "Raymah"}, {"city": "Al Jab\u012bn", "latitude": 14.70389, "longitude": 43.59917, "state": "Raymah"}, {"city": "Riq\u0101b", "latitude": 14.88597, "longitude": 43.46491, "state": "Al Hudaydah"}, {"city": "As Sukhnah", "latitude": 14.79408, "longitude": 43.4362, "state": "Al Hudaydah"}, {"city": "Ar Rujum", "latitude": 15.45776, "longitude": 43.63226, "state": "Al Mahwit Governorate"}, {"city": "Al Kham\u012bs", "latitude": 15.18533, "longitude": 43.51122, "state": "Al Mahwit Governorate"}, {"city": "Al \u2018Urrah", "latitude": 15.24666, "longitude": 43.88834, "state": "Sanaa Governorate"}, {"city": "Al Maghrabah", "latitude": 15.87722, "longitude": 43.66667, "state": "\u1e28ajjah"}, {"city": "A\u015f \u015ear\u0101rah", "latitude": 15.79449, "longitude": 43.86997, "state": "Omran"}, {"city": "An N\u0101\u015firah", "latitude": 15.77277, "longitude": 43.80902, "state": "Omran"}, {"city": "Mabyan", "latitude": 15.73773, "longitude": 43.55701, "state": "\u1e28ajjah"}, {"city": "Matnah", "latitude": 15.25333, "longitude": 44.02472, "state": "Sanaa Governorate"}, {"city": "Al \u1e28ayfah", "latitude": 15.73494, "longitude": 44.23788, "state": "Sanaa Governorate"}, {"city": "Bayt Marr\u0101n", "latitude": 15.69312, "longitude": 44.2053, "state": "Sanaa Governorate"}, {"city": "Al Nashmah", "latitude": 13.39028, "longitude": 43.96833, "state": "Ta\u2018izz"}, {"city": "Al \u1e28ashwah", "latitude": 16.90641, "longitude": 44.27622, "state": "\u015ea\u2018dah"}, {"city": "S\u0101qayn", "latitude": 16.877, "longitude": 43.52499, "state": "\u015ea\u2018dah"}, {"city": "Al Ma\u1e29jal", "latitude": 16.71169, "longitude": 44.84769, "state": "Al Jawf"}, {"city": "Raj\u016bzah", "latitude": 16.70056, "longitude": 44.41454, "state": "Al Jawf"}, {"city": "Al Khir\u0101b", "latitude": 16.5544, "longitude": 44.29048, "state": "Al Jawf"}, {"city": "Al \u1e28umayd\u0101t", "latitude": 16.4844, "longitude": 44.42934, "state": "Al Jawf"}, {"city": "Al Mad\u0101n", "latitude": 16.22413, "longitude": 43.64383, "state": "Omran"}, {"city": "Al \u2018Ashshah", "latitude": 16.25652, "longitude": 43.85476, "state": "Omran"}, {"city": "\u1e28i\u015fn Ban\u012b Sa\u2018d", "latitude": 16.27293, "longitude": 44.47728, "state": "Al Jawf"}, {"city": "Al Mat\u016bn", "latitude": 16.23063, "longitude": 44.58476, "state": "Al Jawf"}, {"city": "Al Ma\u015fl\u016bb", "latitude": 16.18271, "longitude": 44.62613, "state": "Al Jawf"}, {"city": "Al Ghayl", "latitude": 16.10774, "longitude": 44.68005, "state": "Al Jawf"}, {"city": "Al Jam\u012bmah", "latitude": 16.01787, "longitude": 43.59647, "state": "\u1e28ajjah"}, {"city": "\u1e28ab\u016br", "latitude": 16.05097, "longitude": 43.70699, "state": "Omran"}, {"city": "Ar Raw\u1e11", "latitude": 16.06145, "longitude": 44.81012, "state": "Al Jawf"}, {"city": "Ar Rub\u016b\u2018", "latitude": 13.78024, "longitude": 43.86901, "state": "Ta\u2018izz"}, {"city": "Maqbanah", "latitude": 13.66394, "longitude": 43.6873, "state": "Ta\u2018izz"}, {"city": "\u1e10ub\u0101h", "latitude": 14.49052, "longitude": 44.13108, "state": "Dham\u0101r"}, {"city": "Ar Ri\u1e11\u0101\u2019\u012b", "latitude": 14.01712, "longitude": 44.39409, "state": "Ibb Governorate"}, {"city": "Al Mayfa\u2019ah", "latitude": 14.46392, "longitude": 44.54866, "state": "Dham\u0101r"}, {"city": "Ar Ra\u1e11mah", "latitude": 14.21973, "longitude": 44.58657, "state": "Ibb Governorate"}, {"city": "\u1e28amm\u0101m Damt", "latitude": 14.09031, "longitude": 44.67006, "state": "A\u1e11 \u1e10\u0101li\u2018"}, {"city": "Zakhim", "latitude": 14.29496, "longitude": 44.68504, "state": "Al Bayda"}, {"city": "Maswarah", "latitude": 14.34399, "longitude": 45.72623, "state": "Al Bayda"}, {"city": "\u0162awr al B\u0101\u1e29ah", "latitude": 13.18179, "longitude": 44.29966, "state": "La\u1e29ij"}, {"city": "Kushar", "latitude": 16.15523, "longitude": 43.42102, "state": "\u1e28ajjah"}, {"city": "Aslam", "latitude": 16.05961, "longitude": 43.32745, "state": "\u1e28ajjah"}, {"city": "\u1e28ayd\u0101n", "latitude": 16.77899, "longitude": 43.43372, "state": "\u015ea\u2018dah"}, {"city": "Al Mift\u0101\u1e29", "latitude": 15.97431, "longitude": 43.46381, "state": "\u1e28ajjah"}, {"city": "Aden", "latitude": 12.77944, "longitude": 45.03667, "state": null}, {"city": "Madghil", "latitude": 15.59858, "longitude": 45.04013, "state": "Ma\u2019rib"}, {"city": "Al \u1e28arjah", "latitude": 15.48869, "longitude": 44.66573, "state": "Ma\u2019rib"}, {"city": "Ban\u012b al \u2018Aww\u0101m", "latitude": 15.58119, "longitude": 43.58727, "state": "\u1e28ajjah"}, {"city": "Ban\u012b an Nah\u0101r\u012b", "latitude": 15.63981, "longitude": 43.55633, "state": "\u1e28ajjah"}, {"city": "Al Hijrah", "latitude": 17.29788, "longitude": 43.38718, "state": "\u015ea\u2018dah"}, {"city": "S\u016bq al Kham\u012bs", "latitude": 17.18126, "longitude": 43.28811, "state": "\u015ea\u2018dah"}, {"city": "Al Mash\u0101f", "latitude": 16.85836, "longitude": 43.19781, "state": "\u015ea\u2018dah"}, {"city": "Al Khar\u0101b", "latitude": 16.99129, "longitude": 43.33888, "state": "\u015ea\u2018dah"}, {"city": "Al \u2018Ayn", "latitude": 13.33005, "longitude": 44.09208, "state": "Ta\u2018izz"}, {"city": "Qaryat ad Da\u2018\u012bs", "latitude": 13.9877, "longitude": 44.2749, "state": "Ibb Governorate"}, {"city": "\u1e28azm al \u2018Udayn", "latitude": 14.02743, "longitude": 44.00526, "state": "Ibb Governorate"}, {"city": "An Najd", "latitude": 14.42152, "longitude": 45.29596, "state": "Al Bayda"}, {"city": "Ra\u1e29abah", "latitude": 14.8953, "longitude": 44.98893, "state": "Ma\u2019rib"}, {"city": "Al \u2018Am\u016bd", "latitude": 14.72103, "longitude": 45.20676, "state": "Ma\u2019rib"}, {"city": "Al \u2018Aqabah", "latitude": 14.27179, "longitude": 44.78699, "state": "Al Bayda"}, {"city": "Al Quraysh\u012byah", "latitude": 14.5122, "longitude": 44.85358, "state": "Al Bayda"}, {"city": "\u1e28awrah", "latitude": 13.35751, "longitude": 44.1458, "state": "Ta\u2018izz"}, {"city": "Ash Shaw\u0101t\u012b", "latitude": 16.78314, "longitude": 43.81265, "state": "\u015ea\u2018dah"}, {"city": "Al \u1e28amd\u012b", "latitude": 15.94727, "longitude": 48.77965, "state": "Muhafazat Hadramaout"}, {"city": "At Ta\u1e29\u0101luf", "latitude": 15.93786, "longitude": 48.78641, "state": "Muhafazat Hadramaout"}, {"city": "Su\u1e29ayl Shib\u0101m", "latitude": 15.91448, "longitude": 48.63864, "state": "Muhafazat Hadramaout"}, {"city": "Al Kh\u0101niq", "latitude": 15.50253, "longitude": 44.18158, "state": "Sanaa Governorate"}, {"city": "Bi\u2019r \u1e28\u0101t", "latitude": 17.32197, "longitude": 52.09566, "state": "Al Mahrah Governorate"}, {"city": "\u1e28ad\u0101dah", "latitude": 13.17535, "longitude": 44.27461, "state": "La\u1e29ij"}, {"city": "Rum\u0101h", "latitude": 17.45532, "longitude": 50.57789, "state": "Muhafazat Hadramaout"}, {"city": "Al Shir\u016bj", "latitude": 14.68526, "longitude": 47.76926, "state": "Muhafazat Hadramaout"}, {"city": "Jawl al Majma\u2018", "latitude": 14.93278, "longitude": 47.02763, "state": "Shabwah"}, {"city": "S\u016bq Sib\u0101\u1e29", "latitude": 13.81436, "longitude": 45.39229, "state": "Abyan Governorate"}, {"city": "Al \u1e28azm", "latitude": 14.68919, "longitude": 45.60962, "state": "Al Bayda"}, {"city": "Al Aq\u0163a\u2018", "latitude": 14.66217, "longitude": 45.35123, "state": "Ma\u2019rib"}, {"city": "B\u0101qim as S\u016bq", "latitude": 17.39713, "longitude": 43.47743, "state": "\u015ea\u2018dah"}, {"city": "Ma\u0163arah", "latitude": 15.52591, "longitude": 47.63339, "state": "Shabwah"}, {"city": "Khim\u0101r", "latitude": 14.3198, "longitude": 46.73922, "state": "Shabwah"}, {"city": "\u1e28ab\u012bl ar Raydah", "latitude": 13.6444, "longitude": 44.85097, "state": "La\u1e29ij"}, {"city": "Al \u2018Ulayb", "latitude": 15.14747, "longitude": 49.07325, "state": "Muhafazat Hadramaout"}, {"city": "A\u0163 \u0162al\u1e29", "latitude": 15.156, "longitude": 47.39903, "state": "Shabwah"}, {"city": "Sir\u0101r", "latitude": 13.63778, "longitude": 45.31371, "state": "Abyan Governorate"}, {"city": "Khayr\u0101n", "latitude": 16.02191, "longitude": 43.37859, "state": "\u1e28ajjah"}, {"city": "Al \u1e28u\u015f\u016bn", "latitude": 15.4739, "longitude": 45.36691, "state": "Ma\u2019rib"}, {"city": "Jaysh\u0101n", "latitude": 14.25204, "longitude": 46.17905, "state": "Abyan Governorate"}, {"city": "A\u015f \u015ealw", "latitude": 13.32887, "longitude": 44.21708, "state": "Ta\u2018izz"}, {"city": "Ra\u015fad", "latitude": 13.71215, "longitude": 45.30318, "state": "Abyan Governorate"}, {"city": "Sa\u1e29\u1e29ab", "latitude": 15.60223, "longitude": 44.0242, "state": "Omran"}, {"city": "Majz", "latitude": 17.06939, "longitude": 43.57507, "state": "\u015ea\u2018dah"}, {"city": "AL-khash\u0101 upper", "latitude": 14.34044, "longitude": 46.71365, "state": "Shabwah"}, {"city": "Al-Medy Village, \u0642\u0631\u064a\u0629 \u0627\u0644\u0645\u062f\u064a", "latitude": 14.40152, "longitude": 43.79178, "state": "Dham\u0101r"}, {"city": "Village of ALAMRAH", "latitude": 13.74318, "longitude": 43.72992, "state": "Ta\u2018izz"}, {"city": "Jadder Cemetery", "latitude": 15.467, "longitude": 44.17787, "state": "Amanat Alasimah"}, {"city": "Ahl Mohammed bin Ahmed", "latitude": 13.27733, "longitude": 45.39048, "state": "Abyan Governorate"}, {"city": "Al Qabyal", "latitude": 13.23672, "longitude": 44.4061, "state": "La\u1e29ij"}, {"city": "Al Madakisha", "latitude": 13.23663, "longitude": 44.40565, "state": "La\u1e29ij"}, {"city": "CPF", "latitude": 15.59166, "longitude": 49.13601, "state": "Muhafazat Hadramaout"}]