[{"city": "Vreed-en-Hoop", "latitude": 6.80927, "longitude": -58.19798, "state": "Essequibo Islands-West Demerara"}, {"city": "Skeldon", "latitude": 5.87035, "longitude": -57.14681, "state": "East Berbice-Corentyne"}, {"city": "Rosignol", "latitude": 6.27095, "longitude": -57.53697, "state": "Mahaica-Berbice"}, {"city": "Parika", "latitude": 6.83712, "longitude": -58.42941, "state": "Essequibo Islands-West Demerara"}, {"city": "New Amsterdam", "latitude": 6.24793, "longitude": -57.5171, "state": "East Berbice-Corentyne"}, {"city": "Mahdia", "latitude": 5.26667, "longitude": -59.15, "state": "Potaro-Siparuni"}, {"city": "Mahaicony Village", "latitude": 6.57212, "longitude": -57.80624, "state": "Mahaica-Berbice"}, {"city": "Mahaica Village", "latitude": 6.6817, "longitude": -57.92181, "state": "Demerara-Mahaica"}, {"city": "Mabaruma", "latitude": 8.2, "longitude": -59.78333, "state": "Barima-Waini"}, {"city": "Linden", "latitude": 6.00809, "longitude": -58.30714, "state": "Upper Demerara-Berbice"}, {"city": "Lethem", "latitude": 3.38333, "longitude": -59.8, "state": "Upper Takutu-Upper Essequibo"}, {"city": "Georgetown", "latitude": 6.80448, "longitude": -58.15527, "state": "Demerara-Mahaica"}, {"city": "Bartica", "latitude": 6.40799, "longitude": -58.62192, "state": "Cuyuni-Mazaruni"}, {"city": "Anna Regina", "latitude": 7.26439, "longitude": -58.50769, "state": "Pomeroon-Supenaam"}, {"city": "Fort Wellington", "latitude": 6.39087, "longitude": -57.60381, "state": "Mahaica-Berbice"}]