[{"city": "Zaza del Medio", "latitude": 21.99712, "longitude": -79.36678, "state": "Sancti Sp\u00edritus Province"}, {"city": "Yara", "latitude": 20.27465, "longitude": -76.95132, "state": "Granma Province"}, {"city": "Yaguajay", "latitude": 22.32691, "longitude": -79.23567, "state": "Sancti Sp\u00edritus Province"}, {"city": "Vi\u00f1ales", "latitude": 22.61892, "longitude": -83.70694, "state": "Pinar del R\u00edo"}, {"city": "V\u00edbora Park", "latitude": 23.08105, "longitude": -82.35448, "state": "Havana"}, {"city": "Vertientes", "latitude": 21.25817, "longitude": -78.14979, "state": "Camag\u00fcey"}, {"city": "Venezuela", "latitude": 21.73748, "longitude": -78.79336, "state": "Ciego de \u00c1vila Province"}, {"city": "Vega Alta", "latitude": 22.55, "longitude": -79.81917, "state": "Villa Clara Province"}, {"city": "Vedado del Cotorro", "latitude": 23.05, "longitude": -82.25, "state": "Havana"}, {"city": "Vedado", "latitude": 23.13767, "longitude": -82.39339, "state": "Havana"}, {"city": "Varadero", "latitude": 23.15678, "longitude": -81.24441, "state": "Matanzas Province"}, {"city": "San Germ\u00e1n", "latitude": 20.60009, "longitude": -76.13364, "state": "Holgu\u00edn Province"}, {"city": "Uni\u00f3n de Reyes", "latitude": 22.79505, "longitude": -81.53617, "state": "Matanzas Province"}, {"city": "Trinidad", "latitude": 21.80224, "longitude": -79.98467, "state": "Sancti Sp\u00edritus Province"}, {"city": "Topes de Collantes", "latitude": 21.91524, "longitude": -80.01929, "state": "Sancti Sp\u00edritus Province"}, {"city": "Tarar\u00e1", "latitude": 23.17452, "longitude": -82.20655, "state": "Havana"}, {"city": "Taguasco", "latitude": 22.00198, "longitude": -79.26387, "state": "Sancti Sp\u00edritus Province"}, {"city": "Soroa", "latitude": 22.79837, "longitude": -83.01253, "state": "Artemisa"}, {"city": "Sibanic\u00fa", "latitude": 21.23631, "longitude": -77.52561, "state": "Camag\u00fcey"}, {"city": "Santo Domingo", "latitude": 22.58677, "longitude": -80.24261, "state": "Villa Clara Province"}, {"city": "Santiago de las Vegas", "latitude": 22.97, "longitude": -82.38694, "state": "Havana"}, {"city": "Santiago de Cuba", "latitude": 20.02083, "longitude": -75.82667, "state": "Santiago de Cuba Province"}, {"city": "Santa Cruz del Sur", "latitude": 20.71633, "longitude": -77.99816, "state": "Camag\u00fcey"}, {"city": "Santa Cruz del Norte", "latitude": 23.15356, "longitude": -81.92262, "state": "Mayabeque"}, {"city": "Santa Clara", "latitude": 22.40694, "longitude": -79.96472, "state": "Villa Clara Province"}, {"city": "San Nicol\u00e1s de Bari", "latitude": 22.78444, "longitude": -81.91333, "state": "Mayabeque"}, {"city": "San Miguel del Padr\u00f3n", "latitude": 23.09544, "longitude": -82.32669, "state": "Havana"}, {"city": "San Luis", "latitude": 22.27898, "longitude": -83.75956, "state": "Pinar del R\u00edo"}, {"city": "San Luis", "latitude": 20.18809, "longitude": -75.85031, "state": "Santiago de Cuba Province"}, {"city": "San Juan y Mart\u00ednez", "latitude": 22.27967, "longitude": -83.8401, "state": "Pinar del R\u00edo"}, {"city": "San Jos\u00e9 de las Lajas", "latitude": 22.96139, "longitude": -82.15111, "state": "Mayabeque"}, {"city": "San Francisco de Paula", "latitude": 23.06325, "longitude": -82.29619, "state": "Havana"}, {"city": "San Diego de Los Ba\u00f1os", "latitude": 22.64667, "longitude": -83.36972, "state": "Pinar del R\u00edo"}, {"city": "Sancti Sp\u00edritus", "latitude": 21.92972, "longitude": -79.4425, "state": "Sancti Sp\u00edritus Province"}, {"city": "San Cristobal", "latitude": 22.71658, "longitude": -83.05647, "state": "Artemisa"}, {"city": "San Antonio del Sur", "latitude": 20.05756, "longitude": -74.81054, "state": "Guant\u00e1namo Province"}, {"city": "San Antonio de los Ba\u00f1os", "latitude": 22.89018, "longitude": -82.50099, "state": "Artemisa"}, {"city": "Sagua la Grande", "latitude": 22.80667, "longitude": -80.07556, "state": "Villa Clara Province"}, {"city": "Sagua de T\u00e1namo", "latitude": 20.58269, "longitude": -75.24116, "state": "Holgu\u00edn Province"}, {"city": "Rodas", "latitude": 22.34184, "longitude": -80.55596, "state": "Cienfuegos Province"}, {"city": "R\u00edo Guayabal de Yateras", "latitude": 20.36667, "longitude": -75.01667, "state": "Guant\u00e1namo Province"}, {"city": "R\u00edo Cauto", "latitude": 20.55971, "longitude": -76.91673, "state": "Granma Province"}, {"city": "Remedios", "latitude": 22.49502, "longitude": -79.54548, "state": "Villa Clara Province"}, {"city": "Regla", "latitude": 23.125, "longitude": -82.33194, "state": "Havana"}, {"city": "Ranchuelo", "latitude": 22.37266, "longitude": -80.15046, "state": "Villa Clara Province"}, {"city": "Rancho Veloz", "latitude": 22.88042, "longitude": -80.39098, "state": "Villa Clara Province"}, {"city": "Santa Luc\u00eda", "latitude": 21.02942, "longitude": -75.99441, "state": "Holgu\u00edn Province"}, {"city": "Quivic\u00e1n", "latitude": 22.82313, "longitude": -82.35558, "state": "Mayabeque"}, {"city": "Quemado de G\u00fcines", "latitude": 22.78816, "longitude": -80.25226, "state": "Villa Clara Province"}, {"city": "Puerto Padre", "latitude": 21.19517, "longitude": -76.60358, "state": "Las Tunas Province"}, {"city": "Puentes Grandes", "latitude": 23.1, "longitude": -82.4, "state": "Havana"}, {"city": "Primero de Enero", "latitude": 21.94501, "longitude": -78.4313, "state": "Ciego de \u00c1vila Province"}, {"city": "Playa Baracoa", "latitude": 23.04601, "longitude": -82.56723, "state": "Artemisa"}, {"city": "Placetas", "latitude": 22.31184, "longitude": -79.6544, "state": "Villa Clara Province"}, {"city": "Pinar del R\u00edo", "latitude": 22.41667, "longitude": -83.69667, "state": null}, {"city": "Pil\u00f3n", "latitude": 19.90553, "longitude": -77.32152, "state": "Granma Province"}, {"city": "Perico", "latitude": 22.76987, "longitude": -81.0183, "state": "Matanzas Province"}, {"city": "Pedro Betancourt", "latitude": 22.72709, "longitude": -81.28963, "state": "Matanzas Province"}, {"city": "Palmira", "latitude": 22.24126, "longitude": -80.3911, "state": "Cienfuegos Province"}, {"city": "Palma Soriano", "latitude": 20.2113, "longitude": -75.99362, "state": "Santiago de Cuba Province"}, {"city": "Palenque", "latitude": 20.36373, "longitude": -74.9704, "state": "Guant\u00e1namo Province"}, {"city": "Nuevitas", "latitude": 21.54585, "longitude": -77.26504, "state": "Camag\u00fcey"}, {"city": "Nueva Paz", "latitude": 22.76266, "longitude": -81.75617, "state": "Mayabeque"}, {"city": "Nueva Gerona", "latitude": 21.88667, "longitude": -82.80556, "state": "Isla de la Juventud"}, {"city": "Niquero", "latitude": 20.04698, "longitude": -77.58089, "state": "Granma Province"}, {"city": "Naranjito", "latitude": 23.07939, "longitude": -82.3769, "state": "Havana"}, {"city": "Najasa", "latitude": 21.07308, "longitude": -77.74516, "state": "Camag\u00fcey"}, {"city": "Mor\u00f3n", "latitude": 22.10774, "longitude": -78.62667, "state": "Ciego de \u00c1vila Province"}, {"city": "Moa", "latitude": 20.65776, "longitude": -74.95075, "state": "Holgu\u00edn Province"}, {"city": "Minas de Matahambre", "latitude": 22.58691, "longitude": -83.94551, "state": "Pinar del R\u00edo"}, {"city": "Minas", "latitude": 21.48802, "longitude": -77.61033, "state": "Camag\u00fcey"}, {"city": "Melena del Sur", "latitude": 22.78813, "longitude": -82.15138, "state": "Mayabeque"}, {"city": "Media Luna", "latitude": 20.14298, "longitude": -77.43532, "state": "Granma Province"}, {"city": "Mayar\u00ed", "latitude": 20.65417, "longitude": -75.67945, "state": "Holgu\u00edn Province"}, {"city": "Matanzas", "latitude": 23.04111, "longitude": -81.5775, "state": "Matanzas Province"}, {"city": "Mart\u00ed", "latitude": 22.94714, "longitude": -80.91902, "state": "Matanzas Province"}, {"city": "Mariel", "latitude": 22.98931, "longitude": -82.75376, "state": "Artemisa"}, {"city": "Marianao", "latitude": 23.07385, "longitude": -82.4189, "state": "Havana"}, {"city": "Manzanillo", "latitude": 20.34173, "longitude": -77.12126, "state": "Granma Province"}, {"city": "Mantua", "latitude": 22.29058, "longitude": -84.28599, "state": "Pinar del R\u00edo"}, {"city": "Mantilla", "latitude": 23.06794, "longitude": -82.34143, "state": "Havana"}, {"city": "Manicaragua", "latitude": 22.15021, "longitude": -79.97867, "state": "Villa Clara Province"}, {"city": "Manguito", "latitude": 22.58733, "longitude": -80.91451, "state": "Matanzas Province"}, {"city": "Manat\u00ed", "latitude": 21.3107, "longitude": -76.93403, "state": "Las Tunas Province"}, {"city": "Majagua", "latitude": 21.91717, "longitude": -79.00329, "state": "Ciego de \u00c1vila Province"}, {"city": "Mais\u00ed", "latitude": 20.24673, "longitude": -74.15181, "state": "Guant\u00e1namo Province"}, {"city": "Madruga", "latitude": 22.91, "longitude": -81.85639, "state": "Mayabeque"}, {"city": "Los Palacios", "latitude": 22.58882, "longitude": -83.24671, "state": "Pinar del R\u00edo"}, {"city": "Los Arabos", "latitude": 22.72969, "longitude": -80.72081, "state": "Matanzas Province"}, {"city": "Limonar", "latitude": 22.95035, "longitude": -81.41059, "state": "Matanzas Province"}, {"city": "Leader", "latitude": 23.03333, "longitude": -82.25, "state": "Havana"}, {"city": "V\u00edbora", "latitude": 23.09387, "longitude": -82.37191, "state": "Havana"}, {"city": "Las Tunas", "latitude": 20.96167, "longitude": -76.95111, "state": "Las Tunas Province"}, {"city": "La Sierpe", "latitude": 21.77241, "longitude": -79.26832, "state": "Sancti Sp\u00edritus Province"}, {"city": "La Salud", "latitude": 22.87199, "longitude": -82.42328, "state": "Mayabeque"}, {"city": "La Palma", "latitude": 22.74995, "longitude": -83.55415, "state": "Pinar del R\u00edo"}, {"city": "Lajas", "latitude": 22.41479, "longitude": -80.2931, "state": "Cienfuegos Province"}, {"city": "Havana", "latitude": 23.13302, "longitude": -82.38304, "state": null}, {"city": "Puerto Esperanza", "latitude": 22.77041, "longitude": -83.73138, "state": "Pinar del R\u00edo"}, {"city": "La Casualidad", "latitude": 23.0, "longitude": -82.21667, "state": "Mayabeque"}, {"city": "Jovellanos", "latitude": 22.80375, "longitude": -81.19127, "state": "Matanzas Province"}, {"city": "Jobabo", "latitude": 20.96917, "longitude": -76.29944, "state": "Holgu\u00edn Province"}, {"city": "Jobabo", "latitude": 20.90748, "longitude": -77.28194, "state": "Las Tunas Province"}, {"city": "Jiguan\u00ed", "latitude": 20.36785, "longitude": -76.42741, "state": "Granma Province"}, {"city": "Jes\u00fas Men\u00e9ndez", "latitude": 21.16139, "longitude": -76.47919, "state": "Las Tunas Province"}, {"city": "Jatibonico", "latitude": 21.94333, "longitude": -79.16906, "state": "Sancti Sp\u00edritus Province"}, {"city": "Jaruco", "latitude": 23.04419, "longitude": -82.00919, "state": "Mayabeque"}, {"city": "Jamaica", "latitude": 22.97559, "longitude": -82.16852, "state": "Mayabeque"}, {"city": "Jag\u00fcey Grande", "latitude": 22.52694, "longitude": -81.12861, "state": "Matanzas Province"}, {"city": "Isabela de Sagua", "latitude": 22.93924, "longitude": -80.01185, "state": "Villa Clara Province"}, {"city": "Im\u00edas", "latitude": 20.06936, "longitude": -74.6314, "state": "Guant\u00e1namo Province"}, {"city": "Holgu\u00edn", "latitude": 20.88722, "longitude": -76.26306, "state": "Holgu\u00edn Province"}, {"city": "Guisa", "latitude": 20.25494, "longitude": -76.5393, "state": "Granma Province"}, {"city": "G\u00fcira de Melena", "latitude": 22.79613, "longitude": -82.50667, "state": "Artemisa"}, {"city": "G\u00fcines", "latitude": 22.83727, "longitude": -82.02641, "state": "Mayabeque"}, {"city": "Guayos", "latitude": 22.04956, "longitude": -79.46106, "state": "Sancti Sp\u00edritus Province"}, {"city": "Guara", "latitude": 22.81, "longitude": -82.20306, "state": "Mayabeque"}, {"city": "Guant\u00e1namo", "latitude": 20.14444, "longitude": -75.20917, "state": "Guant\u00e1namo Province"}, {"city": "Guane", "latitude": 22.20179, "longitude": -84.08484, "state": "Pinar del R\u00edo"}, {"city": "Guanajay", "latitude": 22.92616, "longitude": -82.68687, "state": "Artemisa"}, {"city": "Guanabo", "latitude": 23.16831, "longitude": -82.13737, "state": "Havana"}, {"city": "Guanabacoa", "latitude": 23.12518, "longitude": -82.30067, "state": "Havana"}, {"city": "Gu\u00e1imaro", "latitude": 21.05222, "longitude": -77.3499, "state": "Camag\u00fcey"}, {"city": "Ma\u00f1alich", "latitude": 22.81112, "longitude": -82.14748, "state": "Mayabeque"}, {"city": "Gibara", "latitude": 21.10988, "longitude": -76.13145, "state": "Holgu\u00edn Province"}, {"city": "Gaspar", "latitude": 21.73872, "longitude": -78.54434, "state": "Ciego de \u00c1vila Province"}, {"city": "Fontanar", "latitude": 23.02389, "longitude": -82.408, "state": "Havana"}, {"city": "Fomento", "latitude": 22.10475, "longitude": -79.72141, "state": "Sancti Sp\u00edritus Province"}, {"city": "Florida", "latitude": 21.52536, "longitude": -78.22579, "state": "Camag\u00fcey"}, {"city": "Florencia", "latitude": 22.1461, "longitude": -78.97328, "state": "Ciego de \u00c1vila Province"}, {"city": "Esperanza", "latitude": 22.4468, "longitude": -80.09711, "state": "Villa Clara Province"}, {"city": "Esmeralda", "latitude": 21.85139, "longitude": -78.11725, "state": "Camag\u00fcey"}, {"city": "Encrucijada", "latitude": 22.61802, "longitude": -79.86603, "state": "Villa Clara Province"}, {"city": "El Cobre", "latitude": 20.0485, "longitude": -75.94579, "state": "Santiago de Cuba Province"}, {"city": "El Caney", "latitude": 21.3, "longitude": -78.48333, "state": "Camag\u00fcey"}, {"city": "Cumanayagua", "latitude": 22.15247, "longitude": -80.20354, "state": "Cienfuegos Province"}, {"city": "Cueto", "latitude": 20.64855, "longitude": -75.92967, "state": "Holgu\u00edn Province"}, {"city": "Cruces", "latitude": 22.34203, "longitude": -80.27021, "state": "Cienfuegos Province"}, {"city": "Corralillo", "latitude": 22.98212, "longitude": -80.58556, "state": "Villa Clara Province"}, {"city": "Contramaestre", "latitude": 20.29879, "longitude": -76.24511, "state": "Santiago de Cuba Province"}, {"city": "Consolaci\u00f3n del Sur", "latitude": 22.50419, "longitude": -83.51442, "state": "Pinar del R\u00edo"}, {"city": "Condado", "latitude": 21.8767, "longitude": -79.84014, "state": "Sancti Sp\u00edritus Province"}, {"city": "Col\u00f3n", "latitude": 22.72064, "longitude": -80.90492, "state": "Matanzas Province"}, {"city": "Colombia", "latitude": 20.98812, "longitude": -77.42598, "state": "Las Tunas Province"}, {"city": "Coj\u00edmar", "latitude": 23.16481, "longitude": -82.30116, "state": "Havana"}, {"city": "Ciro Redondo", "latitude": 22.01921, "longitude": -78.70365, "state": "Ciego de \u00c1vila Province"}, {"city": "Cifuentes", "latitude": 22.6493, "longitude": -80.04935, "state": "Villa Clara Province"}, {"city": "Cienfuegos", "latitude": 22.14681, "longitude": -80.4481, "state": "Cienfuegos Province"}, {"city": "Ciego de \u00c1vila", "latitude": 21.84, "longitude": -78.76194, "state": "Ciego de \u00c1vila Province"}, {"city": "Chambas", "latitude": 22.19534, "longitude": -78.9123, "state": "Ciego de \u00c1vila Province"}, {"city": "Cerro", "latitude": 23.10809, "longitude": -82.3866, "state": "Havana"}, {"city": "Cayo Mamb\u00ed", "latitude": 20.66381, "longitude": -75.26882, "state": "Holgu\u00edn Province"}, {"city": "Cauto Cristo", "latitude": 20.55709, "longitude": -76.4727, "state": "Granma Province"}, {"city": "Casablanca", "latitude": 23.14292, "longitude": -82.3399, "state": "Havana"}, {"city": "Luis Arcos Bergnes", "latitude": 22.50402, "longitude": -79.81521, "state": "Villa Clara Province"}, {"city": "Carlos Manuel de C\u00e9spedes", "latitude": 21.57572, "longitude": -78.28251, "state": "Camag\u00fcey"}, {"city": "C\u00e1rdenas", "latitude": 23.03661, "longitude": -81.20596, "state": "Matanzas Province"}, {"city": "Candelaria", "latitude": 22.74103, "longitude": -82.95738, "state": "Artemisa"}, {"city": "Campo Florido", "latitude": 22.81222, "longitude": -81.00167, "state": "Matanzas Province"}, {"city": "Campechuela", "latitude": 20.23329, "longitude": -77.2799, "state": "Granma Province"}, {"city": "Camajuan\u00ed", "latitude": 22.48333, "longitude": -79.75, "state": "Villa Clara Province"}, {"city": "Camajuan\u00ed", "latitude": 22.46476, "longitude": -79.72324, "state": "Villa Clara Province"}, {"city": "Camag\u00fcey", "latitude": 21.38083, "longitude": -77.91694, "state": null}, {"city": "Calixto", "latitude": 20.92036, "longitude": -76.87144, "state": "Las Tunas Province"}, {"city": "Calimete", "latitude": 22.5342, "longitude": -80.91105, "state": "Matanzas Province"}, {"city": "Calabazar de Sagua", "latitude": 22.64515, "longitude": -79.8951, "state": "Villa Clara Province"}, {"city": "Caimito", "latitude": 22.95052, "longitude": -82.59435, "state": "Artemisa"}, {"city": "Caibari\u00e9n", "latitude": 22.51996, "longitude": -79.46599, "state": "Villa Clara Province"}, {"city": "Cacocum", "latitude": 20.73775, "longitude": -76.32574, "state": "Holgu\u00edn Province"}, {"city": "Caba\u00f1as", "latitude": 22.97944, "longitude": -82.92214, "state": "Artemisa"}, {"city": "Cabaigu\u00e1n", "latitude": 22.07874, "longitude": -79.49726, "state": "Sancti Sp\u00edritus Province"}, {"city": "Buey Arriba", "latitude": 20.17182, "longitude": -76.75659, "state": "Granma Province"}, {"city": "Bolondr\u00f3n", "latitude": 22.76307, "longitude": -81.4478, "state": "Matanzas Province"}, {"city": "Bolivia", "latitude": 22.08397, "longitude": -78.33884, "state": "Ciego de \u00c1vila Province"}, {"city": "Bejucal", "latitude": 22.92861, "longitude": -82.38861, "state": "Mayabeque"}, {"city": "Bayamo", "latitude": 20.37417, "longitude": -76.64361, "state": "Granma Province"}, {"city": "Bauta", "latitude": 22.98226, "longitude": -82.54719, "state": "Artemisa"}, {"city": "Bataban\u00f3", "latitude": 22.71794, "longitude": -82.28965, "state": "Mayabeque"}, {"city": "Bartolom\u00e9 Mas\u00f3", "latitude": 20.16635, "longitude": -76.94291, "state": "Granma Province"}, {"city": "Baragu\u00e1", "latitude": 21.68216, "longitude": -78.62567, "state": "Ciego de \u00c1vila Province"}, {"city": "Baracoa", "latitude": 20.34711, "longitude": -74.49624, "state": "Guant\u00e1namo Province"}, {"city": "Banes", "latitude": 20.96116, "longitude": -75.722, "state": "Holgu\u00edn Province"}, {"city": "Balc\u00f3n de la Lisa", "latitude": 23.05346, "longitude": -82.4476, "state": "Havana"}, {"city": "Bah\u00eda Honda", "latitude": 22.90332, "longitude": -83.15994, "state": "Artemisa"}, {"city": "B\u00e1guanos", "latitude": 20.75103, "longitude": -76.02571, "state": "Holgu\u00edn Province"}, {"city": "Artemisa", "latitude": 22.81667, "longitude": -82.75944, "state": null}, {"city": "Arroyo Naranjo", "latitude": 23.03811, "longitude": -82.37703, "state": "Havana"}, {"city": "Antilla", "latitude": 20.83104, "longitude": -75.73566, "state": "Holgu\u00edn Province"}, {"city": "Amancio", "latitude": 20.81914, "longitude": -77.57958, "state": "Las Tunas Province"}, {"city": "Alta Habana", "latitude": 23.06302, "longitude": -82.39542, "state": "Havana"}, {"city": "Alqu\u00edzar", "latitude": 22.80517, "longitude": -82.58392, "state": "Artemisa"}, {"city": "Almendares", "latitude": 23.11012, "longitude": -82.42322, "state": "Havana"}, {"city": "Alamar", "latitude": 23.15794, "longitude": -82.27837, "state": "Havana"}, {"city": "Alacranes", "latitude": 22.76719, "longitude": -81.56803, "state": "Matanzas Province"}, {"city": "Aguada de Pasajeros", "latitude": 22.3852, "longitude": -80.84792, "state": "Cienfuegos Province"}, {"city": "Aguada de Moya", "latitude": 22.547, "longitude": -79.72014, "state": "Villa Clara Province"}, {"city": "Abreus", "latitude": 22.27797, "longitude": -80.56931, "state": "Cienfuegos Province"}, {"city": "Ciudad Camilo Cienfuegos", "latitude": 23.16076, "longitude": -82.32798, "state": "Havana"}, {"city": "Centro Habana", "latitude": 23.13833, "longitude": -82.36417, "state": "Havana"}, {"city": "La Habana Vieja", "latitude": 23.13028, "longitude": -82.35306, "state": "Havana"}, {"city": "Australia", "latitude": 22.49892, "longitude": -81.13486, "state": "Matanzas Province"}, {"city": "Jimaguay\u00fa", "latitude": 21.24224, "longitude": -77.82625, "state": "Camag\u00fcey"}, {"city": "Boyeros", "latitude": 23.0072, "longitude": -82.4017, "state": "Havana"}, {"city": "Diez de Octubre", "latitude": 23.0881, "longitude": -82.3597, "state": "Havana"}, {"city": "Plaza de la Revoluci\u00f3n", "latitude": 23.11936, "longitude": -82.39197, "state": "Havana"}, {"city": "Segundo Frente", "latitude": 20.41384, "longitude": -75.49635, "state": "Santiago de Cuba Province"}, {"city": "Cubitas", "latitude": 21.71212, "longitude": -77.7613, "state": "Camag\u00fcey"}, {"city": "La M\u00e1quina", "latitude": 20.19198, "longitude": -74.22719, "state": "Guant\u00e1namo Province"}]