[{"city": "Zombo", "latitude": 2.51355, "longitude": 30.90909, "state": "Northern Region"}, {"city": "Yumbe", "latitude": 3.46506, "longitude": 31.24689, "state": "Northern Region"}, {"city": "Wobulenzi", "latitude": 0.72833, "longitude": 32.51222, "state": "Central Region"}, {"city": "Wakiso", "latitude": 0.40444, "longitude": 32.45944, "state": "Central Region"}, {"city": "Tororo", "latitude": 0.69299, "longitude": 34.18085, "state": "Eastern Region"}, {"city": "Soroti", "latitude": 1.71464, "longitude": 33.61113, "state": "Eastern Region"}, {"city": "Sironko", "latitude": 1.23132, "longitude": 34.24773, "state": "Eastern Region"}, {"city": "Serere", "latitude": 1.49417, "longitude": 33.45528, "state": "Eastern Region"}, {"city": "Sembabule", "latitude": -0.07722, "longitude": 31.45667, "state": "Central Region"}, {"city": "Rukungiri", "latitude": -0.84111, "longitude": 29.94194, "state": "Western Region"}, {"city": "Rubirizi", "latitude": -0.29889, "longitude": 30.13361, "state": "Western Region"}, {"city": "Rubanda", "latitude": -1.18833, "longitude": 29.84611, "state": "Western Region"}, {"city": "Rakai", "latitude": -0.72, "longitude": 31.48389, "state": "Central Region"}, {"city": "Pallisa", "latitude": 1.145, "longitude": 33.70944, "state": "Eastern Region"}, {"city": "Paidha", "latitude": 2.41669, "longitude": 30.98551, "state": "Northern Region"}, {"city": "Pader Palwo", "latitude": 2.80056, "longitude": 33.135, "state": "Northern Region"}, {"city": "Nyachera", "latitude": -0.9, "longitude": 30.41667, "state": "Western Region"}, {"city": "Ntungamo", "latitude": -0.88333, "longitude": 29.65, "state": "Western Region"}, {"city": "Ntungamo", "latitude": -0.87944, "longitude": 30.26417, "state": "Western Region"}, {"city": "Ntoroko", "latitude": 1.04111, "longitude": 30.48111, "state": "Western Region"}, {"city": "Nsika", "latitude": -0.358, "longitude": 30.43136, "state": "Western Region"}, {"city": "Njeru", "latitude": 0.44166, "longitude": 33.17917, "state": "Central Region"}, {"city": "Ngora", "latitude": 1.43139, "longitude": 33.77722, "state": "Eastern Region"}, {"city": "Nebbi", "latitude": 2.47826, "longitude": 31.08893, "state": "Northern Region"}, {"city": "Namutumba", "latitude": 0.83611, "longitude": 33.68611, "state": "Eastern Region"}, {"city": "Namasuba", "latitude": 0.68944, "longitude": 32.42139, "state": "Central Region"}, {"city": "Nakasongola", "latitude": 1.30889, "longitude": 32.45639, "state": "Central Region"}, {"city": "Nakaseke", "latitude": 0.75167, "longitude": 32.385, "state": "Central Region"}, {"city": "Mukono", "latitude": 0.35333, "longitude": 32.75528, "state": "Central Region"}, {"city": "Muhororo", "latitude": 0.93806, "longitude": 30.75944, "state": "Western Region"}, {"city": "Mubende", "latitude": 0.55849, "longitude": 31.39489, "state": "Central Region"}, {"city": "Mpigi", "latitude": 0.225, "longitude": 32.31361, "state": "Central Region"}, {"city": "Moyo", "latitude": 3.66088, "longitude": 31.72474, "state": "Northern Region"}, {"city": "Moroto", "latitude": 2.53453, "longitude": 34.66659, "state": "Northern Region"}, {"city": "Mityana", "latitude": 0.4175, "longitude": 32.02278, "state": "Central Region"}, {"city": "Mitoma", "latitude": -0.68417, "longitude": 30.07, "state": "Western Region"}, {"city": "Mbarara", "latitude": -0.60467, "longitude": 30.64851, "state": "Western Region"}, {"city": "Mbale", "latitude": 1.08209, "longitude": 34.17503, "state": "Eastern Region"}, {"city": "Mayuge", "latitude": 0.45972, "longitude": 33.48028, "state": "Eastern Region"}, {"city": "Masindi Port", "latitude": 1.69606, "longitude": 32.08608, "state": "Western Region"}, {"city": "Masindi", "latitude": 1.67444, "longitude": 31.715, "state": "Western Region"}, {"city": "Masaka", "latitude": -0.33379, "longitude": 31.73409, "state": "Central Region"}, {"city": "Maracha", "latitude": 3.27042, "longitude": 30.95532, "state": "Northern Region"}, {"city": "Lyantonde", "latitude": -0.40306, "longitude": 31.15722, "state": "Central Region"}, {"city": "Lwengo", "latitude": -0.41611, "longitude": 31.40806, "state": "Central Region"}, {"city": "Luwero", "latitude": 0.84917, "longitude": 32.47306, "state": "Central Region"}, {"city": "Lugazi", "latitude": 0.36788, "longitude": 32.9376, "state": "Central Region"}, {"city": "Lira", "latitude": 2.2499, "longitude": 32.89985, "state": "Northern Region"}, {"city": "Kyotera", "latitude": -0.61556, "longitude": 31.5175, "state": "Central Region"}, {"city": "Kyenjojo", "latitude": 0.63278, "longitude": 30.62139, "state": "Western Region"}, {"city": "Kyegegwa", "latitude": 0.50222, "longitude": 31.04139, "state": "Western Region"}, {"city": "Kumi", "latitude": 1.46083, "longitude": 33.93611, "state": "Eastern Region"}, {"city": "Kotido", "latitude": 2.98056, "longitude": 34.13306, "state": "Northern Region"}, {"city": "Koboko", "latitude": 3.41364, "longitude": 30.95994, "state": "Northern Region"}, {"city": "Kitgum", "latitude": 3.27833, "longitude": 32.88667, "state": "Northern Region"}, {"city": "Kisoro", "latitude": -1.28538, "longitude": 29.68497, "state": "Western Region"}, {"city": "Kiryandongo", "latitude": 1.87633, "longitude": 32.06225, "state": "Western Region"}, {"city": "Kiruhura", "latitude": -0.19664, "longitude": 30.84446, "state": "Western Region"}, {"city": "Kireka", "latitude": 0.3475, "longitude": 32.64917, "state": "Central Region"}, {"city": "Kilembe", "latitude": 0.19835, "longitude": 30.01302, "state": "Western Region"}, {"city": "Kigorobya", "latitude": 1.6162, "longitude": 31.3089, "state": "Western Region"}, {"city": "Kibuku", "latitude": 1.04333, "longitude": 33.7975, "state": "Eastern Region"}, {"city": "Kiboga", "latitude": 0.91611, "longitude": 31.77417, "state": "Central Region"}, {"city": "Kibingo", "latitude": -0.62602, "longitude": 30.43594, "state": "Western Region"}, {"city": "Kibale", "latitude": 0.8, "longitude": 31.06667, "state": "Western Region"}, {"city": "Kayunga", "latitude": 0.7025, "longitude": 32.88861, "state": "Central Region"}, {"city": "Katakwi", "latitude": 1.89111, "longitude": 33.96611, "state": "Eastern Region"}, {"city": "Kasese", "latitude": 0.18333, "longitude": 30.08333, "state": "Western Region"}, {"city": "Kapchorwa", "latitude": 1.40096, "longitude": 34.45038, "state": "Eastern Region"}, {"city": "Kanungu", "latitude": -0.9575, "longitude": 29.78972, "state": "Western Region"}, {"city": "Kanoni", "latitude": 0.17722, "longitude": 31.88111, "state": "Central Region"}, {"city": "Kamwenge", "latitude": 0.1866, "longitude": 30.45393, "state": "Western Region"}, {"city": "Kamuli", "latitude": 0.94722, "longitude": 33.11972, "state": "Eastern Region"}, {"city": "Kampala", "latitude": 0.31628, "longitude": 32.58219, "state": "Central Region"}, {"city": "Kalungu", "latitude": -0.16969, "longitude": 31.75847, "state": "Central Region"}, {"city": "Kaliro", "latitude": 0.89444, "longitude": 33.49944, "state": "Eastern Region"}, {"city": "Kalangala", "latitude": -0.30889, "longitude": 32.225, "state": "Central Region"}, {"city": "Kakumiro", "latitude": 0.78056, "longitude": 31.32361, "state": "Western Region"}, {"city": "Kajansi", "latitude": 0.21548, "longitude": 32.53453, "state": "Central Region"}, {"city": "Kagadi", "latitude": 0.93778, "longitude": 30.80889, "state": "Western Region"}, {"city": "Kaberamaido", "latitude": 1.73889, "longitude": 33.15944, "state": "Eastern Region"}, {"city": "Kabale", "latitude": -1.24857, "longitude": 29.98993, "state": "Western Region"}, {"city": "Kaabong", "latitude": 3.48361, "longitude": 34.14917, "state": "Northern Region"}, {"city": "Jinja", "latitude": 0.43902, "longitude": 33.20317, "state": "Eastern Region"}, {"city": "Iganga", "latitude": 0.60917, "longitude": 33.46861, "state": "Eastern Region"}, {"city": "Ibanda", "latitude": -0.13398, "longitude": 30.49616, "state": "Western Region"}, {"city": "Hoima", "latitude": 1.43314, "longitude": 31.35241, "state": "Western Region"}, {"city": "Gulu", "latitude": 2.77457, "longitude": 32.29899, "state": "Northern Region"}, {"city": "Gombe", "latitude": 0.20333, "longitude": 32.08806, "state": "Central Region"}, {"city": "Fort Portal", "latitude": 0.66174, "longitude": 30.2748, "state": "Western Region"}, {"city": "Entebbe", "latitude": 0.05621, "longitude": 32.47949, "state": "Central Region"}, {"city": "Dokolo", "latitude": 1.89833, "longitude": 33.1775, "state": "Northern Region"}, {"city": "Byakabanda", "latitude": -0.7425, "longitude": 31.40639, "state": "Central Region"}, {"city": "Bwizibwera", "latitude": -0.59167, "longitude": 30.62861, "state": "Western Region"}, {"city": "Bweyogerere", "latitude": 0.35773, "longitude": 32.66332, "state": "Central Region"}, {"city": "Buyende", "latitude": 1.15167, "longitude": 33.155, "state": "Eastern Region"}, {"city": "Buwenge", "latitude": 0.64996, "longitude": 33.17128, "state": "Eastern Region"}, {"city": "Butebo", "latitude": 1.19417, "longitude": 33.92222, "state": "Eastern Region"}, {"city": "Butaleja", "latitude": 0.91194, "longitude": 33.95111, "state": "Eastern Region"}, {"city": "Busia", "latitude": 0.46588, "longitude": 34.09221, "state": "Eastern Region"}, {"city": "Bushenyi", "latitude": -0.53695, "longitude": 30.18579, "state": "Western Region"}, {"city": "Busembatia", "latitude": 0.77725, "longitude": 33.62364, "state": "Eastern Region"}, {"city": "Bundibugyo", "latitude": 0.71117, "longitude": 30.06469, "state": "Western Region"}, {"city": "Buliisa", "latitude": 2.11781, "longitude": 31.41163, "state": "Western Region"}, {"city": "Bulambuli", "latitude": 1.309, "longitude": 34.283, "state": "Eastern Region"}, {"city": "Bukwa", "latitude": 1.25917, "longitude": 34.75389, "state": "Eastern Region"}, {"city": "Bukomansimbi", "latitude": -0.15778, "longitude": 31.60417, "state": "Central Region"}, {"city": "Bukedea", "latitude": 1.31694, "longitude": 34.05056, "state": "Eastern Region"}, {"city": "Buikwe", "latitude": 0.3375, "longitude": 33.01056, "state": "Central Region"}, {"city": "Bugiri", "latitude": 0.57139, "longitude": 33.74167, "state": "Eastern Region"}, {"city": "Bugembe", "latitude": 0.48213, "longitude": 33.24065, "state": "Eastern Region"}, {"city": "Bududa", "latitude": 1.01118, "longitude": 34.33112, "state": "Eastern Region"}, {"city": "Budaka", "latitude": 1.00389, "longitude": 33.92556, "state": "Eastern Region"}, {"city": "Binyiny", "latitude": 1.41667, "longitude": 34.53333, "state": "Eastern Region"}, {"city": "Arua", "latitude": 3.02013, "longitude": 30.91105, "state": "Northern Region"}, {"city": "Apac", "latitude": 1.97556, "longitude": 32.53861, "state": "Northern Region"}, {"city": "Amuria", "latitude": 2.00361, "longitude": 33.65111, "state": "Eastern Region"}, {"city": "Amudat", "latitude": 1.95, "longitude": 34.95, "state": "Northern Region"}, {"city": "Amolatar", "latitude": 1.61556, "longitude": 32.83972, "state": "Northern Region"}, {"city": "Alebtong", "latitude": 2.24472, "longitude": 33.25472, "state": "Northern Region"}, {"city": "Adjumani", "latitude": 3.37786, "longitude": 31.7909, "state": "Northern Region"}, {"city": "Abim", "latitude": 2.70167, "longitude": 33.67611, "state": "Northern Region"}, {"city": "Nakapiripirit", "latitude": 1.91667, "longitude": 34.78333, "state": "Northern Region"}, {"city": "Pader", "latitude": 3.05, "longitude": 33.21667, "state": "Northern Region"}, {"city": "Nwoya", "latitude": 2.63422, "longitude": 32.00106, "state": "Northern Region"}, {"city": "Isingiro", "latitude": -0.86864, "longitude": 30.83019, "state": "Western Region"}, {"city": "Manafwa", "latitude": 0.952, "longitude": 34.27, "state": "Eastern Region"}, {"city": "Oyam", "latitude": 2.235, "longitude": 32.38495, "state": "Northern Region"}, {"city": "Amuru", "latitude": 2.81388, "longitude": 31.93868, "state": "Northern Region"}, {"city": "Namayingo", "latitude": 0.23983, "longitude": 33.88491, "state": "Eastern Region"}, {"city": "Kitamilo", "latitude": 0.22215, "longitude": 33.20608, "state": "Central Region"}, {"city": "Kyankwanzi", "latitude": 1.20061, "longitude": 31.80063, "state": "Central Region"}, {"city": "Kole", "latitude": 2.40015, "longitude": 32.80034, "state": "Northern Region"}, {"city": "Otuke", "latitude": 2.50038, "longitude": 33.50065, "state": "Northern Region"}, {"city": "Napak", "latitude": 2.25139, "longitude": 34.25012, "state": "Northern Region"}, {"city": "Luuka Town", "latitude": 0.70076, "longitude": 33.3002, "state": "Eastern Region"}, {"city": "Buhweju", "latitude": -0.35027, "longitude": 30.30029, "state": "Western Region"}, {"city": "Agago", "latitude": 2.83383, "longitude": 33.33361, "state": "Northern Region"}, {"city": "Lamwo", "latitude": 3.52972, "longitude": 32.8016, "state": "Northern Region"}, {"city": "Kampala Central Division", "latitude": 0.32467, "longitude": 32.5747, "state": "Central Region"}]