[{"city": "War\u012bs\u0101n", "latitude": 25.16744, "longitude": 55.40708, "state": "Dubai"}, {"city": "Umm Al Quwain City", "latitude": 25.56473, "longitude": 55.55517, "state": "Im\u0101rat Umm al Qaywayn"}, {"city": "Ras Al Khaimah City", "latitude": 25.78953, "longitude": 55.9432, "state": "Ra\u02bcs al Khaymah"}, {"city": "Muzayri\u2018", "latitude": 23.14355, "longitude": 53.7881, "state": "Abu Dhabi"}, {"city": "Murba\u1e29", "latitude": 25.27623, "longitude": 56.36256, "state": "Sharjah"}, {"city": "Ma\u015ff\u016b\u0163", "latitude": 24.81089, "longitude": 56.10657, "state": "Ajman"}, {"city": "Zayed City", "latitude": 23.65416, "longitude": 53.70522, "state": "Abu Dhabi"}, {"city": "Khawr Fakk\u0101n", "latitude": 25.33132, "longitude": 56.34199, "state": "Sharjah"}, {"city": "Kalb\u0101", "latitude": 25.07462, "longitude": 56.35545, "state": "Sharjah"}, {"city": "Jumayr\u0101", "latitude": 25.20795, "longitude": 55.24969, "state": "Dubai"}, {"city": "Dubai", "latitude": 25.07725, "longitude": 55.30927, "state": null}, {"city": "Dibba Al-Fujairah", "latitude": 25.59246, "longitude": 56.26176, "state": "Fujairah"}, {"city": "Dibba Al-Hisn", "latitude": 25.61955, "longitude": 56.27291, "state": "Fujairah"}, {"city": "Sharjah", "latitude": 25.33737, "longitude": 55.41206, "state": null}, {"city": "Ar Ruways", "latitude": 24.11028, "longitude": 52.73056, "state": "Abu Dhabi"}, {"city": "Al Man\u0101mah", "latitude": 25.3299, "longitude": 56.02188, "state": "Ajman"}, {"city": "Al \u1e28amr\u012byah", "latitude": 25.47819, "longitude": 55.53377, "state": "Sharjah"}, {"city": "\u1e28att\u0101", "latitude": 24.80073, "longitude": 56.12726, "state": "Dubai"}, {"city": "Al Fujairah City", "latitude": 25.11641, "longitude": 56.34141, "state": "Fujairah"}, {"city": "Al Ain City", "latitude": 24.19167, "longitude": 55.76056, "state": "Abu Dhabi"}, {"city": "Ajman City", "latitude": 25.40177, "longitude": 55.47878, "state": "Ajman"}, {"city": "Adh Dhayd", "latitude": 25.28812, "longitude": 55.88157, "state": "Sharjah"}, {"city": "Abu Dhabi", "latitude": 24.45118, "longitude": 54.39696, "state": null}, {"city": "Al \u1e28am\u012bd\u012byah", "latitude": 25.40001, "longitude": 55.52925, "state": "Ajman"}, {"city": "Knowledge Village", "latitude": 25.10223, "longitude": 55.16433, "state": "Dubai"}, {"city": "Bur Dubai", "latitude": 25.26038, "longitude": 55.29891, "state": "Dubai"}, {"city": "Khalifah A City", "latitude": 24.42588, "longitude": 54.605, "state": "Abu Dhabi"}, {"city": "Dubai Marina", "latitude": 25.08525, "longitude": 55.14646, "state": "Dubai"}, {"city": "Dubai Sports City", "latitude": 25.03878, "longitude": 55.21725, "state": "Dubai"}, {"city": "Dubai Internet City", "latitude": 25.09538, "longitude": 55.16171, "state": "Dubai"}, {"city": "Ar Rumaylah", "latitude": 25.40338, "longitude": 55.4334, "state": "Ajman"}, {"city": "Mushayrif", "latitude": 25.40977, "longitude": 55.47106, "state": "Ajman"}, {"city": "Al Jurf", "latitude": 25.41814, "longitude": 55.50791, "state": "Ajman"}, {"city": "Dubai Festival City", "latitude": 25.22177, "longitude": 55.35733, "state": "Dubai"}, {"city": "Dubai International Financial Centre", "latitude": 25.2106, "longitude": 55.27787, "state": "Dubai"}, {"city": "Downtown Dubai", "latitude": 25.19408, "longitude": 55.2781, "state": "Dubai"}, {"city": "Dubai Investments Park", "latitude": 25.00827, "longitude": 55.15682, "state": "Dubai"}, {"city": "Jebel Ali", "latitude": 25.00255, "longitude": 55.10811, "state": "Dubai"}, {"city": "Bani Yas City", "latitude": 24.30978, "longitude": 54.62944, "state": "Abu Dhabi"}, {"city": "Musaffah", "latitude": 24.35893, "longitude": 54.48267, "state": "Abu Dhabi"}, {"city": "Al Shamkhah City", "latitude": 24.39268, "longitude": 54.70779, "state": "Abu Dhabi"}, {"city": "Reef Al Fujairah City", "latitude": 25.14479, "longitude": 56.24764, "state": "Fujairah"}, {"city": "Al Wiqan", "latitude": 23.75355, "longitude": 55.32739, "state": "Abu Dhabi"}]