[{"city": "Weno", "latitude": 7.44648, "longitude": 151.84135, "state": "Chuuk"}, {"city": "Tofol", "latitude": 5.32479, "longitude": 163.00781, "state": "Kosrae"}, {"city": "Palikir - National Government Center", "latitude": 6.92477, "longitude": 158.16109, "state": "Pohnpei State"}, {"city": "Kolonia Town", "latitude": 6.964, "longitude": 158.206, "state": "Pohnpei State"}, {"city": "Rumung", "latitude": 9.622, "longitude": 138.154, "state": "Yap State"}, {"city": "Kolonia", "latitude": 6.964, "longitude": 158.2062, "state": "Pohnpei State"}, {"city": "Kapingamarangi", "latitude": 1.07861, "longitude": 154.80752, "state": "Pohnpei State"}, {"city": "Nukuoro", "latitude": 3.83619, "longitude": 154.97143, "state": "Pohnpei State"}, {"city": "Ngatik", "latitude": 5.78849, "longitude": 157.15954, "state": "Pohnpei State"}, {"city": "Pingelap", "latitude": 6.20589, "longitude": 160.70327, "state": "Pohnpei State"}, {"city": "Namoluk", "latitude": 5.924, "longitude": 153.152, "state": "Chuuk"}, {"city": "Houk", "latitude": 6.6894, "longitude": 149.29908, "state": "Chuuk"}, {"city": "Polowat", "latitude": 7.35661, "longitude": 149.19908, "state": "Chuuk"}, {"city": "Pulap", "latitude": 7.6366, "longitude": 149.42878, "state": "Chuuk"}, {"city": "Tamatam", "latitude": 7.53868, "longitude": 149.41428, "state": "Chuuk"}, {"city": "Onoun", "latitude": 8.575, "longitude": 149.687, "state": "Chuuk"}, {"city": "Pisaras", "latitude": 8.569, "longitude": 150.4195, "state": "Chuuk"}, {"city": "Onou", "latitude": 8.799, "longitude": 150.2915, "state": "Chuuk"}, {"city": "Unanu", "latitude": 8.75, "longitude": 150.341, "state": "Chuuk"}, {"city": "Makur", "latitude": 8.985, "longitude": 150.1275, "state": "Chuuk"}, {"city": "Mokil", "latitude": 6.69281, "longitude": 159.76283, "state": "Pohnpei State"}, {"city": "Nomwin", "latitude": 8.43, "longitude": 151.748, "state": "Chuuk"}, {"city": "Fananu", "latitude": 8.55811, "longitude": 151.90922, "state": "Chuuk"}, {"city": "Murilo", "latitude": 8.69242, "longitude": 152.33934, "state": "Chuuk"}, {"city": "Ruo", "latitude": 8.609, "longitude": 152.2455, "state": "Chuuk"}, {"city": "Nema", "latitude": 6.98922, "longitude": 152.57377, "state": "Chuuk"}, {"city": "Losap", "latitude": 6.894, "longitude": 152.74, "state": "Chuuk"}, {"city": "Piis", "latitude": 6.834, "longitude": 152.701, "state": "Chuuk"}, {"city": "Ettal", "latitude": 5.584, "longitude": 153.586, "state": "Chuuk"}, {"city": "Lukunor", "latitude": 5.507, "longitude": 153.8205, "state": "Chuuk"}, {"city": "Oneop", "latitude": 5.5066, "longitude": 153.7105, "state": "Chuuk"}, {"city": "Moch", "latitude": 5.4918, "longitude": 153.54, "state": "Chuuk"}, {"city": "Kuttu", "latitude": 5.453, "longitude": 153.4575, "state": "Chuuk"}, {"city": "Ta", "latitude": 5.2842, "longitude": 153.648, "state": "Chuuk"}, {"city": "Satowan", "latitude": 5.334, "longitude": 153.738, "state": "Chuuk"}, {"city": "Satawal", "latitude": 7.382, "longitude": 147.0322, "state": "Yap State"}, {"city": "Lamotrek", "latitude": 7.491, "longitude": 146.305, "state": "Yap State"}, {"city": "Elato", "latitude": 7.502, "longitude": 146.166, "state": "Yap State"}, {"city": "Faraulep", "latitude": 8.588, "longitude": 144.508, "state": "Yap State"}, {"city": "Ifalik", "latitude": 7.25, "longitude": 144.4445, "state": "Yap State"}, {"city": "Eauripik", "latitude": 6.687, "longitude": 143.0375, "state": "Yap State"}, {"city": "Sorol", "latitude": 8.1435, "longitude": 140.394, "state": "Yap State"}, {"city": "Fais", "latitude": 9.766, "longitude": 140.52, "state": "Yap State"}, {"city": "Ngulu", "latitude": 8.45, "longitude": 137.484, "state": "Yap State"}, {"city": "Colonia", "latitude": 9.51638, "longitude": 138.12167, "state": "Yap State"}, {"city": "Lelu", "latitude": 5.33359, "longitude": 163.02248, "state": "Kosrae"}, {"city": "Tafunsak", "latitude": 5.3671, "longitude": 162.98532, "state": "Kosrae"}, {"city": "Malem", "latitude": 5.28599, "longitude": 163.02609, "state": "Kosrae"}, {"city": "Utwe", "latitude": 5.27486, "longitude": 162.97656, "state": "Kosrae"}, {"city": "Madolenihm Municipality Government", "latitude": 6.83493, "longitude": 158.2987, "state": "Pohnpei State"}, {"city": "Tonoas Municipal Building", "latitude": 7.37597, "longitude": 151.88433, "state": "Chuuk"}]