[{"city": "\u00dcy\u00f6nch", "latitude": 46.05, "longitude": 92.01667, "state": "Hovd"}, {"city": "Uujim", "latitude": 48.9, "longitude": 89.61667, "state": "Bayan-\u00d6lgiy"}, {"city": "Urdgol", "latitude": 47.83333, "longitude": 92.65, "state": "Hovd"}, {"city": "Uliastay", "latitude": 47.74167, "longitude": 96.84444, "state": "Dzabkhan"}, {"city": "Ulaantolgoy", "latitude": 46.68333, "longitude": 92.78333, "state": "Hovd"}, {"city": "Ulaangom", "latitude": 49.98111, "longitude": 92.06667, "state": "Uvs Province"}, {"city": "Tsetserleg", "latitude": 49.27128, "longitude": 94.85836, "state": "Uvs Province"}, {"city": "Tsetsegnuur", "latitude": 46.6, "longitude": 93.26667, "state": "Hovd"}, {"city": "Tsenher", "latitude": 46.91667, "longitude": 92.11667, "state": "Hovd"}, {"city": "Tseel", "latitude": 45.56667, "longitude": 95.86667, "state": "Govi-Altai Province"}, {"city": "Tsalgar", "latitude": 49.71667, "longitude": 93.26667, "state": "Uvs Province"}, {"city": "Tsahir", "latitude": 48.07972, "longitude": 98.85167, "state": "Arkhangai Province"}, {"city": "Tsagaant\u00fcngi", "latitude": 49.05, "longitude": 90.45, "state": "Bayan-\u00d6lgiy"}, {"city": "Tsagaan-Olom", "latitude": 46.71327, "longitude": 96.52588, "state": "Govi-Altai Province"}, {"city": "Tsagaanchuluut", "latitude": 47.11196, "longitude": 96.67145, "state": "Dzabkhan"}, {"city": "Tosontsengel", "latitude": 48.75667, "longitude": 98.28389, "state": "Dzabkhan"}, {"city": "Tooromt", "latitude": 50.46667, "longitude": 93.58333, "state": "Uvs Province"}, {"city": "Tolbo", "latitude": 48.41667, "longitude": 90.28333, "state": "Bayan-\u00d6lgiy"}, {"city": "T\u00f6gr\u00f6g", "latitude": 47.42414, "longitude": 92.22439, "state": "Hovd"}, {"city": "T\u00f6gr\u00f6g", "latitude": 45.82976, "longitude": 94.81544, "state": "Govi-Altai Province"}, {"city": "T\u00f6g\u00f6l", "latitude": 50.68333, "longitude": 99.23333, "state": "Kh\u00f6vsg\u00f6l Province"}, {"city": "Tegsh", "latitude": 48.75132, "longitude": 95.99974, "state": "Dzabkhan"}, {"city": "Taygan", "latitude": 46.35356, "longitude": 97.36633, "state": "Govi-Altai Province"}, {"city": "Talshand", "latitude": 45.33333, "longitude": 97.98333, "state": "Govi-Altai Province"}, {"city": "Tahilt", "latitude": 45.3466, "longitude": 96.6457, "state": "Govi-Altai Province"}, {"city": "Shiree", "latitude": 47.49714, "longitude": 96.80311, "state": "Dzabkhan"}, {"city": "Sharga", "latitude": 49.8, "longitude": 98.8, "state": "Kh\u00f6vsg\u00f6l Province"}, {"city": "Sharga", "latitude": 46.25, "longitude": 95.26667, "state": "Govi-Altai Province"}, {"city": "Sharbulag", "latitude": 48.81667, "longitude": 93.1, "state": "Uvs Province"}, {"city": "Sayn-Ust", "latitude": 47.35732, "longitude": 94.52448, "state": "Govi-Altai Province"}, {"city": "Sangiyn Dalay", "latitude": 45.13333, "longitude": 97.75, "state": "Govi-Altai Province"}, {"city": "Rashaant", "latitude": 47.76667, "longitude": 90.83333, "state": "Bayan-\u00d6lgiy"}, {"city": "Oygon", "latitude": 48.98562, "longitude": 96.54339, "state": "Dzabkhan"}, {"city": "\u00d6v\u00f6gdiy", "latitude": 48.64278, "longitude": 97.61861, "state": "Dzabkhan"}, {"city": "Orgil", "latitude": 48.58722, "longitude": 99.35083, "state": "Kh\u00f6vsg\u00f6l Province"}, {"city": "\u00d6lgii", "latitude": 48.96833, "longitude": 89.9625, "state": "Bayan-\u00d6lgiy"}, {"city": "Nuga", "latitude": 48.31667, "longitude": 95.11667, "state": "Dzabkhan"}, {"city": "Nogoonnuur", "latitude": 49.61627, "longitude": 90.24204, "state": "Bayan-\u00d6lgiy"}, {"city": "Naranbulag", "latitude": 49.36667, "longitude": 92.56667, "state": "Uvs Province"}, {"city": "Namir", "latitude": 49.10641, "longitude": 91.71782, "state": "Uvs Province"}, {"city": "Tsagaanhayrhan", "latitude": 49.4, "longitude": 94.23333, "state": "Uvs Province"}, {"city": "Mandal", "latitude": 49.9, "longitude": 99.43333, "state": "Kh\u00f6vsg\u00f6l Province"}, {"city": "Jargalant", "latitude": 49.30677, "longitude": 95.44785, "state": "Uvs Province"}, {"city": "Jargalant", "latitude": 47.15, "longitude": 99.63333, "state": "Bayanhongor"}, {"city": "Jargalant", "latitude": 46.9267, "longitude": 91.08782, "state": "Bayan-\u00d6lgiy"}, {"city": "Jargalant", "latitude": 45.70954, "longitude": 97.17596, "state": "Govi-Altai Province"}, {"city": "Ider", "latitude": 48.77278, "longitude": 99.87389, "state": "Kh\u00f6vsg\u00f6l Province"}, {"city": "Hunt", "latitude": 47.86667, "longitude": 99.46667, "state": "Arkhangai Province"}, {"city": "Hungiy", "latitude": 48.51672, "longitude": 94.29428, "state": "Dzabkhan"}, {"city": "H\u00f6viyn Am", "latitude": 47.23123, "longitude": 98.5714, "state": "Bayanhongor"}, {"city": "H\u00f6sh\u00f6\u00f6t", "latitude": 48.94776, "longitude": 89.14358, "state": "Bayan-\u00d6lgiy"}, {"city": "Holboo", "latitude": 48.58876, "longitude": 95.43257, "state": "Dzabkhan"}, {"city": "H\u00f6htolgoy", "latitude": 49.28001, "longitude": 90.91015, "state": "Uvs Province"}, {"city": "H\u00f6dr\u00f6g\u00f6", "latitude": 48.87284, "longitude": 96.96259, "state": "Dzabkhan"}, {"city": "Havtsal", "latitude": 50.1, "longitude": 91.66667, "state": "Uvs Province"}, {"city": "Har-Us", "latitude": 49.03333, "longitude": 92.03333, "state": "Uvs Province"}, {"city": "Har-Us", "latitude": 48.48333, "longitude": 91.43333, "state": "Hovd"}, {"city": "Harmod", "latitude": 50.3413, "longitude": 91.60641, "state": "Uvs Province"}, {"city": "Harhiraa", "latitude": 49.77849, "longitude": 91.90424, "state": "Uvs Province"}, {"city": "Haliun", "latitude": 45.9296, "longitude": 96.16239, "state": "Govi-Altai Province"}, {"city": "Halban", "latitude": 49.52877, "longitude": 97.7409, "state": "Kh\u00f6vsg\u00f6l Province"}, {"city": "Erdenet", "latitude": 48.94877, "longitude": 99.53665, "state": "Kh\u00f6vsg\u00f6l Province"}, {"city": "Dz\u00fcyl", "latitude": 46.30686, "longitude": 93.90409, "state": "Govi-Altai Province"}, {"city": "Dzuunmod", "latitude": 48.21987, "longitude": 97.3744, "state": "Dzabkhan"}, {"city": "Dz\u00fc\u00fcnh\u00f6v\u00f6\u00f6", "latitude": 50.60977, "longitude": 92.4024, "state": "Uvs Province"}, {"city": "Dz\u00fcr", "latitude": 49.65796, "longitude": 95.79323, "state": "Dzabkhan"}, {"city": "Dz\u00f6\u00f6l\u00f6n", "latitude": 51.10719, "longitude": 99.67226, "state": "Kh\u00f6vsg\u00f6l Province"}, {"city": "Dzel", "latitude": 49.90713, "longitude": 93.78582, "state": "Uvs Province"}, {"city": "Dzalaa", "latitude": 44.53333, "longitude": 99.26667, "state": "Bayanhongor"}, {"city": "Dzag", "latitude": 46.94229, "longitude": 99.16689, "state": "Bayanhongor"}, {"city": "Dzadgay", "latitude": 46.21061, "longitude": 99.59862, "state": "Bayanhongor"}, {"city": "Duut", "latitude": 47.51667, "longitude": 91.63333, "state": "Hovd"}, {"city": "Khovd", "latitude": 48.00556, "longitude": 91.64194, "state": "Hovd"}, {"city": "Tsagaannuur", "latitude": 51.35639, "longitude": 99.34444, "state": "Kh\u00f6vsg\u00f6l Province"}, {"city": "Delgerm\u00f6r\u00f6n", "latitude": 46.40946, "longitude": 98.28712, "state": "Bayanhongor"}, {"city": "Darvi", "latitude": 46.45, "longitude": 94.11667, "state": "Govi-Altai Province"}, {"city": "Chihertey", "latitude": 48.30272, "longitude": 89.51557, "state": "Bayan-\u00d6lgiy"}, {"city": "Chandman\u012d", "latitude": 48.05, "longitude": 96.25, "state": "Dzabkhan"}, {"city": "Buyant", "latitude": 48.57967, "longitude": 89.5475, "state": "Bayan-\u00d6lgiy"}, {"city": "Buyant", "latitude": 48.06667, "longitude": 91.81667, "state": "Hovd"}, {"city": "Buyant", "latitude": 47.21211, "longitude": 97.60666, "state": "Dzabkhan"}, {"city": "Buyant", "latitude": 46.1664, "longitude": 98.69173, "state": "Bayanhongor"}, {"city": "Buyanbat", "latitude": 46.97838, "longitude": 95.92532, "state": "Govi-Altai Province"}, {"city": "B\u00fcrenhayrhan", "latitude": 46.09237, "longitude": 91.54796, "state": "Hovd"}, {"city": "Darvi", "latitude": 46.93678, "longitude": 93.61673, "state": "Hovd"}, {"city": "Bulgan", "latitude": 44.78333, "longitude": 98.65, "state": "Bayanhongor"}, {"city": "Bugat", "latitude": 49.53333, "longitude": 93.81667, "state": "Uvs Province"}, {"city": "Buga", "latitude": 48.95, "longitude": 89.98333, "state": "Bayan-\u00d6lgiy"}, {"city": "Buga", "latitude": 47.65013, "longitude": 95.0005, "state": "Govi-Altai Province"}, {"city": "Bor-\u00dcdz\u00fc\u00fcr", "latitude": 45.8, "longitude": 92.28333, "state": "Hovd"}, {"city": "Bil\u00fc\u00fc", "latitude": 49.04372, "longitude": 89.43798, "state": "Bayan-\u00d6lgiy"}, {"city": "Bayshint", "latitude": 49.66667, "longitude": 90.28333, "state": "Uvs Province"}, {"city": "Bayan-Uhaa", "latitude": 48.71906, "longitude": 98.79181, "state": "Dzabkhan"}, {"city": "Bayansayr", "latitude": 45.55529, "longitude": 99.43314, "state": "Bayanhongor"}, {"city": "Bayan-Ovoo", "latitude": 44.61667, "longitude": 94.91667, "state": "Govi-Altai Province"}, {"city": "Bayanhoshuu", "latitude": 48.23333, "longitude": 91.91667, "state": "Hovd"}, {"city": "Bayangol", "latitude": 45.55655, "longitude": 94.36449, "state": "Govi-Altai Province"}, {"city": "Bayanbulag", "latitude": 46.80981, "longitude": 98.09006, "state": "Bayanhongor"}, {"city": "Bayan", "latitude": 49.43333, "longitude": 99.6, "state": "Kh\u00f6vsg\u00f6l Province"}, {"city": "Bayan", "latitude": 46.9929, "longitude": 95.19962, "state": "Govi-Altai Province"}, {"city": "Baruunturuun", "latitude": 49.65963, "longitude": 94.40414, "state": "Uvs Province"}, {"city": "Balgatay", "latitude": 46.9, "longitude": 97.15, "state": "Dzabkhan"}, {"city": "Altraga", "latitude": 50.1791, "longitude": 98.97205, "state": "Kh\u00f6vsg\u00f6l Province"}, {"city": "Altay", "latitude": 49.70317, "longitude": 96.3592, "state": "Dzabkhan"}, {"city": "Altai", "latitude": 46.37222, "longitude": 96.25833, "state": "Govi-Altai Province"}, {"city": "Altanteel", "latitude": 47.11044, "longitude": 92.84374, "state": "Hovd"}, {"city": "Altanbulag", "latitude": 49.30688, "longitude": 96.34237, "state": "Dzabkhan"}, {"city": "Altan", "latitude": 48.11667, "longitude": 95.71667, "state": "Dzabkhan"}, {"city": "Aldar", "latitude": 47.64226, "longitude": 96.53687, "state": "Dzabkhan"}, {"city": "Horgo", "latitude": 48.16, "longitude": 99.87556, "state": "Arkhangai Province"}, {"city": "\u00dcydzen", "latitude": 44.08216, "longitude": 106.86985, "state": "\u00d6mn\u00f6gov\u012d"}, {"city": "Uubulan", "latitude": 48.60885, "longitude": 101.93424, "state": "Arkhangai Province"}, {"city": "Urt", "latitude": 43.23245, "longitude": 101.04813, "state": "\u00d6mn\u00f6gov\u012d"}, {"city": "Uldz", "latitude": 48.69028, "longitude": 111.99463, "state": "Hentiy"}, {"city": "Ulaan-Uul", "latitude": 46.0674, "longitude": 100.81724, "state": "Bayanhongor"}, {"city": "Ulaan-Uul", "latitude": 44.33333, "longitude": 111.23333, "state": "East Gobi Aymag"}, {"city": "Ulaanjirem", "latitude": 45.05, "longitude": 105.56667, "state": "Middle Gov\u012d"}, {"city": "Ulaanhudag", "latitude": 47.33333, "longitude": 104.5, "state": "Central Aimak"}, {"city": "Ulaanhad", "latitude": 47.94993, "longitude": 105.55321, "state": "Central Aimak"}, {"city": "Ulaan-Ereg", "latitude": 46.9, "longitude": 109.75, "state": "Hentiy"}, {"city": "Ulaandel", "latitude": 46.36446, "longitude": 113.577, "state": "S\u00fchbaatar"}, {"city": "Ulan Bator", "latitude": 47.90771, "longitude": 106.88324, "state": "Ulaanbaatar"}, {"city": "Turt", "latitude": 51.50725, "longitude": 100.66257, "state": "Kh\u00f6vsg\u00f6l Province"}, {"city": "Tsul-Ulaan", "latitude": 47.83333, "longitude": 104.5, "state": "Bulgan"}, {"city": "Tsoohor", "latitude": 43.30657, "longitude": 104.07417, "state": "\u00d6mn\u00f6gov\u012d"}, {"city": "Tsomog", "latitude": 45.91667, "longitude": 109.06667, "state": "East Gobi Aymag"}, {"city": "Tsetserleg", "latitude": 47.475, "longitude": 101.45417, "state": "Arkhangai Province"}, {"city": "Tsengel", "latitude": 49.47833, "longitude": 100.88944, "state": "Kh\u00f6vsg\u00f6l Province"}, {"city": "Tsant", "latitude": 46.18333, "longitude": 106.71667, "state": "Middle Gov\u012d"}, {"city": "Tsagaan-Ovoo", "latitude": 45.96404, "longitude": 101.45977, "state": "\u00d6v\u00f6rhangay"}, {"city": "Tsagaan-Ovoo", "latitude": 45.50719, "longitude": 105.75594, "state": "Middle Gov\u012d"}, {"city": "Tsagaand\u00f6rv\u00f6lj", "latitude": 45.79817, "longitude": 109.31826, "state": "East Gobi Aymag"}, {"city": "Tsagaanders", "latitude": 48.05, "longitude": 114.36667, "state": "East Aimak"}, {"city": "T\u00f6h\u00f6m", "latitude": 44.4, "longitude": 108.25, "state": "East Gobi Aymag"}, {"city": "Teshig", "latitude": 49.94669, "longitude": 102.66123, "state": "Bulgan"}, {"city": "Teel", "latitude": 48.04639, "longitude": 100.50917, "state": "Arkhangai Province"}, {"city": "Tavin", "latitude": 46.39194, "longitude": 105.73517, "state": "Middle Gov\u012d"}, {"city": "Tavanbulag", "latitude": 47.38185, "longitude": 101.90815, "state": "Arkhangai Province"}, {"city": "Dashinchilling", "latitude": 47.85, "longitude": 104.05, "state": "Bulgan"}, {"city": "Suugaant", "latitude": 45.53257, "longitude": 107.04546, "state": "Middle Gov\u012d"}, {"city": "S\u00fcmiyn Bulag", "latitude": 49.13333, "longitude": 114.88333, "state": "East Aimak"}, {"city": "S\u00fchbaatar", "latitude": 50.23139, "longitude": 106.20778, "state": "Selenge Province"}, {"city": "S\u00f6rt", "latitude": 49.31751, "longitude": 104.38196, "state": "Bulgan"}, {"city": "Shireet", "latitude": 45.72727, "longitude": 112.35563, "state": "S\u00fchbaatar"}, {"city": "Shiree", "latitude": 45.85, "longitude": 103.4, "state": "\u00d6v\u00f6rhangay"}, {"city": "Shar\u00efngol", "latitude": 49.23733, "longitude": 106.43005, "state": "Selenge Province"}, {"city": "Sharhulsan", "latitude": 44.65, "longitude": 104.05, "state": "\u00d6mn\u00f6gov\u012d"}, {"city": "Sharga", "latitude": 49.04192, "longitude": 102.08925, "state": "Bulgan"}, {"city": "Sergelen", "latitude": 48.56667, "longitude": 114.08333, "state": "East Aimak"}, {"city": "Sergelen", "latitude": 46.2, "longitude": 111.81667, "state": "S\u00fchbaatar"}, {"city": "Senj", "latitude": 44.71667, "longitude": 110.76667, "state": "East Gobi Aymag"}, {"city": "Selenge", "latitude": 49.43333, "longitude": 101.46667, "state": "Kh\u00f6vsg\u00f6l Province"}, {"city": "Saynshand", "latitude": 43.61667, "longitude": 102.53333, "state": "\u00d6mn\u00f6gov\u012d"}, {"city": "Sangiyn Dalay", "latitude": 46.65, "longitude": 103.31667, "state": "\u00d6v\u00f6rhangay"}, {"city": "Sangiyn Dalay", "latitude": 46.00793, "longitude": 104.94209, "state": "Middle Gov\u012d"}, {"city": "Sangiyn Dalay", "latitude": 42.84199, "longitude": 105.13796, "state": "\u00d6mn\u00f6gov\u012d"}, {"city": "Rashaant", "latitude": 49.12667, "longitude": 101.42806, "state": "Kh\u00f6vsg\u00f6l Province"}, {"city": "Rashaant", "latitude": 45.3, "longitude": 106.2, "state": "Middle Gov\u012d"}, {"city": "\u00d6vt", "latitude": 46.81667, "longitude": 102.25, "state": "\u00d6v\u00f6rhangay"}, {"city": "Ovoot", "latitude": 45.30423, "longitude": 113.84977, "state": "S\u00fchbaatar"}, {"city": "Orhontuul", "latitude": 48.94972, "longitude": 104.97583, "state": "Selenge Province"}, {"city": "\u00d6rg\u00f6n", "latitude": 44.73637, "longitude": 100.39135, "state": "Bayanhongor"}, {"city": "Orgil", "latitude": 48.4538, "longitude": 105.31769, "state": "Central Aimak"}, {"city": "Onon", "latitude": 48.61667, "longitude": 110.6, "state": "Hentiy"}, {"city": "Ongon", "latitude": 46.98259, "longitude": 103.78389, "state": "\u00d6v\u00f6rhangay"}, {"city": "Ongi", "latitude": 46.46667, "longitude": 102.28333, "state": "\u00d6v\u00f6rhangay"}, {"city": "Ongi", "latitude": 45.45, "longitude": 103.9, "state": "Middle Gov\u012d"}, {"city": "\u00d6nd\u00f6rhoshuu", "latitude": 48.0, "longitude": 113.93333, "state": "East Aimak"}, {"city": "Undurkhaan", "latitude": 47.31944, "longitude": 110.65556, "state": "Hentiy"}, {"city": "\u00d6ldziyt", "latitude": 48.52843, "longitude": 101.37394, "state": "Arkhangai Province"}, {"city": "\u00d6ldziyt", "latitude": 44.68333, "longitude": 109.01667, "state": "East Gobi Aymag"}, {"city": "\u00d6g\u00f6\u00f6m\u00f6r", "latitude": 43.78336, "longitude": 104.48067, "state": "\u00d6mn\u00f6gov\u012d"}, {"city": "N\u00fcden", "latitude": 43.58333, "longitude": 110.46667, "state": "East Gobi Aymag"}, {"city": "Nomgon", "latitude": 49.2001, "longitude": 105.66582, "state": "Selenge Province"}, {"city": "Nart", "latitude": 49.145, "longitude": 105.38833, "state": "Selenge Province"}, {"city": "Naranbulag", "latitude": 49.2436, "longitude": 113.37427, "state": "East Aimak"}, {"city": "M\u00f6r\u00f6n", "latitude": 49.63417, "longitude": 100.1625, "state": "Kh\u00f6vsg\u00f6l Province"}, {"city": "M\u00f6r\u00f6n", "latitude": 47.38254, "longitude": 110.31647, "state": "Hentiy"}, {"city": "M\u00f6nhbulag", "latitude": 46.75, "longitude": 103.51667, "state": "\u00d6v\u00f6rhangay"}, {"city": "Modot", "latitude": 47.75, "longitude": 109.05, "state": "Hentiy"}, {"city": "Mayhan", "latitude": 46.09121, "longitude": 103.83951, "state": "\u00d6v\u00f6rhangay"}, {"city": "Mardzad", "latitude": 45.95, "longitude": 102.05, "state": "\u00d6v\u00f6rhangay"}, {"city": "Manhan", "latitude": 50.12139, "longitude": 100.04306, "state": "Kh\u00f6vsg\u00f6l Province"}, {"city": "Mandalgovi", "latitude": 45.7625, "longitude": 106.27083, "state": "Middle Gov\u012d"}, {"city": "Dz\u00fc\u00fcnkharaa", "latitude": 48.63333, "longitude": 106.73333, "state": "Selenge Province"}, {"city": "Mandal", "latitude": 48.63111, "longitude": 103.52917, "state": "Bulgan"}, {"city": "Mandal", "latitude": 48.37062, "longitude": 106.74076, "state": "Central Aimak"}, {"city": "Maan\u012dt", "latitude": 48.29667, "longitude": 103.42556, "state": "Bulgan"}, {"city": "Maan\u012dt", "latitude": 47.25, "longitude": 107.53333, "state": "Central Aimak"}, {"city": "L\u00fcn", "latitude": 47.86667, "longitude": 105.25, "state": "Central Aimak"}, {"city": "Javhlant", "latitude": 48.80189, "longitude": 105.924, "state": "Central Aimak"}, {"city": "Javarthushuu", "latitude": 49.15, "longitude": 112.73333, "state": "East Aimak"}, {"city": "Jargalant", "latitude": 50.0675, "longitude": 105.88056, "state": "Selenge Province"}, {"city": "Jargalant", "latitude": 49.29591, "longitude": 100.25711, "state": "Kh\u00f6vsg\u00f6l Province"}, {"city": "Jargalant", "latitude": 48.52056, "longitude": 105.86833, "state": "Central Aimak"}, {"city": "Jargalant", "latitude": 47.79309, "longitude": 101.97235, "state": "Arkhangai Province"}, {"city": "Jargalant", "latitude": 47.53333, "longitude": 100.21667, "state": "Arkhangai Province"}, {"city": "Ingettolgoy", "latitude": 49.46167, "longitude": 103.97417, "state": "Bulgan"}, {"city": "Ihs\u00fc\u00fcj", "latitude": 48.2257, "longitude": 106.29152, "state": "Central Aimak"}, {"city": "Ihbulag", "latitude": 43.2, "longitude": 107.2, "state": "\u00d6mn\u00f6gov\u012d"}, {"city": "Huurch", "latitude": 50.10361, "longitude": 105.42, "state": "Selenge Province"}, {"city": "Hutag", "latitude": 49.395, "longitude": 102.69333, "state": "Bulgan"}, {"city": "H\u00fcremt", "latitude": 48.66306, "longitude": 102.62278, "state": "Bulgan"}, {"city": "H\u00fcremt", "latitude": 46.30241, "longitude": 102.44554, "state": "\u00d6v\u00f6rhangay"}, {"city": "Hulstay", "latitude": 48.43333, "longitude": 114.86667, "state": "East Aimak"}, {"city": "Hujirt", "latitude": 48.88199, "longitude": 101.23953, "state": "Arkhangai Province"}, {"city": "Khujirt", "latitude": 46.89704, "longitude": 102.76903, "state": "\u00d6v\u00f6rhangay"}, {"city": "Hujirt", "latitude": 46.6, "longitude": 104.58333, "state": "Central Aimak"}, {"city": "Noyon Suma", "latitude": 43.17361, "longitude": 102.13194, "state": "\u00d6mn\u00f6gov\u012d"}, {"city": "H\u00f6vsg\u00f6l", "latitude": 43.60639, "longitude": 109.63806, "state": "East Gobi Aymag"}, {"city": "Hovd", "latitude": 44.66667, "longitude": 102.38333, "state": "\u00d6v\u00f6rhangay"}, {"city": "Hovd", "latitude": 44.67024, "longitude": 102.17491, "state": "\u00d6v\u00f6rhangay"}, {"city": "Hotont", "latitude": 47.36278, "longitude": 102.46794, "state": "Arkhangai Province"}, {"city": "H\u00f6sh\u00f6\u00f6t", "latitude": 48.1009, "longitude": 102.55686, "state": "Arkhangai Province"}, {"city": "Horiult", "latitude": 45.2, "longitude": 100.76667, "state": "Bayanhongor"}, {"city": "Tsagaan-Owoo", "latitude": 48.4, "longitude": 113.43333, "state": "East Aimak"}, {"city": "Bayan Uula Sumu", "latitude": 45.16667, "longitude": 101.4, "state": "\u00d6v\u00f6rhangay"}, {"city": "Hoolt", "latitude": 45.53333, "longitude": 102.98333, "state": "\u00d6v\u00f6rhangay"}, {"city": "Hongor", "latitude": 45.8, "longitude": 111.2, "state": "East Gobi Aymag"}, {"city": "Hongor", "latitude": 45.13507, "longitude": 113.68378, "state": "S\u00fchbaatar"}, {"city": "Undur Sume", "latitude": 50.47278, "longitude": 100.92778, "state": "Kh\u00f6vsg\u00f6l Province"}, {"city": "H\u00f6hb\u00fcrd", "latitude": 46.28575, "longitude": 100.44834, "state": "Bayanhongor"}, {"city": "Herlen", "latitude": 47.3, "longitude": 110.56667, "state": "Hentiy"}, {"city": "Haylaastay", "latitude": 46.77076, "longitude": 113.88248, "state": "S\u00fchbaatar"}, {"city": "Havirga", "latitude": 45.66667, "longitude": 113.08333, "state": "S\u00fchbaatar"}, {"city": "Hatavch", "latitude": 46.16667, "longitude": 112.95, "state": "S\u00fchbaatar"}, {"city": "Hatansuudal", "latitude": 44.54595, "longitude": 100.82788, "state": "Bayanhongor"}, {"city": "Hashaat", "latitude": 45.24323, "longitude": 104.80511, "state": "Middle Gov\u012d"}, {"city": "Orhon", "latitude": 49.8325, "longitude": 106.13639, "state": "Darhan Uul"}, {"city": "Haraat", "latitude": 46.41667, "longitude": 107.65, "state": "Middle Gov\u012d"}, {"city": "Hanh\u00f6hiy", "latitude": 47.61667, "longitude": 112.13333, "state": "S\u00fchbaatar"}, {"city": "Hajuu-Us", "latitude": 46.04988, "longitude": 107.48955, "state": "Middle Gov\u012d"}, {"city": "Erhet", "latitude": 48.27394, "longitude": 102.9812, "state": "Bulgan"}, {"city": "Ergel", "latitude": 43.15, "longitude": 109.13333, "state": "East Gobi Aymag"}, {"city": "Ereencav", "latitude": 49.8807, "longitude": 115.72526, "state": "East Aimak"}, {"city": "Erdenetsogt", "latitude": 46.41845, "longitude": 100.82239, "state": "Bayanhongor"}, {"city": "Erdenetsogt", "latitude": 42.97238, "longitude": 106.11866, "state": "\u00d6mn\u00f6gov\u012d"}, {"city": "Erdenet", "latitude": 49.03333, "longitude": 104.08333, "state": "Orhon"}, {"city": "Eg-Uur", "latitude": 50.10944, "longitude": 101.57528, "state": "Kh\u00f6vsg\u00f6l Province"}, {"city": "Enhtal", "latitude": 49.2475, "longitude": 105.37361, "state": "Selenge Province"}, {"city": "Eg", "latitude": 48.68333, "longitude": 110.18333, "state": "Hentiy"}, {"city": "Dzuunmod", "latitude": 47.70694, "longitude": 106.95278, "state": "Central Aimak"}, {"city": "Dz\u00fc\u00fcnharaa", "latitude": 48.85229, "longitude": 106.45786, "state": "Selenge Province"}, {"city": "Dz\u00fc\u00fcnbulag", "latitude": 46.95343, "longitude": 115.29396, "state": "East Aimak"}, {"city": "Dz\u00fc\u00fcnbulag", "latitude": 46.38333, "longitude": 112.18333, "state": "S\u00fchbaatar"}, {"city": "Dzogsool", "latitude": 46.8, "longitude": 107.15, "state": "Central Aimak"}, {"city": "Dzelter", "latitude": 50.31556, "longitude": 105.04583, "state": "Selenge Province"}, {"city": "Dzegstey", "latitude": 47.66805, "longitude": 102.54999, "state": "Arkhangai Province"}, {"city": "Dzaanhoshuu", "latitude": 47.49331, "longitude": 100.87801, "state": "Arkhangai Province"}, {"city": "Dund-Urt", "latitude": 48.03791, "longitude": 105.9219, "state": "Central Aimak"}, {"city": "Dundb\u00fcrd", "latitude": 47.9459, "longitude": 111.49784, "state": "Hentiy"}, {"city": "Doloon", "latitude": 44.42446, "longitude": 105.32078, "state": "\u00d6mn\u00f6gov\u012d"}, {"city": "Delgerhaan", "latitude": 50.08578, "longitude": 106.18578, "state": "Selenge Province"}, {"city": "Dashbalbar", "latitude": 49.54571, "longitude": 114.40287, "state": "East Aimak"}, {"city": "Darhan", "latitude": 49.48667, "longitude": 105.92278, "state": "Darhan Uul"}, {"city": "Darhan", "latitude": 48.25463, "longitude": 103.88054, "state": "Bulgan"}, {"city": "Darhan", "latitude": 46.61667, "longitude": 109.41667, "state": "Hentiy"}, {"city": "Dalay", "latitude": 43.46787, "longitude": 103.51284, "state": "\u00d6mn\u00f6gov\u012d"}, {"city": "Dalandzadgad", "latitude": 43.57083, "longitude": 104.425, "state": "\u00d6mn\u00f6gov\u012d"}, {"city": "Choyr", "latitude": 46.36111, "longitude": 108.36111, "state": "Gov\u012d-Sumber"}, {"city": "Choibalsan", "latitude": 48.07257, "longitude": 114.53264, "state": "East Aimak"}, {"city": "Chonogol", "latitude": 45.9, "longitude": 115.36667, "state": "S\u00fchbaatar"}, {"city": "Chandman\u012d", "latitude": 45.53333, "longitude": 110.46667, "state": "East Gobi Aymag"}, {"city": "Saynshand", "latitude": 44.88239, "longitude": 110.11631, "state": "East Gobi Aymag"}, {"city": "Buyant", "latitude": 46.25, "longitude": 110.83333, "state": "Hentiy"}, {"city": "Burgaltay", "latitude": 49.265, "longitude": 104.74348, "state": "Selenge Province"}, {"city": "Bumbat", "latitude": 46.49674, "longitude": 104.11777, "state": "\u00d6v\u00f6rhangay"}, {"city": "Bulgan", "latitude": 50.54194, "longitude": 101.51417, "state": "Kh\u00f6vsg\u00f6l Province"}, {"city": "Bulgan", "latitude": 48.8125, "longitude": 103.53472, "state": null}, {"city": "Bulgan", "latitude": 44.09745, "longitude": 103.54288, "state": "\u00d6mn\u00f6gov\u012d"}, {"city": "Bulagtay", "latitude": 49.77594, "longitude": 107.51616, "state": "Selenge Province"}, {"city": "Bulagiyn Denj", "latitude": 47.31869, "longitude": 101.11576, "state": "Arkhangai Province"}, {"city": "Bulag", "latitude": 49.85946, "longitude": 100.62687, "state": "Kh\u00f6vsg\u00f6l Province"}, {"city": "Bulag", "latitude": 48.2, "longitude": 108.48333, "state": "Central Aimak"}, {"city": "Bugat", "latitude": 49.06667, "longitude": 103.66583, "state": "Bulgan"}, {"city": "Bugant", "latitude": 49.58333, "longitude": 106.85, "state": "Selenge Province"}, {"city": "Bornuur", "latitude": 48.46667, "longitude": 106.26667, "state": "Central Aimak"}, {"city": "B\u00f6h\u00f6t", "latitude": 45.23223, "longitude": 108.28245, "state": "Middle Gov\u012d"}, {"city": "Bod\u012d", "latitude": 45.41171, "longitude": 100.574, "state": "Bayanhongor"}, {"city": "Bayshint", "latitude": 47.41667, "longitude": 104.81667, "state": "Central Aimak"}, {"city": "Bayasgalant", "latitude": 47.17945, "longitude": 108.25996, "state": "Central Aimak"}, {"city": "Bayasgalant", "latitude": 46.98333, "longitude": 112.05, "state": "S\u00fchbaatar"}, {"city": "Bayan-Ulaan", "latitude": 46.52178, "longitude": 102.59428, "state": "\u00d6v\u00f6rhangay"}, {"city": "Bayantsagaan", "latitude": 48.73167, "longitude": 100.76, "state": "Arkhangai Province"}, {"city": "Bayant\u00f6h\u00f6m", "latitude": 46.91667, "longitude": 105.05, "state": "Central Aimak"}, {"city": "Bayan-Ovoo", "latitude": 49.01667, "longitude": 111.63333, "state": "Hentiy"}, {"city": "Javhlant", "latitude": 47.78333, "longitude": 112.11667, "state": "Hentiy"}, {"city": "Bayanhoshuu", "latitude": 46.70197, "longitude": 100.1433, "state": "Bayanhongor"}, {"city": "Bayanhongor", "latitude": 46.19444, "longitude": 100.71806, "state": null}, {"city": "Bayandelger", "latitude": 47.72732, "longitude": 108.11062, "state": "Central Aimak"}, {"city": "Bayanbulag", "latitude": 47.86667, "longitude": 109.91667, "state": "Hentiy"}, {"city": "Bayanbaraat", "latitude": 46.86667, "longitude": 106.25, "state": "Central Aimak"}, {"city": "Bayan", "latitude": 48.55, "longitude": 111.08333, "state": "Hentiy"}, {"city": "Bayan", "latitude": 47.91667, "longitude": 112.95, "state": "East Aimak"}, {"city": "Bayan", "latitude": 47.45, "longitude": 103.15, "state": "Arkhangai Province"}, {"city": "Bayan", "latitude": 47.16667, "longitude": 110.81667, "state": "Hentiy"}, {"city": "Bayan", "latitude": 46.25, "longitude": 110.16667, "state": "East Gobi Aymag"}, {"city": "Bat-\u00d6ldziyt", "latitude": 48.21552, "longitude": 104.77318, "state": "Central Aimak"}, {"city": "Baruun-Urt", "latitude": 46.68056, "longitude": 113.27917, "state": "S\u00fchbaatar"}, {"city": "Baruunsuu", "latitude": 43.65595, "longitude": 105.75577, "state": "\u00d6mn\u00f6gov\u012d"}, {"city": "Hushaat", "latitude": 49.5, "longitude": 105.61667, "state": "Selenge Province"}, {"city": "Badrah", "latitude": 49.61833, "longitude": 101.98972, "state": "Kh\u00f6vsg\u00f6l Province"}, {"city": "Avraga", "latitude": 47.17851, "longitude": 109.18968, "state": "Hentiy"}, {"city": "Avdzaga", "latitude": 47.63333, "longitude": 103.51667, "state": "Bulgan"}, {"city": "Arvayheer", "latitude": 46.26389, "longitude": 102.775, "state": "\u00d6v\u00f6rhangay"}, {"city": "Arhust", "latitude": 47.79425, "longitude": 107.88334, "state": "Central Aimak"}, {"city": "Arguut", "latitude": 45.46278, "longitude": 102.42056, "state": "\u00d6v\u00f6rhangay"}, {"city": "Argatay", "latitude": 45.76667, "longitude": 107.98333, "state": "Middle Gov\u012d"}, {"city": "Argalant", "latitude": 47.94211, "longitude": 105.89584, "state": "Central Aimak"}, {"city": "Ar-Asgat", "latitude": 48.26222, "longitude": 105.41194, "state": "Central Aimak"}, {"city": "Amardalay", "latitude": 46.12572, "longitude": 106.37426, "state": "Middle Gov\u012d"}, {"city": "Altan-Ovoo", "latitude": 47.44742, "longitude": 101.75503, "state": "Arkhangai Province"}, {"city": "Altanbulag", "latitude": 50.31556, "longitude": 106.49861, "state": "Selenge Province"}, {"city": "Altanbulag", "latitude": 47.7, "longitude": 106.4, "state": "Central Aimak"}, {"city": "Asgat", "latitude": 49.51082, "longitude": 96.79944, "state": "Dzabkhan"}, {"city": "Ulaanshiveet", "latitude": 47.28948, "longitude": 103.85659, "state": "Bulgan"}, {"city": "S\u00fcmber", "latitude": 47.65858, "longitude": 118.51014, "state": "East Aimak"}, {"city": "Bayantal", "latitude": 46.56221, "longitude": 108.30439, "state": "Gov\u012d-Sumber"}, {"city": "Shiveegov\u012d", "latitude": 46.10558, "longitude": 108.62061, "state": "Gov\u012d-Sumber"}, {"city": "Hongor", "latitude": 49.23012, "longitude": 105.89674, "state": "Darhan Uul"}, {"city": "Jargalant", "latitude": 49.12915, "longitude": 104.40803, "state": "Orhon"}, {"city": "H\u00f6shigiyn-Ar", "latitude": 47.55717, "longitude": 106.96333, "state": "Central Aimak"}, {"city": "Zuunmod", "latitude": 47.70693, "longitude": 106.95276, "state": "Central Aimak"}, {"city": "Kharkhorin", "latitude": 47.19245, "longitude": 102.81349, "state": "\u00d6v\u00f6rhangay"}]