[{"city": "Kal\u0101rdasht", "latitude": 36.51094, "longitude": 51.17343, "state": "M\u0101zandar\u0101n"}, {"city": "\u0162\u0101leq\u0101n", "latitude": 36.17449, "longitude": 50.76908, "state": "Alborz Province"}, {"city": "Alvand", "latitude": 36.1893, "longitude": 50.0643, "state": "Qazvin Province"}, {"city": "\u0100z\u0101dshahr", "latitude": 34.79049, "longitude": 48.57011, "state": "Hamadan Province"}, {"city": "N\u012br", "latitude": 38.0346, "longitude": 47.9986, "state": "Ardabil Province"}, {"city": "Qarah \u0100gh\u0101j", "latitude": 37.2187, "longitude": 47.2167, "state": "East Azerbaijan"}, {"city": "Bost\u0101n\u0101b\u0101d", "latitude": 37.84633, "longitude": 46.83542, "state": "East Azerbaijan"}, {"city": "Kahr\u012bz", "latitude": 34.3838, "longitude": 47.0553, "state": "Kermanshah Province"}, {"city": "N\u016br\u0101b\u0101d", "latitude": 34.0734, "longitude": 47.9725, "state": "Lorestan Province"}, {"city": "Jav\u0101nr\u016bd", "latitude": 34.8067, "longitude": 46.4913, "state": "Kermanshah Province"}, {"city": "F\u012br\u016bzeh", "latitude": 36.28639, "longitude": 58.58586, "state": "Razavi Khorasan"}, {"city": "Kal\u0101t-e N\u0101der\u012b", "latitude": 36.99532, "longitude": 59.76472, "state": "Razavi Khorasan"}, {"city": "\u012astg\u0101h-e R\u0101h \u0100han-e Garms\u0101r", "latitude": 35.23455, "longitude": 52.30942, "state": "Semnan"}, {"city": "Qarchak", "latitude": 35.42873, "longitude": 51.57757, "state": "Tehran"}, {"city": "Golest\u0101n", "latitude": 35.5183, "longitude": 51.1819, "state": "Tehran"}, {"city": "Shahrak-e Em\u0101m \u1e28asan", "latitude": 35.48846, "longitude": 51.34567, "state": "Tehran"}, {"city": "Shahre Jadide Andisheh", "latitude": 35.6803, "longitude": 51.0193, "state": "Tehran"}, {"city": "Om\u012bdcheh", "latitude": 38.28667, "longitude": 48.14139, "state": "Ardabil Province"}, {"city": "Qarah Q\u0101shl\u012b", "latitude": 36.89674, "longitude": 54.17388, "state": "Golestan"}, {"city": "\u0100q Q\u0101yeh", "latitude": 37.27472, "longitude": 55.15889, "state": "Golestan"}, {"city": "Gom\u012bsh\u0101n", "latitude": 37.0718, "longitude": 54.07654, "state": "Golestan"}, {"city": "P\u0101\u2019\u012bn-e B\u0101z\u0101r-e R\u016bdb\u0101r", "latitude": 36.8211, "longitude": 49.4264, "state": "Gilan Province"}, {"city": "Khorramdarreh", "latitude": 36.20777, "longitude": 49.19527, "state": "Zanjan"}, {"city": "P\u0101deg\u0101n-e Manj\u012bl", "latitude": 36.7415, "longitude": 49.4161, "state": "Gilan Province"}, {"city": "Kav\u0101r", "latitude": 29.205, "longitude": 52.6899, "state": "Fars"}, {"city": "Yasuj", "latitude": 30.66824, "longitude": 51.58796, "state": "Kohgiluyeh and Boyer-Ahmad"}, {"city": "\u0100z\u0101dshahr", "latitude": 37.08641, "longitude": 55.17222, "state": "Golestan"}, {"city": "Ziabar (Gaskar)", "latitude": 37.4261, "longitude": 49.2459, "state": "Gilan Province"}, {"city": "Zarr\u012bn\u0101b\u0101d", "latitude": 36.42622, "longitude": 48.28158, "state": "Zanjan"}, {"city": "Zarand", "latitude": 30.81271, "longitude": 56.56399, "state": "Kerman"}, {"city": "Zanjan", "latitude": 36.67642, "longitude": 48.49628, "state": null}, {"city": "Yazd", "latitude": 31.89722, "longitude": 54.3675, "state": "Yazd Province"}, {"city": "Vas\u012b\u0101n", "latitude": 33.49083, "longitude": 48.04917, "state": "Lorestan Province"}, {"city": "Varazq\u0101n", "latitude": 38.67549, "longitude": 46.11205, "state": "East Azerbaijan"}, {"city": "Fard\u012bs", "latitude": 35.7292, "longitude": 50.98483, "state": "Alborz Province"}, {"city": "Var\u0101m\u012bn", "latitude": 35.3242, "longitude": 51.6457, "state": "Tehran"}, {"city": "T\u016byserk\u0101n", "latitude": 34.551, "longitude": 48.44353, "state": "Hamadan Province"}, {"city": "\u0162orqabeh", "latitude": 36.3104, "longitude": 59.3735, "state": "Razavi Khorasan"}, {"city": "Torbat-e \u1e28eydar\u012byeh", "latitude": 35.27401, "longitude": 59.21949, "state": "Razavi Khorasan"}, {"city": "Tonek\u0101bon", "latitude": 36.81626, "longitude": 50.87376, "state": "M\u0101zandar\u0101n"}, {"city": "Tehran", "latitude": 35.69439, "longitude": 51.42151, "state": null}, {"city": "Hashtpar", "latitude": 37.79658, "longitude": 48.90521, "state": "Gilan Province"}, {"city": "\u0162\u0101leb \u0101b\u0101d", "latitude": 35.5013, "longitude": 51.53147, "state": "Tehran"}, {"city": "T\u0101kest\u0101n", "latitude": 36.07057, "longitude": 49.69571, "state": "Qazvin Province"}, {"city": "Tak\u0101b", "latitude": 36.4009, "longitude": 47.1133, "state": "West Azerbaijan"}, {"city": "Tajr\u012bsh", "latitude": 35.8044, "longitude": 51.4256, "state": "Tehran"}, {"city": "Shahr-e Her\u0101t", "latitude": 30.05407, "longitude": 54.37294, "state": "Yazd Province"}, {"city": "Taft", "latitude": 31.74384, "longitude": 54.20278, "state": "Yazd Province"}, {"city": "Tafresh", "latitude": 34.69307, "longitude": 50.01601, "state": "Markazi"}, {"city": "Tabriz", "latitude": 38.08, "longitude": 46.2919, "state": "East Azerbaijan"}, {"city": "Tabas", "latitude": 33.59586, "longitude": 56.92437, "state": "Yazd Province"}, {"city": "Surian", "latitude": 30.4551, "longitude": 53.651, "state": "Fars"}, {"city": "S\u016brak", "latitude": 36.59488, "longitude": 53.20762, "state": "M\u0101zandar\u0101n"}, {"city": "N\u016br", "latitude": 36.57168, "longitude": 52.0153, "state": "M\u0101zandar\u0101n"}, {"city": "\u015eowme\u2018eh Sar\u0101", "latitude": 37.30134, "longitude": 49.31504, "state": "Gilan Province"}, {"city": "Sorkheh", "latitude": 35.4633, "longitude": 53.214, "state": "Semnan"}, {"city": "Sonqor", "latitude": 34.78187, "longitude": 47.59945, "state": "Kermanshah Province"}, {"city": "Sol\u0163\u0101n\u0101b\u0101d", "latitude": 36.40352, "longitude": 58.03894, "state": "Razavi Khorasan"}, {"city": "Sirjan", "latitude": 29.45137, "longitude": 55.6809, "state": "Kerman"}, {"city": "S\u012b\u0101hkal", "latitude": 37.15328, "longitude": 49.87136, "state": "Gilan Province"}, {"city": "Sh\u016bshtar", "latitude": 32.04972, "longitude": 48.84843, "state": "Khuzestan"}, {"city": "Sh\u016bsh", "latitude": 32.1942, "longitude": 48.2436, "state": "Khuzestan"}, {"city": "Sh\u012brv\u0101n", "latitude": 37.39669, "longitude": 57.92952, "state": "North Khorasan"}, {"city": "Sh\u012br G\u0101h", "latitude": 36.29836, "longitude": 52.88917, "state": "M\u0101zandar\u0101n"}, {"city": "Shiraz", "latitude": 29.61031, "longitude": 52.53113, "state": "Fars"}, {"city": "Shar\u012bf\u0101b\u0101d", "latitude": 35.42698, "longitude": 51.78456, "state": "Tehran"}, {"city": "Shalamz\u0101r", "latitude": 32.0465, "longitude": 50.81639, "state": "Chaharmahal and Bakhtiari"}, {"city": "Shahr-e Kord", "latitude": 32.32612, "longitude": 50.8572, "state": "Chaharmahal and Bakhtiari"}, {"city": "Shahr-e B\u0101bak", "latitude": 30.1165, "longitude": 55.1186, "state": "Kerman"}, {"city": "Shaft", "latitude": 37.1702, "longitude": 49.3998, "state": "Gilan Province"}, {"city": "Sh\u0101deg\u0101n", "latitude": 30.64924, "longitude": 48.66497, "state": "Khuzestan"}, {"city": "Shabestar", "latitude": 38.1804, "longitude": 45.7028, "state": "East Azerbaijan"}, {"city": "Seyah Cheshmeh", "latitude": 39.06508, "longitude": 44.38416, "state": "West Azerbaijan"}, {"city": "Semnan", "latitude": 35.57691, "longitude": 53.39205, "state": null}, {"city": "Sem\u012brom", "latitude": 31.41667, "longitude": 51.56667, "state": "Isfahan"}, {"city": "sedeyen-e Yek", "latitude": 31.36205, "longitude": 48.81833, "state": "Khuzestan"}, {"city": "S\u0101veh", "latitude": 35.0213, "longitude": 50.3566, "state": "Markazi"}, {"city": "Sarvest\u0101n", "latitude": 29.2735, "longitude": 53.2203, "state": "Fars"}, {"city": "Sarv\u0101b\u0101d", "latitude": 35.3126, "longitude": 46.3669, "state": "Kurdistan Province"}, {"city": "Sari", "latitude": 36.56332, "longitude": 53.06009, "state": "M\u0101zandar\u0101n"}, {"city": "Sardasht", "latitude": 36.1552, "longitude": 45.4788, "state": "West Azerbaijan"}, {"city": "Sardasht", "latitude": 26.4559, "longitude": 57.9028, "state": "Hormozgan"}, {"city": "Sarb\u012bsheh", "latitude": 32.57566, "longitude": 59.79821, "state": "South Khorasan Province"}, {"city": "Sar\u0101y\u0101n", "latitude": 33.86017, "longitude": 58.52166, "state": "South Khorasan Province"}, {"city": "Sar\u0101bleh", "latitude": 33.76772, "longitude": 46.56578, "state": "Ilam Province"}, {"city": "Sar\u0101b-e D\u016breh", "latitude": 33.5639, "longitude": 48.0221, "state": "Lorestan Province"}, {"city": "Sar\u0101b", "latitude": 37.9408, "longitude": 47.5367, "state": "East Azerbaijan"}, {"city": "Saqqez", "latitude": 36.24992, "longitude": 46.2735, "state": "Kurdistan Province"}, {"city": "Sanandaj", "latitude": 35.31495, "longitude": 46.99883, "state": "Kurdistan Province"}, {"city": "S\u0101m\u0101n", "latitude": 32.45014, "longitude": 50.91092, "state": "Chaharmahal and Bakhtiari"}, {"city": "Salm\u0101s", "latitude": 38.1973, "longitude": 44.7653, "state": "West Azerbaijan"}, {"city": "Soleh Bon", "latitude": 35.76841, "longitude": 52.56091, "state": "Tehran"}, {"city": "R\u0101msar", "latitude": 36.91796, "longitude": 50.64802, "state": "M\u0101zandar\u0101n"}, {"city": "Sh\u0101h\u012bn Dezh", "latitude": 36.6793, "longitude": 46.5669, "state": "West Azerbaijan"}, {"city": "Sol\u0163\u0101n\u012byeh", "latitude": 36.43318, "longitude": 48.79471, "state": "Zanjan"}, {"city": "\u015ea\u1e29neh", "latitude": 34.4813, "longitude": 47.6908, "state": "Kermanshah Province"}, {"city": "Sabzevar", "latitude": 36.2126, "longitude": 57.68191, "state": "Razavi Khorasan"}, {"city": "Sa\u2018\u0101dat Shahr", "latitude": 30.07921, "longitude": 53.13464, "state": "Fars"}, {"city": "R\u016bdsar", "latitude": 37.13696, "longitude": 50.29174, "state": "Gilan Province"}, {"city": "Narm\u0101sh\u012br", "latitude": 28.95216, "longitude": 58.69773, "state": "Kerman"}, {"city": "Roshtkhv\u0101r", "latitude": 34.97512, "longitude": 59.62482, "state": "Razavi Khorasan"}, {"city": "Rob\u0101\u0163 Kar\u012bm", "latitude": 35.4846, "longitude": 51.0829, "state": "Tehran"}, {"city": "Re\u1e95v\u0101nshahr", "latitude": 37.54947, "longitude": 49.13736, "state": "Gilan Province"}, {"city": "Razan", "latitude": 35.38625, "longitude": 49.0334, "state": "Hamadan Province"}, {"city": "R\u0101var", "latitude": 31.26562, "longitude": 56.80545, "state": "Kerman"}, {"city": "Rav\u0101nsar", "latitude": 34.7153, "longitude": 46.6533, "state": "Kermanshah Province"}, {"city": "Rasht", "latitude": 37.27611, "longitude": 49.58862, "state": "Gilan Province"}, {"city": "R\u0101msh\u012br", "latitude": 30.89315, "longitude": 49.40787, "state": "Khuzestan"}, {"city": "R\u0101m\u012b\u0101n", "latitude": 37.01598, "longitude": 55.14123, "state": "Golestan"}, {"city": "R\u0101mhormoz", "latitude": 31.27997, "longitude": 49.60351, "state": "Khuzestan"}, {"city": "Rafsanj\u0101n", "latitude": 30.4067, "longitude": 55.9939, "state": "Kerman"}, {"city": "R\u0101bor", "latitude": 29.2912, "longitude": 56.9131, "state": "Kerman"}, {"city": "Q\u016bch\u0101n", "latitude": 37.106, "longitude": 58.50955, "state": "Razavi Khorasan"}, {"city": "Qorveh", "latitude": 35.1664, "longitude": 47.80564, "state": "Kurdistan Province"}, {"city": "Qom", "latitude": 34.6401, "longitude": 50.8764, "state": "Qom Province"}, {"city": "Qoh\u016brd-e \u2018Oly\u0101", "latitude": 35.43979, "longitude": 48.07362, "state": "Hamadan Province"}, {"city": "Q\u012br", "latitude": 28.4825, "longitude": 53.0346, "state": "Fars"}, {"city": "Qeshm", "latitude": 26.9492, "longitude": 56.2691, "state": "Hormozgan"}, {"city": "Qazvin", "latitude": 36.26877, "longitude": 50.0041, "state": "Qazvin Province"}, {"city": "Qa\u015fr-e Sh\u012br\u012bn", "latitude": 34.5156, "longitude": 45.5791, "state": "Kermanshah Province"}, {"city": "Qarn\u0101b\u0101d", "latitude": 36.82203, "longitude": 54.59222, "state": "Golestan"}, {"city": "Qarah \u1e94\u012b\u0101\u2019 od D\u012bn", "latitude": 38.8915, "longitude": 45.0255, "state": "West Azerbaijan"}, {"city": "Shahr-e Qods", "latitude": 35.7214, "longitude": 51.109, "state": "Tehran"}, {"city": "Qal\u2018eh Ganj", "latitude": 27.5236, "longitude": 57.8811, "state": "Kerman"}, {"city": "R\u016bd\u0101n", "latitude": 27.44194, "longitude": 57.19198, "state": "Hormozgan"}, {"city": "Qal\u2018eh-ye Khv\u0101jeh", "latitude": 32.20622, "longitude": 49.44526, "state": "Khuzestan"}, {"city": "Arakv\u0101z-e Maleksh\u0101h\u012b", "latitude": 33.3828, "longitude": 46.5983, "state": "Ilam Province"}, {"city": "Farrokh Shahr", "latitude": 32.27174, "longitude": 50.98008, "state": "Chaharmahal and Bakhtiari"}, {"city": "Q\u0101\u2019en", "latitude": 33.72654, "longitude": 59.18439, "state": "South Khorasan Province"}, {"city": "Sarpol-e Z\u0304ah\u0101b", "latitude": 34.46109, "longitude": 45.86264, "state": "Kermanshah Province"}, {"city": "Pol-e Sef\u012bd", "latitude": 36.11787, "longitude": 53.05531, "state": "M\u0101zandar\u0101n"}, {"city": "Poldokhtar", "latitude": 33.15249, "longitude": 47.71014, "state": "Lorestan Province"}, {"city": "Poldasht", "latitude": 39.348, "longitude": 45.071, "state": "West Azerbaijan"}, {"city": "P\u012bshv\u0101", "latitude": 35.308, "longitude": 51.7267, "state": "Tehran"}, {"city": "Piranshahr", "latitude": 36.701, "longitude": 45.1413, "state": "West Azerbaijan"}, {"city": "P\u0101veh", "latitude": 35.0434, "longitude": 46.3565, "state": "Kermanshah Province"}, {"city": "P\u0101rs\u0101b\u0101d", "latitude": 39.6482, "longitude": 47.9174, "state": "Ardabil Province"}, {"city": "Osk\u016b", "latitude": 37.91504, "longitude": 46.12258, "state": "East Azerbaijan"}, {"city": "Oshnav\u012byeh", "latitude": 37.0397, "longitude": 45.0983, "state": "West Azerbaijan"}, {"city": "Or\u016bm\u012byeh", "latitude": 37.55274, "longitude": 45.07605, "state": "West Azerbaijan"}, {"city": "Om\u012bd\u012byeh", "latitude": 30.76277, "longitude": 49.70226, "state": "Khuzestan"}, {"city": "N\u016br\u0101b\u0101d", "latitude": 30.11405, "longitude": 51.52174, "state": "Fars"}, {"city": "Nowshahr", "latitude": 36.64852, "longitude": 51.49621, "state": "M\u0101zandar\u0101n"}, {"city": "No\u015frat\u0101b\u0101d", "latitude": 29.9, "longitude": 59.98333, "state": "Sistan and Baluchestan"}, {"city": "Neysh\u0101b\u016br", "latitude": 36.21329, "longitude": 58.79575, "state": "Razavi Khorasan"}, {"city": "Neyr\u012bz", "latitude": 29.1988, "longitude": 54.3278, "state": "Fars"}, {"city": "Neq\u0101b", "latitude": 36.70792, "longitude": 57.42146, "state": "Razavi Khorasan"}, {"city": "Nek\u0101", "latitude": 36.65079, "longitude": 53.29905, "state": "M\u0101zandar\u0101n"}, {"city": "Naz\u0327ar\u0101b\u0101d", "latitude": 35.95411, "longitude": 50.60607, "state": "Alborz Province"}, {"city": "Na\u0163anz", "latitude": 33.51118, "longitude": 51.91808, "state": "Isfahan"}, {"city": "Nasht\u0101r\u016bd", "latitude": 36.7509, "longitude": 51.02362, "state": "M\u0101zandar\u0101n"}, {"city": "Naqadeh", "latitude": 36.9553, "longitude": 45.388, "state": "West Azerbaijan"}, {"city": "Nam\u012bn", "latitude": 38.4269, "longitude": 48.4839, "state": "Ardabil Province"}, {"city": "N\u0101\u2019\u012bn", "latitude": 32.86006, "longitude": 53.08749, "state": "Isfahan"}, {"city": "Nah\u0101vand", "latitude": 34.19088, "longitude": 48.37446, "state": "Hamadan Province"}, {"city": "Mar\u0101veh Tappeh", "latitude": 37.9041, "longitude": 55.95596, "state": "Golestan"}, {"city": "Moll\u0101s\u0304\u0101n\u012b", "latitude": 31.5847, "longitude": 48.88587, "state": "Khuzestan"}, {"city": "Mohr", "latitude": 27.5552, "longitude": 52.8836, "state": "Fars"}, {"city": "Mo\u1e29ammad\u0101b\u0101d", "latitude": 28.66877, "longitude": 59.07341, "state": "Kerman"}, {"city": "M\u012bn\u016bdasht", "latitude": 37.23015, "longitude": 55.37211, "state": "Golestan"}, {"city": "M\u012bn\u0101b", "latitude": 27.13104, "longitude": 57.08716, "state": "Hormozgan"}, {"city": "M\u012b\u0101neh", "latitude": 37.421, "longitude": 47.715, "state": "East Azerbaijan"}, {"city": "M\u012b\u0101ndo\u0101b", "latitude": 36.96667, "longitude": 46.10961, "state": "West Azerbaijan"}, {"city": "M\u012b\u0101ndasht", "latitude": 33.07612, "longitude": 50.16432, "state": "Isfahan"}, {"city": "Meybod", "latitude": 32.25014, "longitude": 54.01658, "state": "Yazd Province"}, {"city": "Meshg\u012bn Shahr", "latitude": 38.399, "longitude": 47.682, "state": "Ardabil Province"}, {"city": "Mahr\u012bz", "latitude": 31.58428, "longitude": 54.4428, "state": "Yazd Province"}, {"city": "Mehr\u0101n", "latitude": 33.1222, "longitude": 46.1646, "state": "Ilam Province"}, {"city": "Masjed Soleym\u0101n", "latitude": 31.9364, "longitude": 49.3039, "state": "Khuzestan"}, {"city": "Ma\u015f\u012br\u012b", "latitude": 30.24493, "longitude": 51.52158, "state": "Fars"}, {"city": "Bards\u012br", "latitude": 29.92266, "longitude": 56.57433, "state": "Kerman"}, {"city": "Mashhad", "latitude": 36.29807, "longitude": 59.60567, "state": "Razavi Khorasan"}, {"city": "Marvdasht", "latitude": 29.8742, "longitude": 52.8025, "state": "Fars"}, {"city": "Mar\u012bv\u0101n", "latitude": 35.51829, "longitude": 46.18298, "state": "Kurdistan Province"}, {"city": "Marand", "latitude": 38.4329, "longitude": 45.7749, "state": "East Azerbaijan"}, {"city": "Mar\u0101gheh", "latitude": 37.39206, "longitude": 46.23909, "state": "East Azerbaijan"}, {"city": "Man\u016bj\u0101n", "latitude": 27.40698, "longitude": 57.50128, "state": "Kerman"}, {"city": "Manj\u012bl", "latitude": 36.74445, "longitude": 49.40082, "state": "Gilan Province"}, {"city": "Malek\u0101n", "latitude": 37.14258, "longitude": 46.10345, "state": "East Azerbaijan"}, {"city": "Mal\u0101yer", "latitude": 34.30158, "longitude": 48.82166, "state": "Hamadan Province"}, {"city": "Mal\u0101rd", "latitude": 35.6659, "longitude": 50.9767, "state": "Tehran"}, {"city": "Maku", "latitude": 39.28992, "longitude": 44.46035, "state": "West Azerbaijan"}, {"city": "M\u0101hnesh\u0101n", "latitude": 36.7444, "longitude": 47.6725, "state": "Zanjan"}, {"city": "Ma\u1e29m\u016bd\u0101b\u0101d", "latitude": 36.63191, "longitude": 52.26286, "state": "M\u0101zandar\u0101n"}, {"city": "Ma\u1e29all\u0101t", "latitude": 33.91108, "longitude": 50.45317, "state": "Markazi"}, {"city": "Mah\u0101b\u0101d", "latitude": 36.7631, "longitude": 45.7222, "state": "West Azerbaijan"}, {"city": "Lordeg\u0101n", "latitude": 31.51338, "longitude": 50.82672, "state": "Chaharmahal and Bakhtiari"}, {"city": "L\u012bkak", "latitude": 30.8949, "longitude": 50.0931, "state": "Kohgiluyeh and Boyer-Ahmad"}, {"city": "Landeh", "latitude": 30.98215, "longitude": 50.4206, "state": "Kohgiluyeh and Boyer-Ahmad"}, {"city": "Shahr-e Qad\u012bm-e L\u0101r", "latitude": 27.68336, "longitude": 54.34172, "state": "Fars"}, {"city": "Langar\u016bd", "latitude": 37.19548, "longitude": 50.15263, "state": "Gilan Province"}, {"city": "Lamerd", "latitude": 27.334, "longitude": 53.179, "state": "Fars"}, {"city": "L\u0101l\u012b", "latitude": 32.32981, "longitude": 49.09324, "state": "Khuzestan"}, {"city": "L\u0101h\u012bj\u0101n", "latitude": 37.20416, "longitude": 50.00919, "state": "Gilan Province"}, {"city": "K\u016bt-e \u2018Abdoll\u0101h", "latitude": 31.23917, "longitude": 48.65639, "state": "Khuzestan"}, {"city": "K\u016bhdasht", "latitude": 33.53335, "longitude": 47.60999, "state": "Lorestan Province"}, {"city": "K\u016bhban\u0101n", "latitude": 31.41029, "longitude": 56.28255, "state": "Kerman"}, {"city": "Kord K\u016by", "latitude": 36.79307, "longitude": 54.11214, "state": "Golestan"}, {"city": "Kom\u012bj\u0101n", "latitude": 34.72142, "longitude": 49.32653, "state": "Markazi"}, {"city": "K\u012bsh", "latitude": 26.55778, "longitude": 54.01944, "state": "Hormozgan"}, {"city": "K\u012b\u0101 Kol\u0101", "latitude": 36.58028, "longitude": 52.81253, "state": "M\u0101zandar\u0101n"}, {"city": "Khowy", "latitude": 38.5503, "longitude": 44.9521, "state": "West Azerbaijan"}, {"city": "Khowrm\u016bj", "latitude": 28.6543, "longitude": 51.38, "state": "Bushehr"}, {"city": "Kh\u016br", "latitude": 33.77512, "longitude": 55.08329, "state": "Isfahan"}, {"city": "Khv\u0101ns\u0101r", "latitude": 33.22052, "longitude": 50.31497, "state": "Isfahan"}, {"city": "Kh\u016bsf", "latitude": 32.78108, "longitude": 58.89002, "state": "South Khorasan Province"}, {"city": "Khorramshahr", "latitude": 30.44079, "longitude": 48.18428, "state": "Khuzestan"}, {"city": "Khorramabad", "latitude": 33.48778, "longitude": 48.35583, "state": "Lorestan Province"}, {"city": "Khonj", "latitude": 27.8913, "longitude": 53.4344, "state": "Fars"}, {"city": "Khond\u0101b", "latitude": 34.3928, "longitude": 49.1841, "state": "Markazi"}, {"city": "Khomeyn", "latitude": 33.63889, "longitude": 50.08003, "state": "Markazi"}, {"city": "Khom\u0101rl\u016b", "latitude": 39.1489, "longitude": 47.0347, "state": "East Azerbaijan"}, {"city": "Kher\u0101meh", "latitude": 29.49896, "longitude": 53.31199, "state": "Fars"}, {"city": "Bandar-e Kham\u012br", "latitude": 26.9521, "longitude": 55.5851, "state": "Hormozgan"}, {"city": "Khalkh\u0101l", "latitude": 37.61837, "longitude": 48.52928, "state": "Ardabil Province"}, {"city": "Khal\u012bl\u0101b\u0101d", "latitude": 35.25395, "longitude": 58.28566, "state": "Razavi Khorasan"}, {"city": "Kermanshah", "latitude": 34.31417, "longitude": 47.065, "state": "Kermanshah Province"}, {"city": "Kerman", "latitude": 30.28321, "longitude": 57.07879, "state": null}, {"city": "Kerend-e Gharb", "latitude": 34.2842, "longitude": 46.2423, "state": "Kermanshah Province"}, {"city": "K\u0101zer\u016bn", "latitude": 29.61919, "longitude": 51.6535, "state": "Fars"}, {"city": "K\u0101shmar", "latitude": 35.23831, "longitude": 58.46558, "state": "Razavi Khorasan"}, {"city": "Karaj", "latitude": 35.83266, "longitude": 50.99155, "state": "Alborz Province"}, {"city": "Kang\u0101var", "latitude": 34.5043, "longitude": 47.9653, "state": "Kermanshah Province"}, {"city": "Kang\u0101n", "latitude": 27.834, "longitude": 52.0628, "state": "Bushehr"}, {"city": "K\u0101my\u0101r\u0101n", "latitude": 34.79535, "longitude": 46.93682, "state": "Kurdistan Province"}, {"city": "Kaleybar", "latitude": 38.86509, "longitude": 47.03909, "state": "East Azerbaijan"}, {"city": "Kal\u0101leh", "latitude": 37.37899, "longitude": 55.493, "state": "Golestan"}, {"city": "Kujuvar", "latitude": 38.05993, "longitude": 46.13809, "state": "East Azerbaijan"}, {"city": "Kab\u016bdar\u0101hang", "latitude": 35.20924, "longitude": 48.72341, "state": "Hamadan Province"}, {"city": "Eyv\u0101n", "latitude": 33.8272, "longitude": 46.3097, "state": "Ilam Province"}, {"city": "J\u016byb\u0101r", "latitude": 36.64088, "longitude": 52.91206, "state": "M\u0101zandar\u0101n"}, {"city": "Joght\u0101y", "latitude": 36.63619, "longitude": 57.07284, "state": "Razavi Khorasan"}, {"city": "Kh\u0101rk", "latitude": 29.26139, "longitude": 50.33056, "state": "Bushehr"}, {"city": "Jav\u0101nr\u016bd", "latitude": 34.79611, "longitude": 46.51722, "state": "Kermanshah Province"}, {"city": "Jask", "latitude": 25.64533, "longitude": 57.77552, "state": "Hormozgan"}, {"city": "Jong\u012byeh", "latitude": 31.25583, "longitude": 48.61667, "state": "Khuzestan"}, {"city": "Jam", "latitude": 27.82817, "longitude": 52.32536, "state": "Bushehr"}, {"city": "J\u0101jarm", "latitude": 36.95012, "longitude": 56.38005, "state": "North Khorasan"}, {"city": "Jahrom", "latitude": 28.5, "longitude": 53.5605, "state": "Fars"}, {"city": "\u012az\u0304eh", "latitude": 31.83027, "longitude": 49.86756, "state": "Khuzestan"}, {"city": "\u012al\u0101m", "latitude": 33.6374, "longitude": 46.4227, "state": "Ilam Province"}, {"city": "Hoveyzeh", "latitude": 31.4619, "longitude": 48.074, "state": "Khuzestan"}, {"city": "Her\u012bs", "latitude": 38.24816, "longitude": 47.11678, "state": "East Azerbaijan"}, {"city": "Hend\u012bj\u0101n", "latitude": 30.2363, "longitude": 49.7119, "state": "Khuzestan"}, {"city": "Hashtgerd", "latitude": 35.962, "longitude": 50.6799, "state": "Alborz Province"}, {"city": "Hars\u012bn", "latitude": 34.2721, "longitude": 47.5861, "state": "Kermanshah Province"}, {"city": "\u1e28am\u012bd\u012byeh", "latitude": 31.48285, "longitude": 48.4332, "state": "Khuzestan"}, {"city": "Hamad\u0101n", "latitude": 34.79922, "longitude": 48.51456, "state": "Hamadan Province"}, {"city": "\u1e28\u0101jj\u012b\u0101b\u0101d", "latitude": 28.35735, "longitude": 54.42335, "state": "Fars"}, {"city": "\u1e28\u0101jj\u012b\u0101b\u0101d", "latitude": 28.3091, "longitude": 55.9017, "state": "Hormozgan"}, {"city": "Haftkel", "latitude": 31.44686, "longitude": 49.52951, "state": "Khuzestan"}, {"city": "Gorg\u0101n", "latitude": 36.8427, "longitude": 54.44391, "state": "Golestan"}, {"city": "Gonbad-e K\u0101v\u016bs", "latitude": 37.25004, "longitude": 55.16721, "state": "Golestan"}, {"city": "Gon\u0101b\u0101d", "latitude": 34.35287, "longitude": 58.68365, "state": "Razavi Khorasan"}, {"city": "Golp\u0101yeg\u0101n", "latitude": 33.4537, "longitude": 50.28836, "state": "Isfahan"}, {"city": "G\u012bl\u0101n-e Gharb", "latitude": 34.1421, "longitude": 45.9203, "state": "Kermanshah Province"}, {"city": "Ger\u0101sh", "latitude": 27.66966, "longitude": 54.13586, "state": "Fars"}, {"city": "G\u0101vband\u012b", "latitude": 27.2083, "longitude": 53.0361, "state": "Hormozgan"}, {"city": "Gotvand", "latitude": 32.24585, "longitude": 48.81315, "state": "Khuzestan"}, {"city": "Garms\u0101r", "latitude": 35.21824, "longitude": 52.34085, "state": "Semnan"}, {"city": "Germ\u012b", "latitude": 39.0215, "longitude": 48.0801, "state": "Ardabil Province"}, {"city": "Garmeh", "latitude": 36.987, "longitude": 56.28942, "state": "North Khorasan"}, {"city": "Bandar-e Gen\u0101veh", "latitude": 29.5791, "longitude": 50.517, "state": "Bushehr"}, {"city": "Gal\u016bg\u0101h", "latitude": 36.72734, "longitude": 53.80888, "state": "M\u0101zandar\u0101n"}, {"city": "G\u0101l\u012bkesh", "latitude": 37.27259, "longitude": 55.43394, "state": "Golestan"}, {"city": "F\u016bman", "latitude": 37.224, "longitude": 49.3125, "state": "Gilan Province"}, {"city": "F\u012br\u016bzk\u016bh", "latitude": 35.75674, "longitude": 52.77062, "state": "Tehran"}, {"city": "F\u012br\u016bz\u0101b\u0101d", "latitude": 28.8438, "longitude": 52.5707, "state": "Fars"}, {"city": "Fey\u1e95\u0101b\u0101d", "latitude": 35.01891, "longitude": 58.78343, "state": "Razavi Khorasan"}, {"city": "Fereyd\u016bnshahr", "latitude": 32.94195, "longitude": 50.11991, "state": "Isfahan"}, {"city": "Fereyd\u016bn Ken\u0101r", "latitude": 36.68489, "longitude": 52.51917, "state": "M\u0101zandar\u0101n"}, {"city": "Ferdows", "latitude": 34.0185, "longitude": 58.17222, "state": "South Khorasan Province"}, {"city": "Fas\u0101", "latitude": 28.9383, "longitude": 53.6482, "state": "Fars"}, {"city": "F\u0101ry\u0101b", "latitude": 28.0987, "longitude": 57.23181, "state": "Kerman"}, {"city": "F\u0101r\u016bj", "latitude": 37.23121, "longitude": 58.219, "state": "North Khorasan"}, {"city": "F\u0101rs\u0101n", "latitude": 32.25694, "longitude": 50.56095, "state": "Chaharmahal and Bakhtiari"}, {"city": "Farr\u0101shband", "latitude": 28.86012, "longitude": 52.09452, "state": "Fars"}, {"city": "Farmah\u012bn", "latitude": 34.50383, "longitude": 49.68437, "state": "Markazi"}, {"city": "Far\u012bm\u0101n", "latitude": 35.70685, "longitude": 59.85006, "state": "Razavi Khorasan"}, {"city": "Fann\u016bj", "latitude": 26.57527, "longitude": 59.64144, "state": "Sistan and Baluchestan"}, {"city": "pamas", "latitude": 34.03791, "longitude": 48.462, "state": "Hamadan Province"}, {"city": "F\u0101men\u012bn", "latitude": 35.11593, "longitude": 48.97336, "state": "Hamadan Province"}, {"city": "Fahraj", "latitude": 28.9502, "longitude": 58.885, "state": "Kerman"}, {"city": "Estahb\u0101n", "latitude": 29.1266, "longitude": 54.0421, "state": "Fars"}, {"city": "Esl\u0101m\u0101b\u0101d-e Gharb", "latitude": 34.1089, "longitude": 46.52988, "state": "Kermanshah Province"}, {"city": "Eshteh\u0101rd", "latitude": 35.7255, "longitude": 50.3662, "state": "Alborz Province"}, {"city": "Esfar\u0101yen", "latitude": 37.07645, "longitude": 57.51009, "state": "North Khorasan"}, {"city": "Eql\u012bd", "latitude": 30.89885, "longitude": 52.69701, "state": "Fars"}, {"city": "Shahrud", "latitude": 36.41819, "longitude": 54.97628, "state": "Semnan"}, {"city": "Dowlat\u0101b\u0101d", "latitude": 35.28219, "longitude": 59.51972, "state": "Razavi Khorasan"}, {"city": "Dor\u016bd", "latitude": 33.49218, "longitude": 49.0616, "state": "Lorestan Province"}, {"city": "Dogonbadan", "latitude": 30.3586, "longitude": 50.7981, "state": "Kohgiluyeh and Boyer-Ahmad"}, {"city": "D\u012bv\u0101ndarreh", "latitude": 35.9139, "longitude": 47.0239, "state": "Kurdistan Province"}, {"city": "Dezful", "latitude": 32.38114, "longitude": 48.40581, "state": "Khuzestan"}, {"city": "Deyr", "latitude": 27.8399, "longitude": 51.9378, "state": "Bushehr"}, {"city": "Del\u012bj\u0101n", "latitude": 33.9905, "longitude": 50.6838, "state": "Markazi"}, {"city": "Dehlor\u0101n", "latitude": 32.6941, "longitude": 47.2679, "state": "Ilam Province"}, {"city": "Dehgol\u0101n", "latitude": 35.278, "longitude": 47.4184, "state": "Kurdistan Province"}, {"city": "Dehdasht", "latitude": 30.79337, "longitude": 50.56508, "state": "Kohgiluyeh and Boyer-Ahmad"}, {"city": "S\u012bsakht", "latitude": 30.86393, "longitude": 51.4559, "state": "Kohgiluyeh and Boyer-Ahmad"}, {"city": "\u015eaf\u0101shahr", "latitude": 30.6131, "longitude": 53.1954, "state": "Fars"}, {"city": "Deh\u0101q\u0101n", "latitude": 31.93986, "longitude": 51.64731, "state": "Isfahan"}, {"city": "D\u0101varzan", "latitude": 36.35088, "longitude": 56.87547, "state": "Razavi Khorasan"}, {"city": "S\u016bsangerd", "latitude": 31.5635, "longitude": 48.18958, "state": "Khuzestan"}, {"city": "Darreh Shahr", "latitude": 33.14447, "longitude": 47.3799, "state": "Ilam Province"}, {"city": "Dargaz", "latitude": 37.44447, "longitude": 59.10809, "state": "Razavi Khorasan"}, {"city": "D\u0101r\u0101n", "latitude": 32.98741, "longitude": 50.4108, "state": "Isfahan"}, {"city": "D\u0101r\u0101b", "latitude": 28.75171, "longitude": 54.54065, "state": "Fars"}, {"city": "D\u0101mgh\u0101n", "latitude": 36.1679, "longitude": 54.34292, "state": "Semnan"}, {"city": "Dam\u0101vand", "latitude": 35.71842, "longitude": 52.06958, "state": "Tehran"}, {"city": "Chen\u0101r\u0101n", "latitude": 36.64546, "longitude": 59.12123, "state": "Razavi Khorasan"}, {"city": "Chelgard", "latitude": 32.4672, "longitude": 50.12229, "state": "Chaharmahal and Bakhtiari"}, {"city": "Char\u0101m", "latitude": 30.75561, "longitude": 50.74522, "state": "Kohgiluyeh and Boyer-Ahmad"}, {"city": "Chaq\u0101bol", "latitude": 33.28175, "longitude": 47.50979, "state": "Lorestan Province"}, {"city": "Ch\u0101l\u016bs", "latitude": 36.655, "longitude": 51.4204, "state": "M\u0101zandar\u0101n"}, {"city": "Ch\u0101deg\u0101n", "latitude": 32.76825, "longitude": 50.62873, "state": "Isfahan"}, {"city": "Bushehr", "latitude": 28.96887, "longitude": 50.83657, "state": null}, {"city": "B\u016bk\u0101n", "latitude": 36.521, "longitude": 46.2089, "state": "West Azerbaijan"}, {"city": "B\u016b\u2019\u012bn Zahr\u0101", "latitude": 35.7669, "longitude": 50.0578, "state": "Qazvin Province"}, {"city": "Bor\u016bjerd", "latitude": 33.8973, "longitude": 48.7516, "state": "Lorestan Province"}, {"city": "Bor\u016bjen", "latitude": 31.96523, "longitude": 51.2873, "state": "Chaharmahal and Bakhtiari"}, {"city": "Bor\u0101zj\u0101n", "latitude": 29.2699, "longitude": 51.2188, "state": "Bushehr"}, {"city": "Shahrak-e K\u016bl\u016br\u012b", "latitude": 32.35276, "longitude": 48.47059, "state": "Khuzestan"}, {"city": "Bojn\u016brd", "latitude": 37.47473, "longitude": 57.32903, "state": "North Khorasan"}, {"city": "B\u012brjand", "latitude": 32.86628, "longitude": 59.22114, "state": "South Khorasan Province"}, {"city": "B\u012bleh Sav\u0101r", "latitude": 39.37961, "longitude": 48.35463, "state": "Ardabil Province"}, {"city": "B\u012bj\u0101r", "latitude": 35.8668, "longitude": 47.60506, "state": "Kurdistan Province"}, {"city": "Bon\u0101b", "latitude": 37.3404, "longitude": 46.0561, "state": "East Azerbaijan"}, {"city": "Ben", "latitude": 32.54037, "longitude": 50.74515, "state": "Chaharmahal and Bakhtiari"}, {"city": "Behshahr", "latitude": 36.69235, "longitude": 53.55262, "state": "M\u0101zandar\u0101n"}, {"city": "Behbah\u0101n", "latitude": 30.5959, "longitude": 50.2417, "state": "Khuzestan"}, {"city": "M\u0101s\u0101l", "latitude": 37.3631, "longitude": 49.1329, "state": "Gilan Province"}, {"city": "Bastak", "latitude": 27.19908, "longitude": 54.36676, "state": "Hormozgan"}, {"city": "B\u0101sht", "latitude": 30.361, "longitude": 51.15735, "state": "Kohgiluyeh and Boyer-Ahmad"}, {"city": "Bardaskan", "latitude": 35.26218, "longitude": 57.97075, "state": "Razavi Khorasan"}, {"city": "B\u0101neh", "latitude": 35.9975, "longitude": 45.8853, "state": "Kurdistan Province"}, {"city": "Bandar-e Torkaman", "latitude": 36.90124, "longitude": 54.07195, "state": "Golestan"}, {"city": "Bandar-e M\u0101hshahr", "latitude": 30.55655, "longitude": 49.18852, "state": "Khuzestan"}, {"city": "Bandar-e Lengeh", "latitude": 26.55792, "longitude": 54.88067, "state": "Hormozgan"}, {"city": "Bandar-e Gaz", "latitude": 36.77409, "longitude": 53.94798, "state": "Golestan"}, {"city": "Bandar-e Deylam", "latitude": 30.0542, "longitude": 50.159, "state": "Bushehr"}, {"city": "Bandar-e Anzal\u012b", "latitude": 37.47318, "longitude": 49.45785, "state": "Gilan Province"}, {"city": "Bandar Abbas", "latitude": 27.1865, "longitude": 56.2808, "state": "Hormozgan"}, {"city": "Bam", "latitude": 29.106, "longitude": 58.357, "state": "Kerman"}, {"city": "Bajest\u0101n", "latitude": 34.51639, "longitude": 58.1845, "state": "Razavi Khorasan"}, {"city": "Bah\u0101r", "latitude": 34.9072, "longitude": 48.4414, "state": "Hamadan Province"}, {"city": "B\u0101gh-e Malek", "latitude": 31.52398, "longitude": 49.88558, "state": "Khuzestan"}, {"city": "B\u0101ft", "latitude": 29.2331, "longitude": 56.6022, "state": "Kerman"}, {"city": "B\u0101fq", "latitude": 31.6035, "longitude": 55.40249, "state": "Yazd Province"}, {"city": "B\u0101bolsar", "latitude": 36.69929, "longitude": 52.65011, "state": "M\u0101zandar\u0101n"}, {"city": "B\u0101bol", "latitude": 36.55102, "longitude": 52.6786, "state": "M\u0101zandar\u0101n"}, {"city": "Azn\u0101", "latitude": 33.6095, "longitude": 48.9307, "state": "Lorestan Province"}, {"city": "Azn\u0101", "latitude": 33.45643, "longitude": 49.45646, "state": "Lorestan Province"}, {"city": "Hashtr\u016bd", "latitude": 37.4779, "longitude": 47.0508, "state": "East Azerbaijan"}, {"city": "Sh\u0101zand", "latitude": 33.93132, "longitude": 49.40629, "state": "Markazi"}, {"city": "\u0100vaj", "latitude": 35.57959, "longitude": 49.22313, "state": "Qazvin Province"}, {"city": "\u0100st\u0101r\u0101", "latitude": 38.43084, "longitude": 48.86994, "state": "Gilan Province"}, {"city": "\u0100st\u0101neh-ye Ashraf\u012byeh", "latitude": 37.26318, "longitude": 49.94325, "state": "Gilan Province"}, {"city": "\u0100sht\u012b\u0101n", "latitude": 34.52298, "longitude": 50.00608, "state": "Markazi"}, {"city": "\u0100shkh\u0101neh", "latitude": 37.5615, "longitude": 56.92125, "state": "North Khorasan"}, {"city": "Bandar-e \u2018Asal\u016byah", "latitude": 27.47383, "longitude": 52.60782, "state": "Bushehr"}, {"city": "Asad\u012byeh", "latitude": 32.9428, "longitude": 59.71998, "state": "South Khorasan Province"}, {"city": "Asad\u0101b\u0101d", "latitude": 34.78241, "longitude": 48.12012, "state": "Hamadan Province"}, {"city": "Orz\u016b\u2019\u012byeh", "latitude": 28.45318, "longitude": 56.35994, "state": "Kerman"}, {"city": "Arsanj\u0101n", "latitude": 29.9124, "longitude": 53.3085, "state": "Fars"}, {"city": "Ardest\u0101n", "latitude": 33.3761, "longitude": 52.3694, "state": "Isfahan"}, {"city": "Ardal", "latitude": 31.99969, "longitude": 50.66231, "state": "Chaharmahal and Bakhtiari"}, {"city": "Ardak\u0101n", "latitude": 32.31001, "longitude": 54.01747, "state": "Yazd Province"}, {"city": "Ardab\u012bl", "latitude": 38.2498, "longitude": 48.2933, "state": "Ardabil Province"}, {"city": "\u0100r\u0101n B\u012bdgol", "latitude": 34.05751, "longitude": 51.48291, "state": "Isfahan"}, {"city": "Ar\u0101k", "latitude": 34.09493, "longitude": 49.69809, "state": "Markazi"}, {"city": "\u0100r\u0101d\u0101n", "latitude": 35.24941, "longitude": 52.49422, "state": "Semnan"}, {"city": "An\u016bch", "latitude": 34.10829, "longitude": 48.57375, "state": "Hamadan Province"}, {"city": "And\u012bmeshk", "latitude": 32.4615, "longitude": 48.35368, "state": "Khuzestan"}, {"city": "\u2018Anbar\u0101b\u0101d", "latitude": 28.4759, "longitude": 57.848, "state": "Kerman"}, {"city": "An\u0101r", "latitude": 30.87066, "longitude": 55.27025, "state": "Kerman"}, {"city": "\u0100mol", "latitude": 36.46961, "longitude": 52.35072, "state": "M\u0101zandar\u0101n"}, {"city": "Amlash", "latitude": 37.0966, "longitude": 50.18709, "state": "Gilan Province"}, {"city": "Alvand", "latitude": 36.31885, "longitude": 49.16773, "state": "Zanjan"}, {"city": "Shahr\u012b\u0101r", "latitude": 35.65884, "longitude": 51.05775, "state": "Tehran"}, {"city": "Al\u012bg\u016bdarz", "latitude": 33.404, "longitude": 49.69179, "state": "Lorestan Province"}, {"city": "Aliabad-e Katul", "latitude": 36.91011, "longitude": 54.86737, "state": "Golestan"}, {"city": "Alavijeh", "latitude": 33.0548, "longitude": 51.08331, "state": "Isfahan"}, {"city": "Aleshtar", "latitude": 33.86419, "longitude": 48.26258, "state": "Lorestan Province"}, {"city": "Akbar\u0101b\u0101d", "latitude": 29.2464, "longitude": 52.7793, "state": "Fars"}, {"city": "Ajab Sh\u012br", "latitude": 37.4776, "longitude": 45.8943, "state": "East Azerbaijan"}, {"city": "Ahvaz", "latitude": 31.31901, "longitude": 48.6842, "state": "Khuzestan"}, {"city": "Ahram", "latitude": 28.8826, "longitude": 51.2746, "state": "Bushehr"}, {"city": "Ahar", "latitude": 38.4774, "longitude": 47.0699, "state": "East Azerbaijan"}, {"city": "Aghajari", "latitude": 30.7006, "longitude": 49.8315, "state": "Khuzestan"}, {"city": "\u0100byek", "latitude": 36.06667, "longitude": 50.55, "state": "Markazi"}, {"city": "\u0100byek", "latitude": 36.03993, "longitude": 50.53101, "state": "Qazvin Province"}, {"city": "Abhar", "latitude": 36.1468, "longitude": 49.218, "state": "Zanjan"}, {"city": "\u0100bd\u0101n\u0101n", "latitude": 32.9926, "longitude": 47.4198, "state": "Ilam Province"}, {"city": "'Ab\u0101s \u0100b\u0101d", "latitude": 36.72769, "longitude": 51.10574, "state": "M\u0101zandar\u0101n"}, {"city": "\u0100bbar", "latitude": 36.92627, "longitude": 48.95832, "state": "Zanjan"}, {"city": "Abark\u016bh", "latitude": 31.1289, "longitude": 53.2824, "state": "Yazd Province"}, {"city": "Abadeh", "latitude": 31.1608, "longitude": 52.6506, "state": "Fars"}, {"city": "Abadan", "latitude": 30.3392, "longitude": 48.3043, "state": "Khuzestan"}, {"city": "K\u016bh Sef\u012bd", "latitude": 29.2762, "longitude": 56.8014, "state": "Kerman"}, {"city": "Show\u0163", "latitude": 39.2192, "longitude": 44.77, "state": "West Azerbaijan"}, {"city": "P\u0101s\u0101rg\u0101d", "latitude": 30.20194, "longitude": 53.18, "state": "Fars"}, {"city": "L\u016bm\u0101r", "latitude": 33.56522, "longitude": 46.814, "state": "Ilam Province"}, {"city": "Shahrak-e P\u0101bed\u0101n\u0101", "latitude": 31.13444, "longitude": 56.39806, "state": "Kerman"}, {"city": "Sep\u012bd\u0101n", "latitude": 30.25961, "longitude": 51.98491, "state": "Fars"}, {"city": "Eqb\u0101l\u012byeh", "latitude": 35.3022, "longitude": 51.5358, "state": "Tehran"}, {"city": "Badreh", "latitude": 33.30573, "longitude": 47.03708, "state": "Ilam Province"}, {"city": "Sh\u0101h\u012bn Shahr", "latitude": 32.85788, "longitude": 51.5529, "state": "Isfahan"}, {"city": "Zarr\u012bn Shahr", "latitude": 32.3897, "longitude": 51.3766, "state": "Isfahan"}, {"city": "T\u012br\u0101n", "latitude": 32.70328, "longitude": 51.15381, "state": "Isfahan"}, {"city": "Rehn\u0101n", "latitude": 32.68325, "longitude": 51.60158, "state": "Isfahan"}, {"city": "Shahre\u1e95\u0101", "latitude": 32.00877, "longitude": 51.86407, "state": "Isfahan"}, {"city": "Qahder\u012bj\u0101n", "latitude": 32.5773, "longitude": 51.45367, "state": "Isfahan"}, {"city": "Najaf\u0101b\u0101d", "latitude": 32.63464, "longitude": 51.36525, "state": "Isfahan"}, {"city": "Mob\u0101rakeh", "latitude": 32.34612, "longitude": 51.50205, "state": "Isfahan"}, {"city": "Khomeyn\u012b Shahr", "latitude": 32.6856, "longitude": 51.53609, "state": "Isfahan"}, {"city": "Kel\u012bsh\u0101d va S\u016bdarj\u0101n", "latitude": 32.55118, "longitude": 51.52758, "state": "Isfahan"}, {"city": "Fal\u0101varj\u0101n", "latitude": 32.5553, "longitude": 51.50973, "state": "Isfahan"}, {"city": "Isfahan", "latitude": 32.65246, "longitude": 51.67462, "state": null}, {"city": "Dowlat\u0101b\u0101d", "latitude": 32.79978, "longitude": 51.69553, "state": "Isfahan"}, {"city": "Dorcheh P\u012b\u0101z", "latitude": 32.61528, "longitude": 51.55556, "state": "Isfahan"}, {"city": "Abr\u012bsham", "latitude": 32.55613, "longitude": 51.57325, "state": "Isfahan"}, {"city": "Eslamshahr", "latitude": 35.55222, "longitude": 51.23504, "state": "Tehran"}, {"city": "Shahrak-e B\u0101kharz", "latitude": 34.99204, "longitude": 60.31714, "state": "Razavi Khorasan"}, {"city": "Z\u0101bol", "latitude": 31.0306, "longitude": 61.4949, "state": "Sistan and Baluchestan"}, {"city": "Zahedan", "latitude": 29.4963, "longitude": 60.8629, "state": "Sistan and Baluchestan"}, {"city": "Zehak", "latitude": 30.894, "longitude": 61.6804, "state": "Sistan and Baluchestan"}, {"city": "Z\u0101bol\u012b", "latitude": 27.131, "longitude": 61.67445, "state": "Sistan and Baluchestan"}, {"city": "Torbat-e J\u0101m", "latitude": 35.244, "longitude": 60.6225, "state": "Razavi Khorasan"}, {"city": "T\u0101yb\u0101d", "latitude": 34.74, "longitude": 60.7756, "state": "Razavi Khorasan"}, {"city": "S\u016br\u0101n", "latitude": 27.2855, "longitude": 61.9965, "state": "Sistan and Baluchestan"}, {"city": "Sarb\u0101z", "latitude": 26.63228, "longitude": 61.25787, "state": "Sistan and Baluchestan"}, {"city": "Sar\u0101v\u0101n", "latitude": 27.37089, "longitude": 62.33096, "state": "Sistan and Baluchestan"}, {"city": "Sarakhs", "latitude": 36.5449, "longitude": 61.1577, "state": "Razavi Khorasan"}, {"city": "R\u0101sak", "latitude": 26.23682, "longitude": 61.39901, "state": "Sistan and Baluchestan"}, {"city": "Qa\u015fr-e Qand", "latitude": 26.24833, "longitude": 60.7525, "state": "Sistan and Baluchestan"}, {"city": "Qa\u015fr-e Qand", "latitude": 26.23244, "longitude": 60.73932, "state": "Sistan and Baluchestan"}, {"city": "N\u012bkshahr", "latitude": 26.2258, "longitude": 60.2143, "state": "Sistan and Baluchestan"}, {"city": "Nehband\u0101n", "latitude": 31.54185, "longitude": 60.03648, "state": "South Khorasan Province"}, {"city": "Mo\u1e29ammad\u0101b\u0101d", "latitude": 30.88546, "longitude": 61.46303, "state": "Sistan and Baluchestan"}, {"city": "M\u012brj\u0101veh", "latitude": 29.0148, "longitude": 61.44959, "state": "Sistan and Baluchestan"}, {"city": "Kon\u0101rak", "latitude": 25.3604, "longitude": 60.3995, "state": "Sistan and Baluchestan"}, {"city": "Khv\u0101f", "latitude": 34.5763, "longitude": 60.14093, "state": "Razavi Khorasan"}, {"city": "Kh\u0101sh", "latitude": 28.22107, "longitude": 61.21582, "state": "Sistan and Baluchestan"}, {"city": "Iranshahr", "latitude": 27.20245, "longitude": 60.68476, "state": "Sistan and Baluchestan"}, {"city": "\u1e28\u0101jj\u012b\u0101b\u0101d", "latitude": 33.60496, "longitude": 59.9934, "state": "South Khorasan Province"}, {"city": "D\u016bst Mo\u1e29ammad Kh\u0101n", "latitude": 31.1447, "longitude": 61.7925, "state": "Sistan and Baluchestan"}, {"city": "Chabahar", "latitude": 25.2919, "longitude": 60.643, "state": "Sistan and Baluchestan"}, {"city": "Ad\u012bm\u012b", "latitude": 31.11144, "longitude": 61.41189, "state": "Sistan and Baluchestan"}, {"city": "M\u0101m\u016bn\u012byeh", "latitude": 35.30454, "longitude": 50.49934, "state": "Markazi"}, {"city": "Pard\u012bs", "latitude": 35.74687, "longitude": 51.81222, "state": "Tehran"}, {"city": "\u0100z\u0304arshahr", "latitude": 37.759, "longitude": 45.9783, "state": "East Azerbaijan"}, {"city": "T\u0101zeh\u0101b\u0101d", "latitude": 34.7387, "longitude": 46.1496, "state": "Kermanshah Province"}, {"city": "K\u0101sh\u0101n", "latitude": 33.99728, "longitude": 51.44158, "state": "Isfahan"}, {"city": "J\u012broft", "latitude": 28.67806, "longitude": 57.74056, "state": "Kerman"}, {"city": "R\u016bdb\u0101r", "latitude": 28.02899, "longitude": 57.9961, "state": "Kerman"}, {"city": "Famast", "latitude": 34.03897, "longitude": 48.4626, "state": "Hamadan Province"}, {"city": "Kahn\u016bj", "latitude": 27.9519, "longitude": 57.6996, "state": "Kerman"}, {"city": "Mahdishahr", "latitude": 35.71071, "longitude": 53.35394, "state": "Semnan"}, {"city": "Dalg\u0101n", "latitude": 27.48232, "longitude": 59.44656, "state": "Sistan and Baluchestan"}, {"city": "Sh\u0101l\u0101sh", "latitude": 36.9084, "longitude": 53.92647, "state": "M\u0101zandar\u0101n"}, {"city": "\u0100q Qal\u0101", "latitude": 37.0139, "longitude": 54.45504, "state": "Golestan"}, {"city": "Bandar-e Emam Khomeyni", "latitude": 30.43698, "longitude": 49.10288, "state": "Khuzestan"}, {"city": "Q\u0101\u2019em Shahr", "latitude": 36.48144, "longitude": 52.89109, "state": "M\u0101zandar\u0101n"}, {"city": "P\u0101kdasht", "latitude": 35.47854, "longitude": 51.6834, "state": "Tehran"}, {"city": "Boshr\u016byeh", "latitude": 33.86845, "longitude": 57.42885, "state": "South Khorasan Province"}, {"city": "Taft", "latitude": 31.76056, "longitude": 54.22303, "state": "Yazd Province"}, {"city": "G\u012bv\u012b", "latitude": 37.68585, "longitude": 48.34204, "state": "Ardabil Province"}, {"city": "Rey", "latitude": 35.59354, "longitude": 51.43997, "state": "Tehran"}, {"city": "Bah\u0101b\u0101d", "latitude": 31.87091, "longitude": 56.02433, "state": "Yazd Province"}, {"city": "Pasragad Branch", "latitude": 34.77772, "longitude": 48.47168, "state": "Hamadan Province"}]