[{"city": "Zwota", "latitude": 50.35103, "longitude": 12.42241, "state": "Saxony"}, {"city": "Zw\u00f6nitz", "latitude": 50.63027, "longitude": 12.80999, "state": "Saxony"}, {"city": "Zwochau", "latitude": 51.46467, "longitude": 12.26844, "state": "Saxony"}, {"city": "Zwingenberg", "latitude": 49.72389, "longitude": 8.61084, "state": "Hesse"}, {"city": "Zwiesel", "latitude": 49.01693, "longitude": 13.23765, "state": "Bavaria"}, {"city": "Zwiefalten", "latitude": 48.23396, "longitude": 9.46232, "state": "Baden-Wurttemberg"}, {"city": "Zwickau", "latitude": 50.72724, "longitude": 12.48839, "state": "Saxony"}, {"city": "Zwenkau", "latitude": 51.21872, "longitude": 12.33008, "state": "Saxony"}, {"city": "Zweiflingen", "latitude": 49.25639, "longitude": 9.51806, "state": "Baden-Wurttemberg"}, {"city": "Zweibr\u00fccken", "latitude": 49.24686, "longitude": 7.36977, "state": "Rheinland-Pfalz"}, {"city": "Zuzenhausen", "latitude": 49.29636, "longitude": 8.82254, "state": "Baden-Wurttemberg"}, {"city": "Z\u00fcssow", "latitude": 53.97709, "longitude": 13.54855, "state": "Mecklenburg-Vorpommern"}, {"city": "Zusmarshausen", "latitude": 48.40014, "longitude": 10.59917, "state": "Bavaria"}, {"city": "Zusamaltheim", "latitude": 48.53104, "longitude": 10.63562, "state": "Bavaria"}, {"city": "Zurow", "latitude": 53.86429, "longitude": 11.61434, "state": "Mecklenburg-Vorpommern"}, {"city": "Z\u00fclpich", "latitude": 50.69447, "longitude": 6.65414, "state": "North Rhine-Westphalia"}, {"city": "Zschortau", "latitude": 51.4793, "longitude": 12.35893, "state": "Saxony"}, {"city": "Zschornewitz", "latitude": 51.71585, "longitude": 12.39998, "state": "Saxony-Anhalt"}, {"city": "Zschorlau", "latitude": 50.56667, "longitude": 12.65, "state": "Saxony"}, {"city": "Zschopau", "latitude": 50.74818, "longitude": 13.07691, "state": "Saxony"}, {"city": "Zscherndorf", "latitude": 51.61087, "longitude": 12.26755, "state": "Saxony-Anhalt"}, {"city": "Zscherben", "latitude": 51.46709, "longitude": 11.87058, "state": "Saxony-Anhalt"}, {"city": "Zscherben", "latitude": 51.33576, "longitude": 11.96969, "state": "Saxony-Anhalt"}, {"city": "Zschepplin", "latitude": 51.5, "longitude": 12.6, "state": "Saxony"}, {"city": "Zschadrass", "latitude": 51.13828, "longitude": 12.81848, "state": "Saxony"}, {"city": "Zossen", "latitude": 52.216, "longitude": 13.44909, "state": "Brandenburg"}, {"city": "Z\u00f6schen", "latitude": 51.35802, "longitude": 12.11652, "state": "Saxony-Anhalt"}, {"city": "Zornheim", "latitude": 49.89, "longitude": 8.22472, "state": "Rheinland-Pfalz"}, {"city": "Zorneding", "latitude": 48.08433, "longitude": 11.82446, "state": "Bavaria"}, {"city": "Zorge", "latitude": 51.63333, "longitude": 10.63333, "state": "Lower Saxony"}, {"city": "Z\u00f6rbig", "latitude": 51.62894, "longitude": 12.1174, "state": "Saxony-Anhalt"}, {"city": "Zons", "latitude": 51.12364, "longitude": 6.84468, "state": "North Rhine-Westphalia"}, {"city": "Zolling", "latitude": 48.45, "longitude": 11.76667, "state": "Bavaria"}, {"city": "Z\u00f6blitz", "latitude": 50.65912, "longitude": 13.22981, "state": "Saxony"}, {"city": "Zittau", "latitude": 50.89772, "longitude": 14.80764, "state": "Saxony"}, {"city": "Zirndorf", "latitude": 49.4424, "longitude": 10.95414, "state": "Bavaria"}, {"city": "Ostseebad Zinnowitz", "latitude": 54.07668, "longitude": 13.91127, "state": "Mecklenburg-Vorpommern"}, {"city": "Zinna", "latitude": 51.5679, "longitude": 12.95354, "state": "Saxony"}, {"city": "Zingst", "latitude": 54.43572, "longitude": 12.6888, "state": "Mecklenburg-Vorpommern"}, {"city": "Zimmern ob Rottweil", "latitude": 48.1666, "longitude": 8.59436, "state": "Baden-Wurttemberg"}, {"city": "Ziltendorf", "latitude": 52.20608, "longitude": 14.62411, "state": "Brandenburg"}, {"city": "Ziesendorf", "latitude": 53.99433, "longitude": 12.03933, "state": "Mecklenburg-Vorpommern"}, {"city": "Ziesar", "latitude": 52.26616, "longitude": 12.28997, "state": "Brandenburg"}, {"city": "Ziertheim", "latitude": 48.65244, "longitude": 10.39882, "state": "Bavaria"}, {"city": "Zierenberg", "latitude": 51.36948, "longitude": 9.30164, "state": "Hesse"}, {"city": "Ziemetshausen", "latitude": 48.29244, "longitude": 10.53503, "state": "Bavaria"}, {"city": "Zielitz", "latitude": 52.28958, "longitude": 11.67572, "state": "Saxony-Anhalt"}, {"city": "Zeven", "latitude": 53.29657, "longitude": 9.27685, "state": "Lower Saxony"}, {"city": "Zeuthen", "latitude": 52.34803, "longitude": 13.62174, "state": "Brandenburg"}, {"city": "Zeulenroda", "latitude": 50.65278, "longitude": 11.98377, "state": "Thuringia"}, {"city": "Zetel", "latitude": 53.41667, "longitude": 7.98333, "state": "Lower Saxony"}, {"city": "Zernien", "latitude": 53.06845, "longitude": 10.88325, "state": "Lower Saxony"}, {"city": "Zerf", "latitude": 49.6, "longitude": 6.68333, "state": "Rheinland-Pfalz"}, {"city": "Zerbst", "latitude": 51.9662, "longitude": 12.08517, "state": "Saxony-Anhalt"}, {"city": "Zeppelinheim", "latitude": 50.03538, "longitude": 8.61333, "state": "Hesse"}, {"city": "Zenting", "latitude": 48.79128, "longitude": 13.25968, "state": "Bavaria"}, {"city": "Zemmer", "latitude": 49.9, "longitude": 6.7, "state": "Rheinland-Pfalz"}, {"city": "Zell unter Aichelberg", "latitude": 48.64882, "longitude": 9.57137, "state": "Baden-Wurttemberg"}, {"city": "Zellingen", "latitude": 49.89737, "longitude": 9.81746, "state": "Bavaria"}, {"city": "Zell im Wiesental", "latitude": 47.70555, "longitude": 7.85248, "state": "Baden-Wurttemberg"}, {"city": "Zell am Main", "latitude": 49.81214, "longitude": 9.86962, "state": "Bavaria"}, {"city": "Zella-Mehlis", "latitude": 50.65642, "longitude": 10.66046, "state": "Thuringia"}, {"city": "Zell im Fichtelgebirge", "latitude": 50.13532, "longitude": 11.82266, "state": "Bavaria"}, {"city": "Zell", "latitude": 50.02918, "longitude": 7.18232, "state": "Rheinland-Pfalz"}, {"city": "Zell", "latitude": 48.69235, "longitude": 8.06301, "state": "Baden-Wurttemberg"}, {"city": "Zeitz", "latitude": 51.04962, "longitude": 12.1369, "state": "Saxony-Anhalt"}, {"city": "Zeitlofs", "latitude": 50.26189, "longitude": 9.67243, "state": "Bavaria"}, {"city": "Zeitlarn", "latitude": 49.07848, "longitude": 12.11174, "state": "Bavaria"}, {"city": "Zeithain", "latitude": 51.33356, "longitude": 13.33809, "state": "Saxony"}, {"city": "Zeiskam", "latitude": 49.23278, "longitude": 8.24722, "state": "Rheinland-Pfalz"}, {"city": "Zeilarn", "latitude": 48.30003, "longitude": 12.8426, "state": "Bavaria"}, {"city": "Zeil", "latitude": 50.00986, "longitude": 10.5947, "state": "Bavaria"}, {"city": "Zehlendorf", "latitude": 52.43333, "longitude": 13.25, "state": "Berlin"}, {"city": "Zehdenick", "latitude": 52.97852, "longitude": 13.33165, "state": "Brandenburg"}, {"city": "Zarrentin", "latitude": 53.55075, "longitude": 10.9155, "state": "Mecklenburg-Vorpommern"}, {"city": "Zarrendorf", "latitude": 54.23689, "longitude": 13.10094, "state": "Mecklenburg-Vorpommern"}, {"city": "Zarpen", "latitude": 53.86667, "longitude": 10.51667, "state": "Schleswig-Holstein"}, {"city": "Zappendorf", "latitude": 51.51024, "longitude": 11.79514, "state": "Saxony-Anhalt"}, {"city": "Zapfendorf", "latitude": 50.01783, "longitude": 10.93243, "state": "Bavaria"}, {"city": "Zangberg", "latitude": 48.2748, "longitude": 12.42311, "state": "Bavaria"}, {"city": "Zandt", "latitude": 49.15, "longitude": 12.73333, "state": "Bavaria"}, {"city": "Zaisenhausen", "latitude": 49.10667, "longitude": 8.81278, "state": "Baden-Wurttemberg"}, {"city": "Zahna", "latitude": 51.9141, "longitude": 12.78561, "state": "Saxony-Anhalt"}, {"city": "Zachenberg", "latitude": 48.96667, "longitude": 13.0, "state": "Bavaria"}, {"city": "Zaberfeld", "latitude": 49.05611, "longitude": 8.92694, "state": "Baden-Wurttemberg"}, {"city": "Zabeltitz", "latitude": 51.35147, "longitude": 13.50462, "state": "Saxony"}, {"city": "Xanten", "latitude": 51.65877, "longitude": 6.45297, "state": "North Rhine-Westphalia"}, {"city": "Wyk auf F\u00f6hr", "latitude": 54.6914, "longitude": 8.56702, "state": "Schleswig-Holstein"}, {"city": "Wyhl", "latitude": 48.16617, "longitude": 7.64917, "state": "Baden-Wurttemberg"}, {"city": "Wut\u00f6schingen", "latitude": 47.66019, "longitude": 8.36755, "state": "Baden-Wurttemberg"}, {"city": "Wustrow", "latitude": 53.47765, "longitude": 13.15569, "state": "Mecklenburg-Vorpommern"}, {"city": "Wustrow", "latitude": 52.9237, "longitude": 11.12846, "state": "Lower Saxony"}, {"city": "Wusterwitz", "latitude": 52.36666, "longitude": 12.38488, "state": "Brandenburg"}, {"city": "Wustermark", "latitude": 52.55, "longitude": 12.95, "state": "Brandenburg"}, {"city": "Wusterhusen", "latitude": 54.11312, "longitude": 13.61608, "state": "Mecklenburg-Vorpommern"}, {"city": "Wusterhausen", "latitude": 52.8912, "longitude": 12.46021, "state": "Brandenburg"}, {"city": "W\u00fcstenrot", "latitude": 49.08083, "longitude": 9.46056, "state": "Baden-Wurttemberg"}, {"city": "Wurzen", "latitude": 51.3707, "longitude": 12.73939, "state": "Saxony"}, {"city": "W\u00fcrzburg", "latitude": 49.79391, "longitude": 9.95121, "state": "Bavaria"}, {"city": "Wurzbach", "latitude": 50.46357, "longitude": 11.53779, "state": "Thuringia"}, {"city": "W\u00fcrselen", "latitude": 50.81809, "longitude": 6.1347, "state": "North Rhine-Westphalia"}, {"city": "Wurmsham", "latitude": 48.35, "longitude": 12.33333, "state": "Bavaria"}, {"city": "Wurmlingen", "latitude": 48.0, "longitude": 8.78333, "state": "Baden-Wurttemberg"}, {"city": "Wurmberg", "latitude": 48.86667, "longitude": 8.81667, "state": "Baden-Wurttemberg"}, {"city": "Wurmannsquick", "latitude": 48.35334, "longitude": 12.78603, "state": "Bavaria"}, {"city": "Wuppertal", "latitude": 51.25627, "longitude": 7.14816, "state": "North Rhine-Westphalia"}, {"city": "Wunstorf", "latitude": 52.42377, "longitude": 9.43585, "state": "Lower Saxony"}, {"city": "Wunsiedel", "latitude": 50.03923, "longitude": 12.00342, "state": "Bavaria"}, {"city": "W\u00fcnschendorf", "latitude": 50.79662, "longitude": 12.09824, "state": "Thuringia"}, {"city": "Bad W\u00fcnnenberg", "latitude": 51.52002, "longitude": 8.69934, "state": "North Rhine-Westphalia"}, {"city": "Wulsb\u00fcttel", "latitude": 53.31667, "longitude": 8.66667, "state": "Lower Saxony"}, {"city": "W\u00fclknitz", "latitude": 51.36667, "longitude": 13.4, "state": "Saxony"}, {"city": "Wulkenzin", "latitude": 53.54445, "longitude": 13.16921, "state": "Mecklenburg-Vorpommern"}, {"city": "Wulften", "latitude": 51.65999, "longitude": 10.17437, "state": "Lower Saxony"}, {"city": "Wulfsen", "latitude": 53.3, "longitude": 10.15, "state": "Lower Saxony"}, {"city": "W\u00fclfrath", "latitude": 51.28195, "longitude": 7.03821, "state": "North Rhine-Westphalia"}, {"city": "W\u00fclfershausen", "latitude": 50.33201, "longitude": 10.34084, "state": "Bavaria"}, {"city": "Wulfen", "latitude": 51.81938, "longitude": 11.93063, "state": "Saxony-Anhalt"}, {"city": "Wrist", "latitude": 53.93333, "longitude": 9.76667, "state": "Schleswig-Holstein"}, {"city": "Wriezen", "latitude": 52.72091, "longitude": 14.13425, "state": "Brandenburg"}, {"city": "Wriedel", "latitude": 53.0313, "longitude": 10.29848, "state": "Lower Saxony"}, {"city": "Wrestedt", "latitude": 52.90435, "longitude": 10.57494, "state": "Lower Saxony"}, {"city": "Wremen", "latitude": 53.65, "longitude": 8.51667, "state": "Lower Saxony"}, {"city": "W\u00f6ssingen", "latitude": 49.01205, "longitude": 8.60754, "state": "Baden-Wurttemberg"}, {"city": "W\u00f6rthsee", "latitude": 48.0725, "longitude": 11.20175, "state": "Bavaria"}, {"city": "W\u00f6rth an der Isar", "latitude": 48.623, "longitude": 12.33944, "state": "Bavaria"}, {"city": "W\u00f6rth an der Donau", "latitude": 49.00093, "longitude": 12.40539, "state": "Bavaria"}, {"city": "W\u00f6rth am Rhein", "latitude": 49.04888, "longitude": 8.25959, "state": "Rheinland-Pfalz"}, {"city": "W\u00f6rth am Main", "latitude": 49.7972, "longitude": 9.15389, "state": "Bavaria"}, {"city": "W\u00f6rt", "latitude": 49.03047, "longitude": 10.27239, "state": "Baden-Wurttemberg"}, {"city": "W\u00f6rrstadt", "latitude": 49.84861, "longitude": 8.12417, "state": "Rheinland-Pfalz"}, {"city": "Worpswede", "latitude": 53.21667, "longitude": 8.93333, "state": "Lower Saxony"}, {"city": "Worms", "latitude": 49.63278, "longitude": 8.35916, "state": "Rheinland-Pfalz"}, {"city": "W\u00f6rlitz", "latitude": 51.84172, "longitude": 12.42116, "state": "Saxony-Anhalt"}, {"city": "Woringen", "latitude": 47.91667, "longitude": 10.2, "state": "Bavaria"}, {"city": "Worbis", "latitude": 51.41997, "longitude": 10.3633, "state": "Thuringia"}, {"city": "Wonsees", "latitude": 49.97614, "longitude": 11.30047, "state": "Bavaria"}, {"city": "Wonfurt", "latitude": 50.01667, "longitude": 10.46667, "state": "Bavaria"}, {"city": "Woltersdorf", "latitude": 52.95, "longitude": 11.21667, "state": "Lower Saxony"}, {"city": "Woltersdorf", "latitude": 52.45554, "longitude": 13.74986, "state": "Brandenburg"}, {"city": "Wolsdorf", "latitude": 52.19098, "longitude": 10.93878, "state": "Lower Saxony"}, {"city": "W\u00f6lpinghausen", "latitude": 52.41667, "longitude": 9.23333, "state": "Lower Saxony"}, {"city": "Wolpertswende", "latitude": 47.89471, "longitude": 9.61202, "state": "Baden-Wurttemberg"}, {"city": "Wolpertshausen", "latitude": 49.1675, "longitude": 9.84472, "state": "Baden-Wurttemberg"}, {"city": "Wolnzach", "latitude": 48.6038, "longitude": 11.62568, "state": "Bavaria"}, {"city": "Wolmirstedt", "latitude": 52.24856, "longitude": 11.62945, "state": "Saxony-Anhalt"}, {"city": "Wolmirsleben", "latitude": 51.95, "longitude": 11.48333, "state": "Saxony-Anhalt"}, {"city": "W\u00f6llstein", "latitude": 49.81667, "longitude": 7.96667, "state": "Rheinland-Pfalz"}, {"city": "Wollmatingen", "latitude": 47.69226, "longitude": 9.14595, "state": "Baden-Wurttemberg"}, {"city": "Wollbach", "latitude": 50.36667, "longitude": 10.23333, "state": "Bavaria"}, {"city": "Wolkramshausen", "latitude": 51.42185, "longitude": 10.73815, "state": "Thuringia"}, {"city": "Wolkenstein", "latitude": 50.65552, "longitude": 13.07132, "state": "Saxony"}, {"city": "Wolken", "latitude": 50.33333, "longitude": 7.46667, "state": "Rheinland-Pfalz"}, {"city": "Wolgast", "latitude": 54.05275, "longitude": 13.77201, "state": "Mecklenburg-Vorpommern"}, {"city": "Wolfstein", "latitude": 49.58411, "longitude": 7.60496, "state": "Rheinland-Pfalz"}, {"city": "Wolfsegg", "latitude": 49.10731, "longitude": 11.9781, "state": "Bavaria"}, {"city": "Wolfschlugen", "latitude": 48.65, "longitude": 9.28333, "state": "Baden-Wurttemberg"}, {"city": "Wolfsburg", "latitude": 52.42452, "longitude": 10.7815, "state": "Lower Saxony"}, {"city": "Wolfratshausen", "latitude": 47.91289, "longitude": 11.42166, "state": "Bavaria"}, {"city": "Wolframs-Eschenbach", "latitude": 49.22675, "longitude": 10.72769, "state": "Bavaria"}, {"city": "W\u00f6lfis", "latitude": 50.80825, "longitude": 10.77905, "state": "Thuringia"}, {"city": "Wolfhagen", "latitude": 51.32611, "longitude": 9.17015, "state": "Hesse"}, {"city": "Wolfertschwenden", "latitude": 47.8935, "longitude": 10.26715, "state": "Bavaria"}, {"city": "Wolferstadt", "latitude": 48.90352, "longitude": 10.78129, "state": "Bavaria"}, {"city": "W\u00f6lfersheim", "latitude": 50.4, "longitude": 8.81667, "state": "Hesse"}, {"city": "Wolfersdorf", "latitude": 48.47937, "longitude": 11.70949, "state": "Bavaria"}, {"city": "Wolferode", "latitude": 51.5065, "longitude": 11.51299, "state": "Saxony-Anhalt"}, {"city": "Wolfenb\u00fcttel", "latitude": 52.16442, "longitude": 10.54095, "state": "Lower Saxony"}, {"city": "Wolfen", "latitude": 51.66122, "longitude": 12.26873, "state": "Saxony-Anhalt"}, {"city": "Wolfegg", "latitude": 47.8203, "longitude": 9.79491, "state": "Baden-Wurttemberg"}, {"city": "Wolfach", "latitude": 48.29319, "longitude": 8.2158, "state": "Baden-Wurttemberg"}, {"city": "Woldegk", "latitude": 53.46058, "longitude": 13.58356, "state": "Mecklenburg-Vorpommern"}, {"city": "W\u00f6hrden", "latitude": 54.16667, "longitude": 9.0, "state": "Schleswig-Holstein"}, {"city": "Wohnbach", "latitude": 50.42864, "longitude": 8.82923, "state": "Hesse"}, {"city": "Wohltorf", "latitude": 53.51667, "longitude": 10.28333, "state": "Schleswig-Holstein"}, {"city": "Wohldorf-Ohlstedt", "latitude": 53.69282, "longitude": 10.13117, "state": "Hamburg"}, {"city": "Wixhausen", "latitude": 49.93085, "longitude": 8.64972, "state": "Hesse"}, {"city": "Witzmannsberg", "latitude": 48.62224, "longitude": 13.49444, "state": "Bavaria"}, {"city": "Witzhave", "latitude": 53.56667, "longitude": 10.33333, "state": "Schleswig-Holstein"}, {"city": "Witzenhausen", "latitude": 51.34103, "longitude": 9.8554, "state": "Hesse"}, {"city": "Wittstock", "latitude": 53.16118, "longitude": 12.48287, "state": "Brandenburg"}, {"city": "Wittorf", "latitude": 54.05653, "longitude": 9.96701, "state": "Schleswig-Holstein"}, {"city": "Wittorf", "latitude": 53.33333, "longitude": 10.38333, "state": "Lower Saxony"}, {"city": "Wittorf", "latitude": 53.01207, "longitude": 9.51675, "state": "Lower Saxony"}, {"city": "Wittnau", "latitude": 47.95, "longitude": 7.81667, "state": "Baden-Wurttemberg"}, {"city": "Wittmund", "latitude": 53.57674, "longitude": 7.77839, "state": "Lower Saxony"}, {"city": "Wittmar", "latitude": 52.12969, "longitude": 10.64, "state": "Lower Saxony"}, {"city": "Wittlich", "latitude": 49.98596, "longitude": 6.89308, "state": "Rheinland-Pfalz"}, {"city": "Wittislingen", "latitude": 48.61917, "longitude": 10.41722, "state": "Bavaria"}, {"city": "Wittingen", "latitude": 52.72694, "longitude": 10.73613, "state": "Lower Saxony"}, {"city": "Wittichenau", "latitude": 51.38496, "longitude": 14.24403, "state": "Saxony"}, {"city": "Wittgensdorf", "latitude": 50.88316, "longitude": 12.87031, "state": "Saxony"}, {"city": "Witterda", "latitude": 51.03615, "longitude": 10.89028, "state": "Thuringia"}, {"city": "Wittenhagen", "latitude": 54.18379, "longitude": 13.07133, "state": "Mecklenburg-Vorpommern"}, {"city": "Wittenf\u00f6rden", "latitude": 53.62917, "longitude": 11.32982, "state": "Mecklenburg-Vorpommern"}, {"city": "Wittenburg", "latitude": 53.50599, "longitude": 11.08049, "state": "Mecklenburg-Vorpommern"}, {"city": "Wittenberge", "latitude": 53.00543, "longitude": 11.75032, "state": "Brandenburg"}, {"city": "Wittenau", "latitude": 52.59319, "longitude": 13.32127, "state": "Berlin"}, {"city": "Witten", "latitude": 51.44362, "longitude": 7.35258, "state": "North Rhine-Westphalia"}, {"city": "Wittelshofen", "latitude": 49.06121, "longitude": 10.48121, "state": "Bavaria"}, {"city": "Wistedt", "latitude": 53.26667, "longitude": 9.68333, "state": "Lower Saxony"}, {"city": "Wissen", "latitude": 50.77915, "longitude": 7.73466, "state": "Rheinland-Pfalz"}, {"city": "Wismar", "latitude": 53.89314, "longitude": 11.45286, "state": "Mecklenburg-Vorpommern"}, {"city": "Wischhafen", "latitude": 53.78333, "longitude": 9.31667, "state": "Lower Saxony"}, {"city": "Wirsberg", "latitude": 50.10572, "longitude": 11.60515, "state": "Bavaria"}, {"city": "Wirges", "latitude": 50.47195, "longitude": 7.79844, "state": "Rheinland-Pfalz"}, {"city": "Wirdum", "latitude": 53.47667, "longitude": 7.20594, "state": "Lower Saxony"}, {"city": "Wippra", "latitude": 51.573, "longitude": 11.27498, "state": "Saxony-Anhalt"}, {"city": "Wipperf\u00fcrth", "latitude": 51.1161, "longitude": 7.39865, "state": "North Rhine-Westphalia"}, {"city": "Wipperdorf", "latitude": 51.4556, "longitude": 10.64388, "state": "Thuringia"}, {"city": "Wipfeld", "latitude": 49.91667, "longitude": 10.16667, "state": "Bavaria"}, {"city": "Winzer", "latitude": 48.72285, "longitude": 13.07751, "state": "Bavaria"}, {"city": "Wintersdorf", "latitude": 51.0532, "longitude": 12.35445, "state": "Thuringia"}, {"city": "Winterlingen", "latitude": 48.18333, "longitude": 9.11667, "state": "Baden-Wurttemberg"}, {"city": "Winterhude", "latitude": 53.59628, "longitude": 10.01785, "state": "Hamburg"}, {"city": "Winterhausen", "latitude": 49.70683, "longitude": 10.01661, "state": "Bavaria"}, {"city": "Winterberg", "latitude": 51.19248, "longitude": 8.53468, "state": "North Rhine-Westphalia"}, {"city": "Winterbach", "latitude": 48.79918, "longitude": 9.47914, "state": "Baden-Wurttemberg"}, {"city": "Winsen", "latitude": 53.35753, "longitude": 10.21282, "state": "Lower Saxony"}, {"city": "Winsen", "latitude": 52.68301, "longitude": 9.91362, "state": "Lower Saxony"}, {"city": "Winnweiler", "latitude": 49.56667, "longitude": 7.85, "state": "Rheinland-Pfalz"}, {"city": "Winningen", "latitude": 50.31667, "longitude": 7.51667, "state": "Rheinland-Pfalz"}, {"city": "Winnenden", "latitude": 48.87563, "longitude": 9.39819, "state": "Baden-Wurttemberg"}, {"city": "Winklarn", "latitude": 49.42688, "longitude": 12.47986, "state": "Bavaria"}, {"city": "Winkelhaid", "latitude": 49.38963, "longitude": 11.29888, "state": "Bavaria"}, {"city": "Winh\u00f6ring", "latitude": 48.26667, "longitude": 12.65, "state": "Bavaria"}, {"city": "Wingst", "latitude": 53.73572, "longitude": 9.08054, "state": "Lower Saxony"}, {"city": "Wingerode", "latitude": 51.39032, "longitude": 10.23954, "state": "Thuringia"}, {"city": "Windsbach", "latitude": 49.24786, "longitude": 10.82651, "state": "Bavaria"}, {"city": "Windischleuba", "latitude": 51.01556, "longitude": 12.46914, "state": "Thuringia"}, {"city": "Windischeschenbach", "latitude": 49.80108, "longitude": 12.1571, "state": "Bavaria"}, {"city": "Windhausen", "latitude": 51.78544, "longitude": 10.21218, "state": "Lower Saxony"}, {"city": "Windhagen", "latitude": 50.64121, "longitude": 7.35352, "state": "Rheinland-Pfalz"}, {"city": "Windesheim", "latitude": 49.9, "longitude": 7.81667, "state": "Rheinland-Pfalz"}, {"city": "Winden", "latitude": 49.09778, "longitude": 8.11694, "state": "Rheinland-Pfalz"}, {"city": "Windelsbach", "latitude": 49.4, "longitude": 10.3, "state": "Bavaria"}, {"city": "Windeby", "latitude": 54.45971, "longitude": 9.78474, "state": "Schleswig-Holstein"}, {"city": "Windberg", "latitude": 48.94285, "longitude": 12.7462, "state": "Bavaria"}, {"city": "Windach", "latitude": 48.06667, "longitude": 11.03333, "state": "Bavaria"}, {"city": "Wincheringen", "latitude": 49.60904, "longitude": 6.42597, "state": "Rheinland-Pfalz"}, {"city": "Wimsheim", "latitude": 48.85, "longitude": 8.83333, "state": "Baden-Wurttemberg"}, {"city": "Wimmelburg", "latitude": 51.52069, "longitude": 11.50696, "state": "Saxony-Anhalt"}, {"city": "Wiltingen", "latitude": 49.65919, "longitude": 6.59255, "state": "Rheinland-Pfalz"}, {"city": "Wilthen", "latitude": 51.09745, "longitude": 14.3929, "state": "Saxony"}, {"city": "Wilsum", "latitude": 52.53333, "longitude": 6.85, "state": "Lower Saxony"}, {"city": "Wilster", "latitude": 53.92253, "longitude": 9.37465, "state": "Schleswig-Holstein"}, {"city": "Wilstedt", "latitude": 53.19493, "longitude": 9.09595, "state": "Lower Saxony"}, {"city": "Wilsdruff", "latitude": 51.05199, "longitude": 13.53657, "state": "Saxony"}, {"city": "Wilnsdorf", "latitude": 50.81667, "longitude": 8.1, "state": "North Rhine-Westphalia"}, {"city": "Wilmersdorf", "latitude": 52.48333, "longitude": 13.31667, "state": "Berlin"}, {"city": "Willst\u00e4tt", "latitude": 48.54071, "longitude": 7.89314, "state": "Baden-Wurttemberg"}, {"city": "Willmering", "latitude": 49.25, "longitude": 12.66667, "state": "Bavaria"}, {"city": "Willingshausen", "latitude": 50.85, "longitude": 9.2, "state": "Hesse"}, {"city": "Willingen", "latitude": 51.29418, "longitude": 8.6091, "state": "Hesse"}, {"city": "Willich", "latitude": 51.26371, "longitude": 6.54734, "state": "North Rhine-Westphalia"}, {"city": "Willebadessen", "latitude": 51.62564, "longitude": 9.03694, "state": "North Rhine-Westphalia"}, {"city": "Willanzheim", "latitude": 49.68011, "longitude": 10.23248, "state": "Bavaria"}, {"city": "Wilkau-Ha\u00dflau", "latitude": 50.67504, "longitude": 12.51482, "state": "Saxony"}, {"city": "Wilhermsdorf", "latitude": 49.48308, "longitude": 10.71555, "state": "Bavaria"}, {"city": "Wilhelmsthal", "latitude": 50.31113, "longitude": 11.37278, "state": "Bavaria"}, {"city": "Wilhelmstadt", "latitude": 52.52379, "longitude": 13.18916, "state": "Berlin"}, {"city": "Wilhelmsruh", "latitude": 52.5871, "longitude": 13.36855, "state": "Berlin"}, {"city": "Wilhelmshaven", "latitude": 53.52998, "longitude": 8.11253, "state": "Lower Saxony"}, {"city": "Wilhelmsfeld", "latitude": 49.47056, "longitude": 8.75361, "state": "Baden-Wurttemberg"}, {"city": "Wilhelmsdorf", "latitude": 49.56419, "longitude": 10.73716, "state": "Bavaria"}, {"city": "Wilhelmsdorf", "latitude": 47.86612, "longitude": 9.42621, "state": "Baden-Wurttemberg"}, {"city": "Wilhelmsburg", "latitude": 53.49973, "longitude": 10.01281, "state": "Hamburg"}, {"city": "Wilgartswiesen", "latitude": 49.20891, "longitude": 7.87346, "state": "Rheinland-Pfalz"}, {"city": "Wildsteig", "latitude": 47.70145, "longitude": 10.93753, "state": "Bavaria"}, {"city": "Wildpoldsried", "latitude": 47.76667, "longitude": 10.4, "state": "Bavaria"}, {"city": "Wildflecken", "latitude": 50.37764, "longitude": 9.91092, "state": "Bavaria"}, {"city": "Wildeshausen", "latitude": 52.89446, "longitude": 8.43375, "state": "Lower Saxony"}, {"city": "Wildenhain", "latitude": 51.3076, "longitude": 13.47678, "state": "Saxony"}, {"city": "Wildenfels", "latitude": 50.66784, "longitude": 12.60886, "state": "Saxony"}, {"city": "Wildenberg", "latitude": 48.72981, "longitude": 11.89845, "state": "Bavaria"}, {"city": "Wildemann", "latitude": 51.8281, "longitude": 10.28152, "state": "Lower Saxony"}, {"city": "Wildberg", "latitude": 48.62336, "longitude": 8.74518, "state": "Baden-Wurttemberg"}, {"city": "Bad Wildbad", "latitude": 48.75071, "longitude": 8.5504, "state": "Baden-Wurttemberg"}, {"city": "Wilburgstetten", "latitude": 49.02427, "longitude": 10.39505, "state": "Bavaria"}, {"city": "Wiggensbach", "latitude": 47.74781, "longitude": 10.22987, "state": "Bavaria"}, {"city": "Wietzendorf", "latitude": 52.91667, "longitude": 9.98333, "state": "Lower Saxony"}, {"city": "Wietzen", "latitude": 52.71667, "longitude": 9.08333, "state": "Lower Saxony"}, {"city": "Wietze", "latitude": 52.65, "longitude": 9.83333, "state": "Lower Saxony"}, {"city": "Wietmarschen", "latitude": 52.51806, "longitude": 7.13408, "state": "Lower Saxony"}, {"city": "Wiesthal", "latitude": 50.03333, "longitude": 9.43333, "state": "Bavaria"}, {"city": "Wiesmoor", "latitude": 53.41667, "longitude": 7.73333, "state": "Lower Saxony"}, {"city": "Wiesloch", "latitude": 49.29504, "longitude": 8.69846, "state": "Baden-Wurttemberg"}, {"city": "Wiesentheid", "latitude": 49.79451, "longitude": 10.34509, "state": "Bavaria"}, {"city": "Wiesenthau", "latitude": 49.71326, "longitude": 11.13564, "state": "Bavaria"}, {"city": "Wiesent", "latitude": 49.01667, "longitude": 12.38333, "state": "Bavaria"}, {"city": "Wiesensteig", "latitude": 48.56127, "longitude": 9.6254, "state": "Baden-Wurttemberg"}, {"city": "Wiesenfelden", "latitude": 49.04066, "longitude": 12.54008, "state": "Bavaria"}, {"city": "Wiesenburg", "latitude": 52.11456, "longitude": 12.45534, "state": "Brandenburg"}, {"city": "Wiesenbach", "latitude": 49.36139, "longitude": 8.80361, "state": "Baden-Wurttemberg"}, {"city": "Wiesenau", "latitude": 52.23071, "longitude": 14.59107, "state": "Brandenburg"}, {"city": "Wiesen", "latitude": 50.11667, "longitude": 9.36667, "state": "Bavaria"}, {"city": "Wiesbaden", "latitude": 50.08258, "longitude": 8.24932, "state": "Hesse"}, {"city": "Wiesau", "latitude": 49.90817, "longitude": 12.18889, "state": "Bavaria"}, {"city": "Wiesa", "latitude": 50.61114, "longitude": 13.01377, "state": "Saxony"}, {"city": "Wiernsheim", "latitude": 48.88333, "longitude": 8.85, "state": "Baden-Wurttemberg"}, {"city": "Wieren", "latitude": 52.88529, "longitude": 10.65871, "state": "Lower Saxony"}, {"city": "Wienhausen", "latitude": 52.58021, "longitude": 10.18862, "state": "Lower Saxony"}, {"city": "Wiemersdorf", "latitude": 53.95815, "longitude": 9.90297, "state": "Schleswig-Holstein"}, {"city": "Wiek", "latitude": 54.62, "longitude": 13.28914, "state": "Mecklenburg-Vorpommern"}, {"city": "Wiehl", "latitude": 50.9495, "longitude": 7.55062, "state": "North Rhine-Westphalia"}, {"city": "Wiehe", "latitude": 51.26586, "longitude": 11.41282, "state": "Thuringia"}, {"city": "Wiefelstede", "latitude": 53.25, "longitude": 8.11667, "state": "Lower Saxony"}, {"city": "Wiednitz", "latitude": 51.38608, "longitude": 14.02683, "state": "Saxony"}, {"city": "Wiederstedt", "latitude": 51.66526, "longitude": 11.52723, "state": "Saxony-Anhalt"}, {"city": "Wiedergeltingen", "latitude": 48.03946, "longitude": 10.67406, "state": "Bavaria"}, {"city": "Wiedensahl", "latitude": 52.38385, "longitude": 9.12019, "state": "Lower Saxony"}, {"city": "Wiedemar", "latitude": 51.46667, "longitude": 12.2, "state": "Saxony"}, {"city": "Wieda", "latitude": 51.634, "longitude": 10.58704, "state": "Lower Saxony"}, {"city": "Widdern", "latitude": 49.31825, "longitude": 9.42209, "state": "Baden-Wurttemberg"}, {"city": "Wickede", "latitude": 51.4964, "longitude": 7.86587, "state": "North Rhine-Westphalia"}, {"city": "Weyhausen", "latitude": 52.46208, "longitude": 10.71699, "state": "Lower Saxony"}, {"city": "Weyerbusch", "latitude": 50.71667, "longitude": 7.55, "state": "Rheinland-Pfalz"}, {"city": "Weyarn", "latitude": 47.85838, "longitude": 11.79923, "state": "Bavaria"}, {"city": "Wewelsfleth", "latitude": 53.85, "longitude": 9.4, "state": "Schleswig-Holstein"}, {"city": "Wetzlar", "latitude": 50.56109, "longitude": 8.50495, "state": "Hesse"}, {"city": "Wetzendorf", "latitude": 49.47056, "longitude": 11.04148, "state": "Bavaria"}, {"city": "Wettringen", "latitude": 52.20939, "longitude": 7.31895, "state": "North Rhine-Westphalia"}, {"city": "Wettin", "latitude": 51.58604, "longitude": 11.8063, "state": "Saxony-Anhalt"}, {"city": "Wetterzeube", "latitude": 51.0, "longitude": 12.01667, "state": "Saxony-Anhalt"}, {"city": "Wetter", "latitude": 51.38747, "longitude": 7.39277, "state": "North Rhine-Westphalia"}, {"city": "Wetter", "latitude": 50.90254, "longitude": 8.72366, "state": "Hesse"}, {"city": "Wetschen", "latitude": 52.61295, "longitude": 8.44883, "state": "Lower Saxony"}, {"city": "Westhofen", "latitude": 49.70444, "longitude": 8.24806, "state": "Rheinland-Pfalz"}, {"city": "Westheim", "latitude": 49.2464, "longitude": 8.32357, "state": "Rheinland-Pfalz"}, {"city": "Westheim", "latitude": 49.0, "longitude": 10.66667, "state": "Bavaria"}, {"city": "Westhausen", "latitude": 48.88333, "longitude": 10.18333, "state": "Baden-Wurttemberg"}, {"city": "Westerstetten", "latitude": 48.51916, "longitude": 9.95494, "state": "Baden-Wurttemberg"}, {"city": "Westerstede", "latitude": 53.25682, "longitude": 7.92737, "state": "Lower Saxony"}, {"city": "Westerr\u00f6nfeld", "latitude": 54.28333, "longitude": 9.65, "state": "Schleswig-Holstein"}, {"city": "Wester-Ohrstedt", "latitude": 54.50796, "longitude": 9.18574, "state": "Schleswig-Holstein"}, {"city": "Westerland", "latitude": 54.9079, "longitude": 8.30326, "state": "Schleswig-Holstein"}, {"city": "Westerkappeln", "latitude": 52.31667, "longitude": 7.88333, "state": "North Rhine-Westphalia"}, {"city": "Westerhorn", "latitude": 53.85711, "longitude": 9.67959, "state": "Schleswig-Holstein"}, {"city": "Westerholt", "latitude": 53.6, "longitude": 7.45, "state": "Lower Saxony"}, {"city": "Westerheim", "latitude": 48.51511, "longitude": 9.62424, "state": "Baden-Wurttemberg"}, {"city": "Westerheim", "latitude": 48.01667, "longitude": 10.3, "state": "Bavaria"}, {"city": "Westerhausen", "latitude": 51.80566, "longitude": 11.05631, "state": "Saxony-Anhalt"}, {"city": "Westergellersen", "latitude": 53.23333, "longitude": 10.25, "state": "Lower Saxony"}, {"city": "Westeregeln", "latitude": 51.96328, "longitude": 11.39265, "state": "Saxony-Anhalt"}, {"city": "Westerburg", "latitude": 50.55938, "longitude": 7.97482, "state": "Rheinland-Pfalz"}, {"city": "Westensee", "latitude": 54.27452, "longitude": 9.89584, "state": "Schleswig-Holstein"}, {"city": "Westendorf", "latitude": 48.57209, "longitude": 10.84049, "state": "Bavaria"}, {"city": "Westendorf", "latitude": 47.93333, "longitude": 10.71667, "state": "Bavaria"}, {"city": "Westend", "latitude": 52.51708, "longitude": 13.27636, "state": "Berlin"}, {"city": "Weste", "latitude": 53.05943, "longitude": 10.70283, "state": "Lower Saxony"}, {"city": "Wessobrunn", "latitude": 47.87407, "longitude": 11.02461, "state": "Bavaria"}, {"city": "We\u00dfling", "latitude": 48.07452, "longitude": 11.2482, "state": "Bavaria"}, {"city": "Wesseln", "latitude": 54.20985, "longitude": 9.07644, "state": "Schleswig-Holstein"}, {"city": "Wesseling", "latitude": 50.82709, "longitude": 6.9747, "state": "North Rhine-Westphalia"}, {"city": "Wesselburen", "latitude": 54.21217, "longitude": 8.92419, "state": "Schleswig-Holstein"}, {"city": "Wesendorf", "latitude": 52.6, "longitude": 10.53333, "state": "Lower Saxony"}, {"city": "Wesenberg", "latitude": 53.2803, "longitude": 12.96936, "state": "Mecklenburg-Vorpommern"}, {"city": "Weselberg", "latitude": 49.33662, "longitude": 7.6078, "state": "Rheinland-Pfalz"}, {"city": "Wesel", "latitude": 51.6669, "longitude": 6.62037, "state": "North Rhine-Westphalia"}, {"city": "Wertingen", "latitude": 48.56314, "longitude": 10.68149, "state": "Bavaria"}, {"city": "Werther", "latitude": 52.07771, "longitude": 8.41793, "state": "North Rhine-Westphalia"}, {"city": "Wertheim", "latitude": 49.759, "longitude": 9.50852, "state": "Baden-Wurttemberg"}, {"city": "Wertach", "latitude": 47.60301, "longitude": 10.40966, "state": "Bavaria"}, {"city": "Wersten", "latitude": 51.18459, "longitude": 6.81249, "state": "North Rhine-Westphalia"}, {"city": "Werpeloh", "latitude": 52.87207, "longitude": 7.50831, "state": "Lower Saxony"}, {"city": "Wernshausen", "latitude": 50.72404, "longitude": 10.35086, "state": "Thuringia"}, {"city": "Wernigerode", "latitude": 51.83652, "longitude": 10.78216, "state": "Saxony-Anhalt"}, {"city": "Werneuchen", "latitude": 52.63275, "longitude": 13.73437, "state": "Brandenburg"}, {"city": "Wernersberg", "latitude": 49.19062, "longitude": 7.92756, "state": "Rheinland-Pfalz"}, {"city": "Werneck", "latitude": 49.98201, "longitude": 10.09884, "state": "Bavaria"}, {"city": "Werne", "latitude": 51.66446, "longitude": 7.63421, "state": "North Rhine-Westphalia"}, {"city": "Wernberg-K\u00f6blitz", "latitude": 49.53931, "longitude": 12.1613, "state": "Bavaria"}, {"city": "Wernau", "latitude": 48.69306, "longitude": 9.41533, "state": "Baden-Wurttemberg"}, {"city": "Wermsdorf", "latitude": 51.28333, "longitude": 12.95, "state": "Saxony"}, {"city": "Wermelskirchen", "latitude": 51.1397, "longitude": 7.21583, "state": "North Rhine-Westphalia"}, {"city": "Werlte", "latitude": 52.85, "longitude": 7.68333, "state": "Lower Saxony"}, {"city": "Werl", "latitude": 51.55493, "longitude": 7.91403, "state": "North Rhine-Westphalia"}, {"city": "Werftpfuhl", "latitude": 52.66014, "longitude": 13.79351, "state": "Brandenburg"}, {"city": "Werdohl", "latitude": 51.26011, "longitude": 7.76608, "state": "North Rhine-Westphalia"}, {"city": "Werder", "latitude": 52.37874, "longitude": 12.934, "state": "Brandenburg"}, {"city": "Werdau", "latitude": 50.73604, "longitude": 12.37534, "state": "Saxony"}, {"city": "Werda", "latitude": 50.43811, "longitude": 12.30473, "state": "Saxony"}, {"city": "Werben", "latitude": 51.81667, "longitude": 14.18333, "state": "Brandenburg"}, {"city": "Werbach", "latitude": 49.67083, "longitude": 9.63944, "state": "Baden-Wurttemberg"}, {"city": "Wenzendorf", "latitude": 53.34948, "longitude": 9.77234, "state": "Lower Saxony"}, {"city": "Wenzenbach", "latitude": 49.07561, "longitude": 12.19954, "state": "Bavaria"}, {"city": "Wentorf bei Hamburg", "latitude": 53.5, "longitude": 10.25, "state": "Schleswig-Holstein"}, {"city": "Wennigsen", "latitude": 52.27404, "longitude": 9.57287, "state": "Lower Saxony"}, {"city": "Weng", "latitude": 48.65866, "longitude": 12.36927, "state": "Bavaria"}, {"city": "Wendtorf", "latitude": 54.41212, "longitude": 10.28952, "state": "Schleswig-Holstein"}, {"city": "Wendorf", "latitude": 54.2554, "longitude": 13.07682, "state": "Mecklenburg-Vorpommern"}, {"city": "Wendlingen am Neckar", "latitude": 48.67124, "longitude": 9.37632, "state": "Baden-Wurttemberg"}, {"city": "Wendisch Rietz", "latitude": 52.21613, "longitude": 14.00845, "state": "Brandenburg"}, {"city": "Wendisch Evern", "latitude": 53.21667, "longitude": 10.46667, "state": "Lower Saxony"}, {"city": "Wenden", "latitude": 52.32401, "longitude": 10.51392, "state": "Lower Saxony"}, {"city": "Wenden", "latitude": 50.96667, "longitude": 7.86667, "state": "North Rhine-Westphalia"}, {"city": "Wendelstein", "latitude": 49.3523, "longitude": 11.15069, "state": "Bavaria"}, {"city": "Wendelsheim", "latitude": 49.76667, "longitude": 8.0, "state": "Rheinland-Pfalz"}, {"city": "Wendeburg", "latitude": 52.32957, "longitude": 10.39255, "state": "Lower Saxony"}, {"city": "Wemding", "latitude": 48.87461, "longitude": 10.72452, "state": "Bavaria"}, {"city": "Welzow", "latitude": 51.58381, "longitude": 14.17082, "state": "Brandenburg"}, {"city": "Welzheim", "latitude": 48.87675, "longitude": 9.63434, "state": "Baden-Wurttemberg"}, {"city": "Welver", "latitude": 51.61667, "longitude": 7.96667, "state": "North Rhine-Westphalia"}, {"city": "Welsleben", "latitude": 52.00304, "longitude": 11.63851, "state": "Saxony-Anhalt"}, {"city": "Welschbillig", "latitude": 49.85, "longitude": 6.56667, "state": "Rheinland-Pfalz"}, {"city": "Wellingsb\u00fcttel", "latitude": 53.64104, "longitude": 10.0798, "state": "Hamburg"}, {"city": "Wellendingen", "latitude": 48.14745, "longitude": 8.70375, "state": "Baden-Wurttemberg"}, {"city": "Wellen", "latitude": 52.14518, "longitude": 11.44106, "state": "Saxony-Anhalt"}, {"city": "Welle", "latitude": 53.23985, "longitude": 9.80178, "state": "Lower Saxony"}, {"city": "Welden", "latitude": 48.45505, "longitude": 10.66086, "state": "Bavaria"}, {"city": "Weitramsdorf", "latitude": 50.256, "longitude": 10.87989, "state": "Bavaria"}, {"city": "Weitnau", "latitude": 47.64171, "longitude": 10.12732, "state": "Bavaria"}, {"city": "Weiterstadt", "latitude": 49.9039, "longitude": 8.58874, "state": "Hesse"}, {"city": "Weitersburg", "latitude": 50.41667, "longitude": 7.6, "state": "Rheinland-Pfalz"}, {"city": "Weitenhagen", "latitude": 54.05372, "longitude": 13.40998, "state": "Mecklenburg-Vorpommern"}, {"city": "Weiten", "latitude": 49.53011, "longitude": 6.54064, "state": "Saarland"}, {"city": "Weitefeld", "latitude": 50.72541, "longitude": 7.92805, "state": "Rheinland-Pfalz"}, {"city": "Weisweil", "latitude": 48.19939, "longitude": 7.67713, "state": "Baden-Wurttemberg"}, {"city": "Wei\u00dfwasser", "latitude": 51.50403, "longitude": 14.64017, "state": "Saxony"}, {"city": "Wei\u00dfkei\u00dfel", "latitude": 51.49405, "longitude": 14.71515, "state": "Saxony"}, {"city": "Wei\u00dfig", "latitude": 51.29192, "longitude": 13.44117, "state": "Saxony"}, {"city": "Wei\u00dfenthurm", "latitude": 50.41719, "longitude": 7.45072, "state": "Rheinland-Pfalz"}, {"city": "Wei\u00dfenstadt", "latitude": 50.10217, "longitude": 11.88849, "state": "Bavaria"}, {"city": "Wei\u00dfensee", "latitude": 51.19989, "longitude": 11.06914, "state": "Thuringia"}, {"city": "Wei\u00dfensberg", "latitude": 47.5813, "longitude": 9.72586, "state": "Bavaria"}, {"city": "Wei\u00dfenohe", "latitude": 49.63089, "longitude": 11.25369, "state": "Bavaria"}, {"city": "Wei\u00dfenhorn", "latitude": 48.30501, "longitude": 10.16047, "state": "Bavaria"}, {"city": "Wei\u00dfenfels", "latitude": 51.20148, "longitude": 11.96843, "state": "Saxony-Anhalt"}, {"city": "Wei\u00dfenburg in Bayern", "latitude": 49.03095, "longitude": 10.97221, "state": "Bavaria"}, {"city": "Wei\u00dfenbrunn", "latitude": 50.2, "longitude": 11.35, "state": "Bavaria"}, {"city": "Wei\u00dfenborn-L\u00fcderode", "latitude": 51.5319, "longitude": 10.41889, "state": "Thuringia"}, {"city": "Wei\u00dfenborn", "latitude": 50.92393, "longitude": 11.87947, "state": "Thuringia"}, {"city": "Wei\u00dfenborn", "latitude": 50.73952, "longitude": 12.47051, "state": "Saxony"}, {"city": "Wei\u00dfenberg", "latitude": 51.19644, "longitude": 14.65874, "state": "Saxony"}, {"city": "Wei\u00dfdorf", "latitude": 50.18333, "longitude": 11.85, "state": "Bavaria"}, {"city": "Wei\u00dfbach", "latitude": 49.29717, "longitude": 9.59531, "state": "Baden-Wurttemberg"}, {"city": "Wei\u00dfandt-G\u00f6lzau", "latitude": 51.6707, "longitude": 12.07338, "state": "Saxony-Anhalt"}, {"city": "Weissach", "latitude": 48.84687, "longitude": 8.92828, "state": "Baden-Wurttemberg"}, {"city": "Weismain", "latitude": 50.08512, "longitude": 11.24024, "state": "Bavaria"}, {"city": "Weiskirchen", "latitude": 49.55, "longitude": 6.81667, "state": "Saarland"}, {"city": "Weisendorf", "latitude": 49.62283, "longitude": 10.82531, "state": "Bavaria"}, {"city": "Weisenbach", "latitude": 48.72757, "longitude": 8.35378, "state": "Baden-Wurttemberg"}, {"city": "Weisen", "latitude": 53.02518, "longitude": 11.7871, "state": "Brandenburg"}, {"city": "Weisel", "latitude": 50.11667, "longitude": 7.8, "state": "Rheinland-Pfalz"}, {"city": "Weischlitz", "latitude": 50.45, "longitude": 12.06667, "state": "Saxony"}, {"city": "Weinstadt-Endersbach", "latitude": 48.81311, "longitude": 9.36387, "state": "Baden-Wurttemberg"}, {"city": "Weinsheim", "latitude": 50.23333, "longitude": 6.46667, "state": "Rheinland-Pfalz"}, {"city": "Weinsheim", "latitude": 49.83333, "longitude": 7.76667, "state": "Rheinland-Pfalz"}, {"city": "Weinsberg", "latitude": 49.15127, "longitude": 9.28762, "state": "Baden-Wurttemberg"}, {"city": "Weinheim", "latitude": 49.54887, "longitude": 8.66697, "state": "Baden-Wurttemberg"}, {"city": "Weingarten", "latitude": 49.25946, "longitude": 8.2862, "state": "Rheinland-Pfalz"}, {"city": "Weingarten", "latitude": 49.05457, "longitude": 8.52678, "state": "Baden-Wurttemberg"}, {"city": "Weingarten", "latitude": 47.81009, "longitude": 9.63863, "state": "Baden-Wurttemberg"}, {"city": "Weinb\u00f6hla", "latitude": 51.16667, "longitude": 13.56667, "state": "Saxony"}, {"city": "Weinbach", "latitude": 50.43843, "longitude": 8.29133, "state": "Hesse"}, {"city": "Weimar", "latitude": 50.9803, "longitude": 11.32903, "state": "Thuringia"}, {"city": "Weiltingen", "latitude": 49.03878, "longitude": 10.45052, "state": "Bavaria"}, {"city": "Weilm\u00fcnster", "latitude": 50.43143, "longitude": 8.37673, "state": "Hesse"}, {"city": "Weil im Sch\u00f6nbuch", "latitude": 48.6227, "longitude": 9.06355, "state": "Baden-Wurttemberg"}, {"city": "Weilheim an der Teck", "latitude": 48.61572, "longitude": 9.53751, "state": "Baden-Wurttemberg"}, {"city": "Weilheim", "latitude": 47.84147, "longitude": 11.15484, "state": "Bavaria"}, {"city": "Weilheim", "latitude": 47.66667, "longitude": 8.23333, "state": "Baden-Wurttemberg"}, {"city": "Weilerswist", "latitude": 50.75292, "longitude": 6.84585, "state": "North Rhine-Westphalia"}, {"city": "Weilerbach", "latitude": 49.48333, "longitude": 7.63333, "state": "Rheinland-Pfalz"}, {"city": "Weiler", "latitude": 49.95696, "longitude": 7.86484, "state": "Rheinland-Pfalz"}, {"city": "Weil der Stadt", "latitude": 48.74953, "longitude": 8.87176, "state": "Baden-Wurttemberg"}, {"city": "Weilburg", "latitude": 50.48438, "longitude": 8.26249, "state": "Hesse"}, {"city": "Weilbach", "latitude": 49.66812, "longitude": 9.21639, "state": "Bavaria"}, {"city": "Weil am Rhein", "latitude": 47.59331, "longitude": 7.62082, "state": "Baden-Wurttemberg"}, {"city": "Weil", "latitude": 48.11717, "longitude": 10.92161, "state": "Bavaria"}, {"city": "Weikersheim", "latitude": 49.47866, "longitude": 9.89977, "state": "Baden-Wurttemberg"}, {"city": "Weihmichl", "latitude": 48.6, "longitude": 12.05, "state": "Bavaria"}, {"city": "Weiherhammer", "latitude": 49.63333, "longitude": 12.06667, "state": "Bavaria"}, {"city": "Weihenzell", "latitude": 49.35, "longitude": 10.61667, "state": "Bavaria"}, {"city": "Weigendorf", "latitude": 49.49773, "longitude": 11.56869, "state": "Bavaria"}, {"city": "Weiding", "latitude": 49.26282, "longitude": 12.76311, "state": "Bavaria"}, {"city": "Weidhausen bei Coburg", "latitude": 50.20354, "longitude": 11.14006, "state": "Bavaria"}, {"city": "Weidenthal", "latitude": 49.41667, "longitude": 8.0, "state": "Rheinland-Pfalz"}, {"city": "Weidenstetten", "latitude": 48.5525, "longitude": 9.9961, "state": "Baden-Wurttemberg"}, {"city": "Weidenbach", "latitude": 49.19817, "longitude": 10.64489, "state": "Bavaria"}, {"city": "Weiden", "latitude": 49.67682, "longitude": 12.15613, "state": "Bavaria"}, {"city": "Weida", "latitude": 50.77449, "longitude": 12.06028, "state": "Thuringia"}, {"city": "Weichs", "latitude": 48.38333, "longitude": 11.41667, "state": "Bavaria"}, {"city": "Weichering", "latitude": 48.71713, "longitude": 11.32141, "state": "Bavaria"}, {"city": "Weibersbrunn", "latitude": 49.93083, "longitude": 9.36611, "state": "Bavaria"}, {"city": "Weibern", "latitude": 50.40808, "longitude": 7.14669, "state": "Rheinland-Pfalz"}, {"city": "Wei\u00dfensee", "latitude": 52.55632, "longitude": 13.46649, "state": "Berlin"}, {"city": "Wehringen", "latitude": 48.25, "longitude": 10.8, "state": "Bavaria"}, {"city": "Wehrheim", "latitude": 50.3, "longitude": 8.56667, "state": "Hesse"}, {"city": "Wehrda", "latitude": 50.83814, "longitude": 8.7556, "state": "Hesse"}, {"city": "Wehr", "latitude": 50.41667, "longitude": 7.21667, "state": "Rheinland-Pfalz"}, {"city": "Wehr", "latitude": 47.62983, "longitude": 7.90423, "state": "Baden-Wurttemberg"}, {"city": "Wehingen", "latitude": 48.14533, "longitude": 8.79151, "state": "Baden-Wurttemberg"}, {"city": "Wegscheid", "latitude": 48.60136, "longitude": 13.78733, "state": "Bavaria"}, {"city": "Wegeleben", "latitude": 51.88376, "longitude": 11.17347, "state": "Saxony-Anhalt"}, {"city": "Wegberg", "latitude": 51.14221, "longitude": 6.28436, "state": "North Rhine-Westphalia"}, {"city": "Weferlingen", "latitude": 52.31205, "longitude": 11.05791, "state": "Saxony-Anhalt"}, {"city": "Wefensleben", "latitude": 52.18319, "longitude": 11.16074, "state": "Saxony-Anhalt"}, {"city": "Weeze", "latitude": 51.62678, "longitude": 6.19792, "state": "North Rhine-Westphalia"}, {"city": "Wees", "latitude": 54.80621, "longitude": 9.51695, "state": "Schleswig-Holstein"}, {"city": "Weener", "latitude": 53.16332, "longitude": 7.35052, "state": "Lower Saxony"}, {"city": "Wedel", "latitude": 53.58374, "longitude": 9.69835, "state": "Schleswig-Holstein"}, {"city": "Weddingstedt", "latitude": 54.23428, "longitude": 9.09103, "state": "Schleswig-Holstein"}, {"city": "Wedding", "latitude": 52.54734, "longitude": 13.35594, "state": "Berlin"}, {"city": "Weddersleben", "latitude": 51.76533, "longitude": 11.08531, "state": "Saxony-Anhalt"}, {"city": "Weddelbrook", "latitude": 53.9, "longitude": 9.83333, "state": "Schleswig-Holstein"}, {"city": "Wechselburg", "latitude": 51.00214, "longitude": 12.77661, "state": "Saxony"}, {"city": "Wechingen", "latitude": 48.89229, "longitude": 10.61331, "state": "Bavaria"}, {"city": "Waxweiler", "latitude": 50.09257, "longitude": 6.36299, "state": "Rheinland-Pfalz"}, {"city": "Wattmannshagen", "latitude": 53.7759, "longitude": 12.40701, "state": "Mecklenburg-Vorpommern"}, {"city": "Wattenheim", "latitude": 49.52167, "longitude": 8.06167, "state": "Rheinland-Pfalz"}, {"city": "Wattenbek", "latitude": 54.16667, "longitude": 10.05, "state": "Schleswig-Holstein"}, {"city": "Wathlingen", "latitude": 52.5369, "longitude": 10.15069, "state": "Lower Saxony"}, {"city": "Watenb\u00fcttel", "latitude": 52.30596, "longitude": 10.46551, "state": "Lower Saxony"}, {"city": "Wasungen", "latitude": 50.6619, "longitude": 10.36947, "state": "Thuringia"}, {"city": "Wassertr\u00fcdingen", "latitude": 49.04328, "longitude": 10.59906, "state": "Bavaria"}, {"city": "Wasserlosen", "latitude": 50.09476, "longitude": 10.03017, "state": "Bavaria"}, {"city": "Wasserliesch", "latitude": 49.70739, "longitude": 6.53944, "state": "Rheinland-Pfalz"}, {"city": "Wasserleben", "latitude": 51.92089, "longitude": 10.7567, "state": "Saxony-Anhalt"}, {"city": "Wasserburg am Inn", "latitude": 48.0525, "longitude": 12.22341, "state": "Bavaria"}, {"city": "Wasserburg", "latitude": 48.44105, "longitude": 10.2693, "state": "Bavaria"}, {"city": "Wassenberg", "latitude": 51.10009, "longitude": 6.15484, "state": "North Rhine-Westphalia"}, {"city": "Wassenach", "latitude": 50.43333, "longitude": 7.28333, "state": "Rheinland-Pfalz"}, {"city": "W\u00e4schenbeuren", "latitude": 48.75991, "longitude": 9.68735, "state": "Baden-Wurttemberg"}, {"city": "Wasb\u00fcttel", "latitude": 52.41331, "longitude": 10.59357, "state": "Lower Saxony"}, {"city": "Wasbek", "latitude": 54.07427, "longitude": 9.89738, "state": "Schleswig-Holstein"}, {"city": "Wartmannsroth", "latitude": 50.16667, "longitude": 9.78333, "state": "Bavaria"}, {"city": "Warthausen", "latitude": 48.12863, "longitude": 9.79749, "state": "Baden-Wurttemberg"}, {"city": "Wartenberg", "latitude": 52.5752, "longitude": 13.51559, "state": "Berlin"}, {"city": "Wartenberg", "latitude": 48.40597, "longitude": 11.98865, "state": "Bavaria"}, {"city": "Warstein", "latitude": 51.44488, "longitude": 8.34851, "state": "North Rhine-Westphalia"}, {"city": "Warnow", "latitude": 53.7858, "longitude": 11.88106, "state": "Mecklenburg-Vorpommern"}, {"city": "Warngau", "latitude": 47.83217, "longitude": 11.72173, "state": "Bavaria"}, {"city": "Warnem\u00fcnde", "latitude": 54.1767, "longitude": 12.08402, "state": "Mecklenburg-Vorpommern"}, {"city": "Warmsen", "latitude": 52.45695, "longitude": 8.84949, "state": "Lower Saxony"}, {"city": "Warmensteinach", "latitude": 49.99348, "longitude": 11.77866, "state": "Bavaria"}, {"city": "Warin", "latitude": 53.80026, "longitude": 11.70504, "state": "Mecklenburg-Vorpommern"}, {"city": "Warendorf", "latitude": 51.95109, "longitude": 7.98756, "state": "North Rhine-Westphalia"}, {"city": "Waren", "latitude": 53.5204, "longitude": 12.67985, "state": "Mecklenburg-Vorpommern"}, {"city": "Wardow", "latitude": 53.93054, "longitude": 12.40818, "state": "Mecklenburg-Vorpommern"}, {"city": "Wardenburg", "latitude": 53.06667, "longitude": 8.2, "state": "Lower Saxony"}, {"city": "Warburg", "latitude": 51.49011, "longitude": 9.14641, "state": "North Rhine-Westphalia"}, {"city": "Wanzleben", "latitude": 52.06087, "longitude": 11.4408, "state": "Saxony-Anhalt"}, {"city": "Wansleben", "latitude": 51.46034, "longitude": 11.75135, "state": "Saxony-Anhalt"}, {"city": "Wannweil", "latitude": 48.51667, "longitude": 9.15, "state": "Baden-Wurttemberg"}, {"city": "Wannsee", "latitude": 52.41915, "longitude": 13.15531, "state": "Berlin"}, {"city": "Wanna", "latitude": 53.74163, "longitude": 8.80828, "state": "Lower Saxony"}, {"city": "Wankendorf", "latitude": 54.11224, "longitude": 10.20546, "state": "Schleswig-Holstein"}, {"city": "Wangerooge", "latitude": 53.79002, "longitude": 7.89938, "state": "Lower Saxony"}, {"city": "Wangen", "latitude": 47.6895, "longitude": 9.83247, "state": "Baden-Wurttemberg"}, {"city": "Wangen", "latitude": 48.72933, "longitude": 9.61175, "state": "Baden-Wurttemberg"}, {"city": "Wangels", "latitude": 54.26667, "longitude": 10.76667, "state": "Schleswig-Holstein"}, {"city": "Wang", "latitude": 48.49549, "longitude": 11.93641, "state": "Bavaria"}, {"city": "Wanfried", "latitude": 51.18207, "longitude": 10.17283, "state": "Hesse"}, {"city": "Wandlitz", "latitude": 52.74196, "longitude": 13.45799, "state": "Brandenburg"}, {"city": "Wanderup", "latitude": 54.68333, "longitude": 9.33333, "state": "Schleswig-Holstein"}, {"city": "Wandersleben", "latitude": 50.89946, "longitude": 10.84959, "state": "Thuringia"}, {"city": "Waltrop", "latitude": 51.62125, "longitude": 7.40238, "state": "North Rhine-Westphalia"}, {"city": "Waltershausen", "latitude": 50.89827, "longitude": 10.55791, "state": "Thuringia"}, {"city": "Waltenhofen", "latitude": 47.67319, "longitude": 10.30703, "state": "Bavaria"}, {"city": "Walsrode", "latitude": 52.86147, "longitude": 9.5926, "state": "Lower Saxony"}, {"city": "Walsdorf", "latitude": 49.86667, "longitude": 10.78333, "state": "Bavaria"}, {"city": "Walschleben", "latitude": 51.06667, "longitude": 10.93333, "state": "Thuringia"}, {"city": "Walpertskirchen", "latitude": 48.2584, "longitude": 11.97527, "state": "Bavaria"}, {"city": "Wallwitz", "latitude": 51.58029, "longitude": 11.92888, "state": "Saxony-Anhalt"}, {"city": "Wallmerod", "latitude": 50.48333, "longitude": 7.95, "state": "Rheinland-Pfalz"}, {"city": "Wallmenroth", "latitude": 50.8, "longitude": 7.83333, "state": "Rheinland-Pfalz"}, {"city": "Wallhausen", "latitude": 51.46117, "longitude": 11.2076, "state": "Saxony-Anhalt"}, {"city": "Wallhausen", "latitude": 49.88333, "longitude": 7.76667, "state": "Rheinland-Pfalz"}, {"city": "Wallhausen", "latitude": 49.21042, "longitude": 10.06219, "state": "Baden-Wurttemberg"}, {"city": "Wallhausen", "latitude": 47.74775, "longitude": 9.13367, "state": "Baden-Wurttemberg"}, {"city": "Wallgau", "latitude": 47.51667, "longitude": 11.28333, "state": "Bavaria"}, {"city": "Wallertheim", "latitude": 49.83556, "longitude": 8.05139, "state": "Rheinland-Pfalz"}, {"city": "Wallerstein", "latitude": 48.88741, "longitude": 10.47591, "state": "Bavaria"}, {"city": "Wallersdorf", "latitude": 48.73767, "longitude": 12.74744, "state": "Bavaria"}, {"city": "Wallerfing", "latitude": 48.68416, "longitude": 12.88035, "state": "Bavaria"}, {"city": "Wallerfangen", "latitude": 49.32749, "longitude": 6.71102, "state": "Saarland"}, {"city": "Wallenhorst", "latitude": 52.35, "longitude": 8.01667, "state": "Lower Saxony"}, {"city": "Wallenfels", "latitude": 50.2685, "longitude": 11.47058, "state": "Bavaria"}, {"city": "Wallendorf", "latitude": 51.35983, "longitude": 12.07537, "state": "Saxony-Anhalt"}, {"city": "Walld\u00fcrn", "latitude": 49.58358, "longitude": 9.36642, "state": "Baden-Wurttemberg"}, {"city": "Walldorf", "latitude": 50.61667, "longitude": 10.38333, "state": "Thuringia"}, {"city": "Walldorf", "latitude": 49.30637, "longitude": 8.64236, "state": "Baden-Wurttemberg"}, {"city": "Walkertshofen", "latitude": 48.22613, "longitude": 10.58836, "state": "Bavaria"}, {"city": "Walkenried", "latitude": 51.58333, "longitude": 10.61667, "state": "Lower Saxony"}, {"city": "Walheim", "latitude": 49.01417, "longitude": 9.15111, "state": "Baden-Wurttemberg"}, {"city": "Waldthurn", "latitude": 49.67221, "longitude": 12.32919, "state": "Bavaria"}, {"city": "Waldstetten", "latitude": 48.76615, "longitude": 9.82135, "state": "Baden-Wurttemberg"}, {"city": "Waldstetten", "latitude": 48.34815, "longitude": 10.29385, "state": "Bavaria"}, {"city": "Waldsieversdorf", "latitude": 52.54221, "longitude": 14.07022, "state": "Brandenburg"}, {"city": "Waldshut-Tiengen", "latitude": 47.62323, "longitude": 8.21717, "state": "Baden-Wurttemberg"}, {"city": "Waldsee", "latitude": 49.39528, "longitude": 8.44028, "state": "Rheinland-Pfalz"}, {"city": "Waldsassen", "latitude": 50.00167, "longitude": 12.30434, "state": "Bavaria"}, {"city": "Waldrach", "latitude": 49.74623, "longitude": 6.74543, "state": "Rheinland-Pfalz"}, {"city": "Waldm\u00fcnchen", "latitude": 49.37804, "longitude": 12.70905, "state": "Bavaria"}, {"city": "Waldmohr", "latitude": 49.38333, "longitude": 7.33333, "state": "Rheinland-Pfalz"}, {"city": "Wald-Michelbach", "latitude": 49.57, "longitude": 8.83167, "state": "Hesse"}, {"city": "Waldkraiburg", "latitude": 48.20854, "longitude": 12.39893, "state": "Bavaria"}, {"city": "Waldkirchen", "latitude": 50.59667, "longitude": 12.37994, "state": "Saxony"}, {"city": "Waldkirchen", "latitude": 48.7327, "longitude": 13.60082, "state": "Bavaria"}, {"city": "Waldkirch", "latitude": 48.09585, "longitude": 7.96371, "state": "Baden-Wurttemberg"}, {"city": "Waldkappel", "latitude": 51.14462, "longitude": 9.87695, "state": "Hesse"}, {"city": "Waldheim", "latitude": 51.07282, "longitude": 13.02004, "state": "Saxony"}, {"city": "Waldfischbach-Burgalben", "latitude": 49.28333, "longitude": 7.66667, "state": "Rheinland-Pfalz"}, {"city": "Waldfeucht", "latitude": 51.0661, "longitude": 5.98815, "state": "North Rhine-Westphalia"}, {"city": "Waldershof", "latitude": 49.98144, "longitude": 12.06291, "state": "Bavaria"}, {"city": "Walderbach", "latitude": 49.18333, "longitude": 12.38333, "state": "Bavaria"}, {"city": "Waldenburg", "latitude": 50.87653, "longitude": 12.59919, "state": "Saxony"}, {"city": "Waldenburg", "latitude": 49.18468, "longitude": 9.63994, "state": "Baden-Wurttemberg"}, {"city": "Waldenbuch", "latitude": 48.6383, "longitude": 9.13256, "state": "Baden-Wurttemberg"}, {"city": "Waldeck", "latitude": 51.20618, "longitude": 9.06286, "state": "Hesse"}, {"city": "Waldb\u00fcttelbrunn", "latitude": 49.78833, "longitude": 9.84667, "state": "Bavaria"}, {"city": "Waldburg", "latitude": 47.74778, "longitude": 9.7219, "state": "Baden-Wurttemberg"}, {"city": "Waldbrunn", "latitude": 49.75861, "longitude": 9.80361, "state": "Bavaria"}, {"city": "Waldbr\u00f6l", "latitude": 50.87576, "longitude": 7.61688, "state": "North Rhine-Westphalia"}, {"city": "Waldbreitbach", "latitude": 50.55, "longitude": 7.41667, "state": "Rheinland-Pfalz"}, {"city": "Waldb\u00f6ckelheim", "latitude": 49.81667, "longitude": 7.71667, "state": "Rheinland-Pfalz"}, {"city": "Waldaschaff", "latitude": 49.97528, "longitude": 9.30194, "state": "Bavaria"}, {"city": "Waldalgesheim", "latitude": 49.95, "longitude": 7.83333, "state": "Rheinland-Pfalz"}, {"city": "Wald", "latitude": 49.15, "longitude": 12.35, "state": "Bavaria"}, {"city": "Wald", "latitude": 47.97223, "longitude": 10.30054, "state": "Bavaria"}, {"city": "Wald", "latitude": 47.93333, "longitude": 9.16667, "state": "Baden-Wurttemberg"}, {"city": "Walchum", "latitude": 52.92717, "longitude": 7.28325, "state": "Lower Saxony"}, {"city": "Waischenfeld", "latitude": 49.84645, "longitude": 11.3481, "state": "Bavaria"}, {"city": "Wain", "latitude": 48.18904, "longitude": 10.0209, "state": "Baden-Wurttemberg"}, {"city": "Waigolshausen", "latitude": 49.9643, "longitude": 10.12001, "state": "Bavaria"}, {"city": "Waidhofen", "latitude": 48.57681, "longitude": 11.33537, "state": "Bavaria"}, {"city": "Waidhaus", "latitude": 49.64218, "longitude": 12.49523, "state": "Bavaria"}, {"city": "Waibstadt", "latitude": 49.29505, "longitude": 8.91771, "state": "Baden-Wurttemberg"}, {"city": "Waiblingen", "latitude": 48.83241, "longitude": 9.31641, "state": "Baden-Wurttemberg"}, {"city": "Wahrenholz", "latitude": 52.61667, "longitude": 10.6, "state": "Lower Saxony"}, {"city": "Wahn-Heide", "latitude": 50.85891, "longitude": 7.10662, "state": "North Rhine-Westphalia"}, {"city": "Wahlstedt", "latitude": 53.95161, "longitude": 10.20626, "state": "Schleswig-Holstein"}, {"city": "Wahlitz", "latitude": 52.10376, "longitude": 11.77947, "state": "Saxony-Anhalt"}, {"city": "Waging am See", "latitude": 47.93414, "longitude": 12.73392, "state": "Bavaria"}, {"city": "Wagh\u00e4usel", "latitude": 49.24991, "longitude": 8.51257, "state": "Baden-Wurttemberg"}, {"city": "Waggum", "latitude": 52.32632, "longitude": 10.55803, "state": "Lower Saxony"}, {"city": "Wagenhoff", "latitude": 52.55233, "longitude": 10.52337, "state": "Lower Saxony"}, {"city": "Wagenfeld", "latitude": 52.55, "longitude": 8.58333, "state": "Lower Saxony"}, {"city": "Waffenbrunn", "latitude": 49.26667, "longitude": 12.66667, "state": "Bavaria"}, {"city": "Wadgassen", "latitude": 49.26667, "longitude": 6.78333, "state": "Saarland"}, {"city": "Wadersloh", "latitude": 51.73333, "longitude": 8.25, "state": "North Rhine-Westphalia"}, {"city": "Wadern", "latitude": 49.54122, "longitude": 6.88774, "state": "Saarland"}, {"city": "Wackersdorf", "latitude": 49.31667, "longitude": 12.18333, "state": "Bavaria"}, {"city": "Wackersberg", "latitude": 47.73333, "longitude": 11.55, "state": "Bavaria"}, {"city": "Wackerow", "latitude": 53.67683, "longitude": 12.98164, "state": "Mecklenburg-Vorpommern"}, {"city": "Wackernheim", "latitude": 49.97444, "longitude": 8.11667, "state": "Rheinland-Pfalz"}, {"city": "Wacken", "latitude": 54.02078, "longitude": 9.37597, "state": "Schleswig-Holstein"}, {"city": "W\u00e4chtersbach", "latitude": 50.25511, "longitude": 9.29564, "state": "Hesse"}, {"city": "Wachtendonk", "latitude": 51.40916, "longitude": 6.33894, "state": "North Rhine-Westphalia"}, {"city": "Wachtberg", "latitude": 50.63333, "longitude": 7.1, "state": "North Rhine-Westphalia"}, {"city": "Wachenroth", "latitude": 49.75185, "longitude": 10.71335, "state": "Bavaria"}, {"city": "Wachenheim", "latitude": 49.44045, "longitude": 8.18041, "state": "Rheinland-Pfalz"}, {"city": "Wachau", "latitude": 51.16172, "longitude": 13.90651, "state": "Saxony"}, {"city": "Wabern", "latitude": 51.1, "longitude": 9.35, "state": "Hesse"}, {"city": "Waal", "latitude": 47.99679, "longitude": 10.77786, "state": "Bavaria"}, {"city": "Waakirchen", "latitude": 47.7725, "longitude": 11.67315, "state": "Bavaria"}, {"city": "Waake", "latitude": 51.55637, "longitude": 10.05713, "state": "Lower Saxony"}, {"city": "Waabs", "latitude": 54.53333, "longitude": 9.98333, "state": "Schleswig-Holstein"}, {"city": "Vrees", "latitude": 52.88333, "longitude": 7.76667, "state": "Lower Saxony"}, {"city": "Vreden", "latitude": 52.03792, "longitude": 6.828, "state": "North Rhine-Westphalia"}, {"city": "Vorwerk", "latitude": 53.18333, "longitude": 9.15, "state": "Lower Saxony"}, {"city": "V\u00f6rstetten", "latitude": 48.06667, "longitude": 7.85, "state": "Baden-Wurttemberg"}, {"city": "Vorra", "latitude": 49.55718, "longitude": 11.49419, "state": "Bavaria"}, {"city": "Vordorf", "latitude": 52.36522, "longitude": 10.52035, "state": "Lower Saxony"}, {"city": "Vorbach", "latitude": 49.82136, "longitude": 11.73625, "state": "Bavaria"}, {"city": "Volxheim", "latitude": 49.81667, "longitude": 7.93333, "state": "Rheinland-Pfalz"}, {"city": "Voltlage", "latitude": 52.43333, "longitude": 7.75, "state": "Lower Saxony"}, {"city": "V\u00f6lpke", "latitude": 52.13865, "longitude": 11.09877, "state": "Saxony-Anhalt"}, {"city": "Vollersode", "latitude": 53.33333, "longitude": 8.91667, "state": "Lower Saxony"}, {"city": "Volkstedt", "latitude": 51.56267, "longitude": 11.55658, "state": "Saxony-Anhalt"}, {"city": "Volksdorf", "latitude": 53.64972, "longitude": 10.18417, "state": "Hamburg"}, {"city": "Volkmarsen", "latitude": 51.40895, "longitude": 9.11814, "state": "Hesse"}, {"city": "Volkmarode", "latitude": 52.2899, "longitude": 10.59872, "state": "Lower Saxony"}, {"city": "V\u00f6lklingen", "latitude": 49.25162, "longitude": 6.85873, "state": "Saarland"}, {"city": "Volkertshausen", "latitude": 47.81667, "longitude": 8.86667, "state": "Baden-Wurttemberg"}, {"city": "V\u00f6lkershausen", "latitude": 50.8, "longitude": 10.05, "state": "Thuringia"}, {"city": "Volkenschwand", "latitude": 48.6, "longitude": 11.88333, "state": "Bavaria"}, {"city": "V\u00f6lkenrode", "latitude": 52.30418, "longitude": 10.44079, "state": "Lower Saxony"}, {"city": "Volkach", "latitude": 49.86352, "longitude": 10.22813, "state": "Bavaria"}, {"city": "Voigtstedt", "latitude": 51.39169, "longitude": 11.30888, "state": "Thuringia"}, {"city": "V\u00f6hringen", "latitude": 48.33446, "longitude": 8.66392, "state": "Baden-Wurttemberg"}, {"city": "V\u00f6hringen", "latitude": 48.27839, "longitude": 10.08236, "state": "Bavaria"}, {"city": "V\u00f6hrenbach", "latitude": 48.05, "longitude": 8.3, "state": "Baden-Wurttemberg"}, {"city": "V\u00f6hl", "latitude": 51.20565, "longitude": 8.9451, "state": "Hesse"}, {"city": "Vohenstrau\u00df", "latitude": 49.62383, "longitude": 12.33808, "state": "Bavaria"}, {"city": "Vohburg an der Donau", "latitude": 48.76977, "longitude": 11.61845, "state": "Bavaria"}, {"city": "Vogtareuth", "latitude": 47.94694, "longitude": 12.18126, "state": "Bavaria"}, {"city": "Vogt", "latitude": 47.76667, "longitude": 9.76667, "state": "Baden-Wurttemberg"}, {"city": "V\u00f6gelsen", "latitude": 53.27447, "longitude": 10.35372, "state": "Lower Saxony"}, {"city": "Voerde", "latitude": 51.59703, "longitude": 6.6863, "state": "North Rhine-Westphalia"}, {"city": "Vockerode", "latitude": 51.84698, "longitude": 12.35208, "state": "Saxony-Anhalt"}, {"city": "Vlotho", "latitude": 52.1653, "longitude": 8.85996, "state": "North Rhine-Westphalia"}, {"city": "Visselh\u00f6vede", "latitude": 52.98546, "longitude": 9.58265, "state": "Lower Saxony"}, {"city": "Visbek", "latitude": 52.83333, "longitude": 8.31667, "state": "Lower Saxony"}, {"city": "Vi\u00f6l", "latitude": 54.56667, "longitude": 9.18333, "state": "Schleswig-Holstein"}, {"city": "Vinningen", "latitude": 49.15635, "longitude": 7.55191, "state": "Rheinland-Pfalz"}, {"city": "Vilshofen", "latitude": 48.62695, "longitude": 13.19222, "state": "Bavaria"}, {"city": "Vilsheim", "latitude": 48.44882, "longitude": 12.10686, "state": "Bavaria"}, {"city": "Vilseck", "latitude": 49.6148, "longitude": 11.80261, "state": "Bavaria"}, {"city": "Vilsbiburg", "latitude": 48.45296, "longitude": 12.35604, "state": "Bavaria"}, {"city": "Villmar", "latitude": 50.39287, "longitude": 8.1931, "state": "Hesse"}, {"city": "Villingen-Schwenningen", "latitude": 48.06226, "longitude": 8.49358, "state": "Baden-Wurttemberg"}, {"city": "Villingendorf", "latitude": 48.2, "longitude": 8.58333, "state": "Baden-Wurttemberg"}, {"city": "Villenbach", "latitude": 48.50887, "longitude": 10.61468, "state": "Bavaria"}, {"city": "Vilgertshofen", "latitude": 47.95, "longitude": 10.91667, "state": "Bavaria"}, {"city": "Viersen", "latitude": 51.25435, "longitude": 6.39441, "state": "North Rhine-Westphalia"}, {"city": "Viernheim", "latitude": 49.54033, "longitude": 8.5782, "state": "Hesse"}, {"city": "Viernau", "latitude": 50.66225, "longitude": 10.55778, "state": "Thuringia"}, {"city": "Vierkirchen", "latitude": 48.36667, "longitude": 11.46667, "state": "Bavaria"}, {"city": "Viereck", "latitude": 53.54898, "longitude": 14.04001, "state": "Mecklenburg-Vorpommern"}, {"city": "Vienenburg", "latitude": 51.95242, "longitude": 10.56374, "state": "Lower Saxony"}, {"city": "Viechtach", "latitude": 49.08001, "longitude": 12.88566, "state": "Bavaria"}, {"city": "Vettwei\u00df", "latitude": 50.73333, "longitude": 6.6, "state": "North Rhine-Westphalia"}, {"city": "Vettelscho\u00df", "latitude": 50.61667, "longitude": 7.35, "state": "Rheinland-Pfalz"}, {"city": "Vetschau", "latitude": 51.78638, "longitude": 14.07941, "state": "Brandenburg"}, {"city": "Vestenbergsgreuth", "latitude": 49.68764, "longitude": 10.65157, "state": "Bavaria"}, {"city": "Versmold", "latitude": 52.04009, "longitude": 8.15272, "state": "North Rhine-Westphalia"}, {"city": "Verl", "latitude": 51.88333, "longitude": 8.51667, "state": "North Rhine-Westphalia"}, {"city": "Veringenstadt", "latitude": 48.18515, "longitude": 9.21079, "state": "Baden-Wurttemberg"}, {"city": "Verden", "latitude": 52.92343, "longitude": 9.23491, "state": "Lower Saxony"}, {"city": "Venusberg", "latitude": 50.69918, "longitude": 13.01854, "state": "Saxony"}, {"city": "Veltheim", "latitude": 52.21874, "longitude": 10.68327, "state": "Lower Saxony"}, {"city": "Veltenhof", "latitude": 52.30774, "longitude": 10.48937, "state": "Lower Saxony"}, {"city": "Velten", "latitude": 52.69149, "longitude": 13.17533, "state": "Brandenburg"}, {"city": "Velpke", "latitude": 52.40797, "longitude": 10.93637, "state": "Lower Saxony"}, {"city": "Vellberg", "latitude": 49.0843, "longitude": 9.87914, "state": "Baden-Wurttemberg"}, {"city": "Velgast", "latitude": 54.27204, "longitude": 12.81075, "state": "Mecklenburg-Vorpommern"}, {"city": "Velen", "latitude": 51.89447, "longitude": 6.98807, "state": "North Rhine-Westphalia"}, {"city": "Velden", "latitude": 49.61388, "longitude": 11.51008, "state": "Bavaria"}, {"city": "Velden", "latitude": 48.36632, "longitude": 12.25596, "state": "Bavaria"}, {"city": "Velburg", "latitude": 49.23212, "longitude": 11.6716, "state": "Bavaria"}, {"city": "Velbert", "latitude": 51.33537, "longitude": 7.04348, "state": "North Rhine-Westphalia"}, {"city": "Veitsh\u00f6chheim", "latitude": 49.83278, "longitude": 9.88167, "state": "Bavaria"}, {"city": "Veitsbronn", "latitude": 49.51239, "longitude": 10.88797, "state": "Bavaria"}, {"city": "Veilsdorf", "latitude": 50.40876, "longitude": 10.80947, "state": "Thuringia"}, {"city": "Vegesack", "latitude": 53.16667, "longitude": 8.61667, "state": "Bremen"}, {"city": "Veckenstedt", "latitude": 51.90113, "longitude": 10.73203, "state": "Saxony-Anhalt"}, {"city": "Vechta", "latitude": 52.72632, "longitude": 8.28598, "state": "Lower Saxony"}, {"city": "Vechelde", "latitude": 52.26038, "longitude": 10.36491, "state": "Lower Saxony"}, {"city": "Vaterstetten", "latitude": 48.10537, "longitude": 11.76825, "state": "Bavaria"}, {"city": "Varrel", "latitude": 52.6215, "longitude": 8.7331, "state": "Lower Saxony"}, {"city": "Varel", "latitude": 53.39693, "longitude": 8.13621, "state": "Lower Saxony"}, {"city": "Valley", "latitude": 47.8931, "longitude": 11.77915, "state": "Bavaria"}, {"city": "Vallendar", "latitude": 50.39586, "longitude": 7.62427, "state": "Rheinland-Pfalz"}, {"city": "Vaihingen an der Enz", "latitude": 48.93563, "longitude": 8.96045, "state": "Baden-Wurttemberg"}, {"city": "Vagen", "latitude": 47.8741, "longitude": 11.88446, "state": "Bavaria"}, {"city": "Vachendorf", "latitude": 47.84256, "longitude": 12.60606, "state": "Bavaria"}, {"city": "Vacha", "latitude": 50.8279, "longitude": 10.02185, "state": "Thuringia"}, {"city": "Vaale", "latitude": 54.0, "longitude": 9.38333, "state": "Schleswig-Holstein"}, {"city": "\u00dcxheim", "latitude": 50.35, "longitude": 6.75, "state": "Rheinland-Pfalz"}, {"city": "Utting am Ammersee", "latitude": 48.02608, "longitude": 11.08612, "state": "Bavaria"}, {"city": "Uttenweiler", "latitude": 48.15, "longitude": 9.61667, "state": "Baden-Wurttemberg"}, {"city": "Uttenreuth", "latitude": 49.59675, "longitude": 11.07216, "state": "Bavaria"}, {"city": "Uthlede", "latitude": 53.31119, "longitude": 8.57861, "state": "Lower Saxony"}, {"city": "Uthleben", "latitude": 51.44912, "longitude": 10.838, "state": "Thuringia"}, {"city": "Uetersen", "latitude": 53.68769, "longitude": 9.66394, "state": "Schleswig-Holstein"}, {"city": "Ustersbach", "latitude": 48.31667, "longitude": 10.65, "state": "Bavaria"}, {"city": "Uslar", "latitude": 51.6569, "longitude": 9.63501, "state": "Lower Saxony"}, {"city": "Usingen", "latitude": 50.33554, "longitude": 8.53688, "state": "Hesse"}, {"city": "Usedom", "latitude": 53.87537, "longitude": 13.92394, "state": "Mecklenburg-Vorpommern"}, {"city": "Urspringen", "latitude": 49.90166, "longitude": 9.67123, "state": "Bavaria"}, {"city": "Ursensollen", "latitude": 49.40204, "longitude": 11.75503, "state": "Bavaria"}, {"city": "Ursberg", "latitude": 48.26428, "longitude": 10.44594, "state": "Bavaria"}, {"city": "Urmitz", "latitude": 50.41667, "longitude": 7.51667, "state": "Rheinland-Pfalz"}, {"city": "Urbar", "latitude": 50.38333, "longitude": 7.63333, "state": "Rheinland-Pfalz"}, {"city": "Urbach-\u00dcberdorf", "latitude": 50.5569, "longitude": 7.58695, "state": "Rheinland-Pfalz"}, {"city": "Urbach", "latitude": 51.29468, "longitude": 10.6054, "state": "Thuringia"}, {"city": "Bad Urach", "latitude": 48.49107, "longitude": 9.40009, "state": "Baden-Wurttemberg"}, {"city": "Upgant-Schott", "latitude": 53.51667, "longitude": 7.28333, "state": "Lower Saxony"}, {"city": "Untrasried", "latitude": 47.83333, "longitude": 10.38333, "state": "Bavaria"}, {"city": "Unterw\u00f6ssen", "latitude": 47.73333, "longitude": 12.46667, "state": "Bavaria"}, {"city": "Unterwellenborn", "latitude": 50.65, "longitude": 11.43333, "state": "Thuringia"}, {"city": "Unterthingau", "latitude": 47.77155, "longitude": 10.50446, "state": "Bavaria"}, {"city": "Untersteinach", "latitude": 50.13333, "longitude": 11.51667, "state": "Bavaria"}, {"city": "Untersiemau", "latitude": 50.19415, "longitude": 10.97448, "state": "Bavaria"}, {"city": "Unterschneidheim", "latitude": 48.93333, "longitude": 10.36667, "state": "Baden-Wurttemberg"}, {"city": "Unterschlei\u00dfheim", "latitude": 48.28038, "longitude": 11.57684, "state": "Bavaria"}, {"city": "Unterreit", "latitude": 48.11667, "longitude": 12.33333, "state": "Bavaria"}, {"city": "Unterreichenbach", "latitude": 48.82496, "longitude": 8.70885, "state": "Baden-Wurttemberg"}, {"city": "Unterpleichfeld", "latitude": 49.86886, "longitude": 10.04399, "state": "Bavaria"}, {"city": "Unterneukirchen", "latitude": 48.16667, "longitude": 12.61667, "state": "Bavaria"}, {"city": "Unterm\u00fcnkheim", "latitude": 49.15255, "longitude": 9.73384, "state": "Baden-Wurttemberg"}, {"city": "Untermerzbach", "latitude": 50.12754, "longitude": 10.85634, "state": "Bavaria"}, {"city": "Untermeitingen", "latitude": 48.16082, "longitude": 10.80694, "state": "Bavaria"}, {"city": "Unterma\u00dffeld", "latitude": 50.53333, "longitude": 10.41667, "state": "Thuringia"}, {"city": "Unterl\u00fc\u00df", "latitude": 52.83471, "longitude": 10.29685, "state": "Lower Saxony"}, {"city": "Unterleinleiter", "latitude": 49.82303, "longitude": 11.18906, "state": "Bavaria"}, {"city": "Unterkirnach", "latitude": 48.07946, "longitude": 8.36575, "state": "Baden-Wurttemberg"}, {"city": "Unterjettingen", "latitude": 48.5623, "longitude": 8.78445, "state": "Baden-Wurttemberg"}, {"city": "Unterhausen", "latitude": 48.4298, "longitude": 9.25504, "state": "Baden-Wurttemberg"}, {"city": "Unterhaching", "latitude": 48.06598, "longitude": 11.61564, "state": "Bavaria"}, {"city": "Untergruppenbach", "latitude": 49.0894, "longitude": 9.27516, "state": "Baden-Wurttemberg"}, {"city": "Untergriesbach", "latitude": 48.57434, "longitude": 13.66725, "state": "Bavaria"}, {"city": "Unterf\u00f6hring", "latitude": 48.19253, "longitude": 11.64293, "state": "Bavaria"}, {"city": "Unterensingen", "latitude": 48.65452, "longitude": 9.35799, "state": "Baden-Wurttemberg"}, {"city": "Untereisesheim", "latitude": 49.21111, "longitude": 9.20194, "state": "Baden-Wurttemberg"}, {"city": "Unteregg", "latitude": 47.96667, "longitude": 10.46667, "state": "Bavaria"}, {"city": "Unterdietfurt", "latitude": 48.38333, "longitude": 12.66667, "state": "Bavaria"}, {"city": "Unterdie\u00dfen", "latitude": 47.98333, "longitude": 10.83333, "state": "Bavaria"}, {"city": "Unterbreizbach", "latitude": 50.81667, "longitude": 9.98333, "state": "Thuringia"}, {"city": "Unterkrozingen", "latitude": 47.91933, "longitude": 7.69045, "state": "Baden-Wurttemberg"}, {"city": "Unterammergau", "latitude": 47.61658, "longitude": 11.02718, "state": "Bavaria"}, {"city": "Unter-Abtsteinach", "latitude": 49.52711, "longitude": 8.78679, "state": "Hesse"}, {"city": "Unseburg", "latitude": 51.93284, "longitude": 11.51281, "state": "Saxony-Anhalt"}, {"city": "Unnau", "latitude": 50.64881, "longitude": 7.90827, "state": "Rheinland-Pfalz"}, {"city": "Unna", "latitude": 51.53795, "longitude": 7.68969, "state": "North Rhine-Westphalia"}, {"city": "Unlingen", "latitude": 48.16734, "longitude": 9.52219, "state": "Baden-Wurttemberg"}, {"city": "Unkel", "latitude": 50.59653, "longitude": 7.21888, "state": "Rheinland-Pfalz"}, {"city": "Ungerhausen", "latitude": 48.00566, "longitude": 10.26672, "state": "Bavaria"}, {"city": "Undenheim", "latitude": 49.83806, "longitude": 8.21889, "state": "Rheinland-Pfalz"}, {"city": "Ummern", "latitude": 52.59111, "longitude": 10.43195, "state": "Lower Saxony"}, {"city": "Ummendorf", "latitude": 52.15645, "longitude": 11.18151, "state": "Saxony-Anhalt"}, {"city": "Ummendorf", "latitude": 48.06667, "longitude": 9.83333, "state": "Baden-Wurttemberg"}, {"city": "Umkirch", "latitude": 48.03333, "longitude": 7.76667, "state": "Baden-Wurttemberg"}, {"city": "Ulrichstein", "latitude": 50.5755, "longitude": 9.19272, "state": "Hesse"}, {"city": "Ulmen", "latitude": 50.20943, "longitude": 6.97941, "state": "Rheinland-Pfalz"}, {"city": "Ulm", "latitude": 48.39841, "longitude": 9.99155, "state": "Baden-Wurttemberg"}, {"city": "Uichteritz", "latitude": 51.20652, "longitude": 11.92215, "state": "Saxony-Anhalt"}, {"city": "Uhyst", "latitude": 51.36469, "longitude": 14.506, "state": "Saxony"}, {"city": "Uehrde", "latitude": 52.09902, "longitude": 10.76523, "state": "Lower Saxony"}, {"city": "Uehlfeld", "latitude": 49.67085, "longitude": 10.72017, "state": "Bavaria"}, {"city": "Uhingen", "latitude": 48.70475, "longitude": 9.5857, "state": "Baden-Wurttemberg"}, {"city": "Uftrungen", "latitude": 51.49859, "longitude": 10.98066, "state": "Saxony-Anhalt"}, {"city": "Uffing", "latitude": 47.71378, "longitude": 11.15034, "state": "Bavaria"}, {"city": "Uffenheim", "latitude": 49.54415, "longitude": 10.23286, "state": "Bavaria"}, {"city": "Uetze", "latitude": 52.46511, "longitude": 10.20467, "state": "Lower Saxony"}, {"city": "Uettingen", "latitude": 49.79472, "longitude": 9.73056, "state": "Bavaria"}, {"city": "Uerdingen", "latitude": 51.35478, "longitude": 6.63918, "state": "North Rhine-Westphalia"}, {"city": "Uenglingen", "latitude": 52.61797, "longitude": 11.80893, "state": "Saxony-Anhalt"}, {"city": "Uelzen", "latitude": 52.96572, "longitude": 10.56111, "state": "Lower Saxony"}, {"city": "Uelversheim", "latitude": 49.81, "longitude": 8.28861, "state": "Rheinland-Pfalz"}, {"city": "Uelsen", "latitude": 52.5, "longitude": 6.88333, "state": "Lower Saxony"}, {"city": "Uedem", "latitude": 51.6652, "longitude": 6.27371, "state": "North Rhine-Westphalia"}, {"city": "Ueckerm\u00fcnde", "latitude": 53.73795, "longitude": 14.04473, "state": "Mecklenburg-Vorpommern"}, {"city": "Uebigau", "latitude": 51.59415, "longitude": 13.29983, "state": "Brandenburg"}, {"city": "\u00dcdersdorf", "latitude": 50.15, "longitude": 6.8, "state": "Rheinland-Pfalz"}, {"city": "Uder", "latitude": 51.36243, "longitude": 10.0721, "state": "Thuringia"}, {"city": "Udenheim", "latitude": 49.86472, "longitude": 8.17167, "state": "Rheinland-Pfalz"}, {"city": "Udenhausen", "latitude": 51.46385, "longitude": 9.46335, "state": "Hesse"}, {"city": "Uckerath", "latitude": 50.73015, "longitude": 7.36921, "state": "North Rhine-Westphalia"}, {"city": "Uchtspringe", "latitude": 52.54011, "longitude": 11.59959, "state": "Saxony-Anhalt"}, {"city": "\u00dcchtelhausen", "latitude": 50.09184, "longitude": 10.26861, "state": "Bavaria"}, {"city": "Uchte", "latitude": 52.49975, "longitude": 8.90928, "state": "Lower Saxony"}, {"city": "\u00dcbersee", "latitude": 47.81667, "longitude": 12.48333, "state": "Bavaria"}, {"city": "\u00dcberlingen", "latitude": 47.76977, "longitude": 9.17136, "state": "Baden-Wurttemberg"}, {"city": "\u00dcberherrn", "latitude": 49.24187, "longitude": 6.6984, "state": "Saarland"}, {"city": "\u00dcbach-Palenberg", "latitude": 50.91775, "longitude": 6.12336, "state": "North Rhine-Westphalia"}, {"city": "Tschernitz", "latitude": 51.58333, "longitude": 14.61667, "state": "Brandenburg"}, {"city": "Tyrlaching", "latitude": 48.06667, "longitude": 12.66667, "state": "Bavaria"}, {"city": "Twistringen", "latitude": 52.79926, "longitude": 8.64163, "state": "Lower Saxony"}, {"city": "Twist", "latitude": 52.63793, "longitude": 7.06622, "state": "Lower Saxony"}, {"city": "Tutzing", "latitude": 47.90938, "longitude": 11.2803, "state": "Bavaria"}, {"city": "Tuttlingen", "latitude": 47.98464, "longitude": 8.8177, "state": "Baden-Wurttemberg"}, {"city": "T\u00fcttendorf", "latitude": 54.4, "longitude": 10.0, "state": "Schleswig-Holstein"}, {"city": "Tutow", "latitude": 53.91566, "longitude": 13.24814, "state": "Mecklenburg-Vorpommern"}, {"city": "T\u00fc\u00dfling", "latitude": 48.21218, "longitude": 12.59954, "state": "Bavaria"}, {"city": "Tussenhausen", "latitude": 48.10218, "longitude": 10.56069, "state": "Bavaria"}, {"city": "T\u00fcrnich", "latitude": 50.85892, "longitude": 6.75535, "state": "North Rhine-Westphalia"}, {"city": "T\u00fcrkheim", "latitude": 48.06401, "longitude": 10.64156, "state": "Bavaria"}, {"city": "T\u00fcrkenfeld", "latitude": 48.10531, "longitude": 11.08303, "state": "Bavaria"}, {"city": "Tuntenhausen", "latitude": 47.93509, "longitude": 12.01518, "state": "Bavaria"}, {"city": "Tuningen", "latitude": 48.03333, "longitude": 8.6, "state": "Baden-Wurttemberg"}, {"city": "Tungendorf", "latitude": 54.09878, "longitude": 9.9966, "state": "Schleswig-Holstein"}, {"city": "T\u00fclau", "latitude": 52.57578, "longitude": 10.87818, "state": "Lower Saxony"}, {"city": "Tuchenbach", "latitude": 49.52794, "longitude": 10.85973, "state": "Bavaria"}, {"city": "Tucheim", "latitude": 52.28923, "longitude": 12.18423, "state": "Saxony-Anhalt"}, {"city": "T\u00fcbingen", "latitude": 48.52266, "longitude": 9.05222, "state": "Baden-Wurttemberg"}, {"city": "Trusetal", "latitude": 50.78333, "longitude": 10.41667, "state": "Thuringia"}, {"city": "Trunkelsberg", "latitude": 48.0, "longitude": 10.21667, "state": "Bavaria"}, {"city": "Trulben", "latitude": 49.13916, "longitude": 7.5437, "state": "Rheinland-Pfalz"}, {"city": "Trostberg an der Alz", "latitude": 48.02802, "longitude": 12.55804, "state": "Bavaria"}, {"city": "Tr\u00f6stau", "latitude": 50.01667, "longitude": 11.95, "state": "Bavaria"}, {"city": "Trossingen", "latitude": 48.07667, "longitude": 8.64409, "state": "Baden-Wurttemberg"}, {"city": "Trossin", "latitude": 51.61667, "longitude": 12.81667, "state": "Saxony"}, {"city": "Trollenhagen", "latitude": 53.60706, "longitude": 13.29103, "state": "Mecklenburg-Vorpommern"}, {"city": "Troisdorf", "latitude": 50.80901, "longitude": 7.14968, "state": "North Rhine-Westphalia"}, {"city": "Trogen", "latitude": 50.36667, "longitude": 11.95, "state": "Bavaria"}, {"city": "Trochtelfingen", "latitude": 48.30843, "longitude": 9.24491, "state": "Baden-Wurttemberg"}, {"city": "Trittenheim", "latitude": 49.82471, "longitude": 6.89929, "state": "Rheinland-Pfalz"}, {"city": "Trittau", "latitude": 53.61667, "longitude": 10.4, "state": "Schleswig-Holstein"}, {"city": "Triptis", "latitude": 50.73567, "longitude": 11.87015, "state": "Thuringia"}, {"city": "Trippstadt", "latitude": 49.35935, "longitude": 7.7748, "state": "Rheinland-Pfalz"}, {"city": "Trinwillershagen", "latitude": 54.25048, "longitude": 12.62312, "state": "Mecklenburg-Vorpommern"}, {"city": "Triftern", "latitude": 48.39468, "longitude": 13.00627, "state": "Bavaria"}, {"city": "Trierweiler", "latitude": 49.76231, "longitude": 6.55987, "state": "Rheinland-Pfalz"}, {"city": "Trier", "latitude": 49.75565, "longitude": 6.63935, "state": "Rheinland-Pfalz"}, {"city": "Triebes", "latitude": 50.68489, "longitude": 12.02042, "state": "Thuringia"}, {"city": "Tribsees", "latitude": 54.09556, "longitude": 12.75683, "state": "Mecklenburg-Vorpommern"}, {"city": "Triberg", "latitude": 48.13175, "longitude": 8.23317, "state": "Baden-Wurttemberg"}, {"city": "Treuenbrietzen", "latitude": 52.09754, "longitude": 12.87258, "state": "Brandenburg"}, {"city": "Treuen", "latitude": 50.54247, "longitude": 12.30339, "state": "Saxony"}, {"city": "Treuchtlingen", "latitude": 48.95473, "longitude": 10.90833, "state": "Bavaria"}, {"city": "Alt-Treptow", "latitude": 52.48863, "longitude": 13.4586, "state": "Berlin"}, {"city": "Trendelburg", "latitude": 51.57408, "longitude": 9.42095, "state": "Hesse"}, {"city": "Tremsb\u00fcttel", "latitude": 53.74384, "longitude": 10.31024, "state": "Schleswig-Holstein"}, {"city": "Treis-Karden", "latitude": 50.17174, "longitude": 7.30218, "state": "Rheinland-Pfalz"}, {"city": "Treia", "latitude": 54.5, "longitude": 9.31667, "state": "Schleswig-Holstein"}, {"city": "Treffurt", "latitude": 51.13691, "longitude": 10.23361, "state": "Thuringia"}, {"city": "Treffelstein", "latitude": 49.42246, "longitude": 12.61574, "state": "Bavaria"}, {"city": "Trechtingshausen", "latitude": 50.01031, "longitude": 7.84709, "state": "Rheinland-Pfalz"}, {"city": "Trebur", "latitude": 49.92639, "longitude": 8.40732, "state": "Hesse"}, {"city": "Trebsen", "latitude": 51.28898, "longitude": 12.75496, "state": "Saxony"}, {"city": "Trebitz", "latitude": 51.58615, "longitude": 11.91965, "state": "Saxony-Anhalt"}, {"city": "Trebgast", "latitude": 50.06667, "longitude": 11.55, "state": "Bavaria"}, {"city": "Trebendorf", "latitude": 51.53333, "longitude": 14.56667, "state": "Saxony"}, {"city": "Trebbin", "latitude": 52.21675, "longitude": 13.22496, "state": "Brandenburg"}, {"city": "Travem\u00fcnde", "latitude": 53.96304, "longitude": 10.8709, "state": "Schleswig-Holstein"}, {"city": "Trautskirchen", "latitude": 49.4581, "longitude": 10.59361, "state": "Bavaria"}, {"city": "Trausnitz", "latitude": 49.52114, "longitude": 12.26249, "state": "Bavaria"}, {"city": "Traunstein", "latitude": 47.86825, "longitude": 12.64335, "state": "Bavaria"}, {"city": "Traunreut", "latitude": 47.96269, "longitude": 12.59231, "state": "Bavaria"}, {"city": "Trassem", "latitude": 49.57849, "longitude": 6.5254, "state": "Rheinland-Pfalz"}, {"city": "Trappstadt", "latitude": 50.3188, "longitude": 10.56995, "state": "Bavaria"}, {"city": "Trappenkamp", "latitude": 54.03988, "longitude": 10.21496, "state": "Schleswig-Holstein"}, {"city": "Traitsching", "latitude": 49.15, "longitude": 12.65, "state": "Bavaria"}, {"city": "Train", "latitude": 48.73333, "longitude": 11.83333, "state": "Bavaria"}, {"city": "Trabitz", "latitude": 49.8, "longitude": 11.9, "state": "Bavaria"}, {"city": "Traben-Trarbach", "latitude": 49.95076, "longitude": 7.11562, "state": "Rheinland-Pfalz"}, {"city": "Tostedt", "latitude": 53.28333, "longitude": 9.71667, "state": "Lower Saxony"}, {"city": "Tornesch", "latitude": 53.7, "longitude": 9.71667, "state": "Schleswig-Holstein"}, {"city": "Torgelow", "latitude": 53.63415, "longitude": 14.01346, "state": "Mecklenburg-Vorpommern"}, {"city": "Torgau", "latitude": 51.56016, "longitude": 12.99617, "state": "Saxony"}, {"city": "Toppenstedt", "latitude": 53.2643, "longitude": 10.11451, "state": "Lower Saxony"}, {"city": "T\u00f6pen", "latitude": 50.39067, "longitude": 11.87329, "state": "Bavaria"}, {"city": "T\u00f6nning", "latitude": 54.31879, "longitude": 8.94234, "state": "Schleswig-Holstein"}, {"city": "T\u00f6nisvorst", "latitude": 51.32092, "longitude": 6.49412, "state": "North Rhine-Westphalia"}, {"city": "Tollwitz", "latitude": 51.28601, "longitude": 12.09733, "state": "Saxony-Anhalt"}, {"city": "Tolk", "latitude": 54.57987, "longitude": 9.63844, "state": "Schleswig-Holstein"}, {"city": "T\u00f6ging am Inn", "latitude": 48.26018, "longitude": 12.5846, "state": "Bavaria"}, {"city": "Todtnau", "latitude": 47.82941, "longitude": 7.9438, "state": "Baden-Wurttemberg"}, {"city": "Todtmoos", "latitude": 47.74014, "longitude": 8.00183, "state": "Baden-Wurttemberg"}, {"city": "Todtenweis", "latitude": 48.51712, "longitude": 10.92856, "state": "Bavaria"}, {"city": "Todesfelde", "latitude": 53.9, "longitude": 10.18333, "state": "Schleswig-Holstein"}, {"city": "Todendorf", "latitude": 53.69461, "longitude": 10.34781, "state": "Schleswig-Holstein"}, {"city": "Todenb\u00fcttel", "latitude": 54.13333, "longitude": 9.55, "state": "Schleswig-Holstein"}, {"city": "Titz", "latitude": 51.00619, "longitude": 6.42477, "state": "North Rhine-Westphalia"}, {"city": "Tittmoning", "latitude": 48.06164, "longitude": 12.7676, "state": "Bavaria"}, {"city": "Tittling", "latitude": 48.72619, "longitude": 13.38221, "state": "Bavaria"}, {"city": "Titisee-Neustadt", "latitude": 47.92104, "longitude": 8.19063, "state": "Baden-Wurttemberg"}, {"city": "Tirschenreuth", "latitude": 49.88263, "longitude": 12.33112, "state": "Bavaria"}, {"city": "Tirpersdorf", "latitude": 50.43333, "longitude": 12.25, "state": "Saxony"}, {"city": "Tinnum", "latitude": 54.89932, "longitude": 8.33476, "state": "Schleswig-Holstein"}, {"city": "Timmerlah", "latitude": 52.23936, "longitude": 10.45027, "state": "Lower Saxony"}, {"city": "Timmenrode", "latitude": 51.77113, "longitude": 11.00624, "state": "Saxony-Anhalt"}, {"city": "Timmendorfer Strand", "latitude": 53.9953, "longitude": 10.77676, "state": "Schleswig-Holstein"}, {"city": "Timmaspe", "latitude": 54.13967, "longitude": 9.8943, "state": "Schleswig-Holstein"}, {"city": "Tiergarten", "latitude": 52.51667, "longitude": 13.36667, "state": "Berlin"}, {"city": "Tiefenort", "latitude": 50.83946, "longitude": 10.16604, "state": "Thuringia"}, {"city": "Tiefenbronn", "latitude": 48.82398, "longitude": 8.80129, "state": "Baden-Wurttemberg"}, {"city": "Tiefenbach", "latitude": 49.18525, "longitude": 12.32337, "state": "Bavaria"}, {"city": "Tiefenbach", "latitude": 48.5, "longitude": 12.1, "state": "Bavaria"}, {"city": "Tiddische", "latitude": 52.51667, "longitude": 10.8, "state": "Lower Saxony"}, {"city": "Thyrnau", "latitude": 48.61667, "longitude": 13.53333, "state": "Bavaria"}, {"city": "Thurnau", "latitude": 50.02542, "longitude": 11.39348, "state": "Bavaria"}, {"city": "Thurmansbang", "latitude": 48.76627, "longitude": 13.3155, "state": "Bavaria"}, {"city": "Th\u00fcr", "latitude": 50.35692, "longitude": 7.27689, "state": "Rheinland-Pfalz"}, {"city": "Th\u00fcngersheim", "latitude": 49.87833, "longitude": 9.84917, "state": "Bavaria"}, {"city": "Th\u00fcngen", "latitude": 49.9414, "longitude": 9.8586, "state": "Bavaria"}, {"city": "Thune", "latitude": 52.33261, "longitude": 10.51048, "state": "Lower Saxony"}, {"city": "Thundorf in Unterfranken", "latitude": 50.20097, "longitude": 10.31906, "state": "Bavaria"}, {"city": "Thum", "latitude": 50.67081, "longitude": 12.95091, "state": "Saxony"}, {"city": "Thuine", "latitude": 52.5, "longitude": 7.48333, "state": "Lower Saxony"}, {"city": "Thomm", "latitude": 49.7414, "longitude": 6.80492, "state": "Rheinland-Pfalz"}, {"city": "Thomasburg", "latitude": 53.23333, "longitude": 10.66667, "state": "Lower Saxony"}, {"city": "Tholey", "latitude": 49.48374, "longitude": 7.03691, "state": "Saarland"}, {"city": "Thierstein", "latitude": 50.10643, "longitude": 12.10203, "state": "Bavaria"}, {"city": "Thiersheim", "latitude": 50.07609, "longitude": 12.1265, "state": "Bavaria"}, {"city": "Thierhaupten", "latitude": 48.56531, "longitude": 10.90862, "state": "Bavaria"}, {"city": "Thiendorf", "latitude": 51.29375, "longitude": 13.74124, "state": "Saxony"}, {"city": "Theuma", "latitude": 50.47007, "longitude": 12.22195, "state": "Saxony"}, {"city": "Themar", "latitude": 50.50465, "longitude": 10.61536, "state": "Thuringia"}, {"city": "Thei\u00dfen", "latitude": 51.08748, "longitude": 12.10659, "state": "Saxony-Anhalt"}, {"city": "Theisseil", "latitude": 49.69034, "longitude": 12.22744, "state": "Bavaria"}, {"city": "Theilheim", "latitude": 49.75403, "longitude": 10.03056, "state": "Bavaria"}, {"city": "Thedinghausen", "latitude": 52.96667, "longitude": 9.01667, "state": "Lower Saxony"}, {"city": "Tharandt", "latitude": 50.98525, "longitude": 13.58035, "state": "Saxony"}, {"city": "Thanstein", "latitude": 49.38333, "longitude": 12.46667, "state": "Bavaria"}, {"city": "Thannhausen", "latitude": 48.28334, "longitude": 10.46917, "state": "Bavaria"}, {"city": "Thalm\u00e4ssing", "latitude": 49.08834, "longitude": 11.2215, "state": "Bavaria"}, {"city": "Thalmassing", "latitude": 48.91167, "longitude": 12.155, "state": "Bavaria"}, {"city": "Thallwitz", "latitude": 51.43333, "longitude": 12.68333, "state": "Saxony"}, {"city": "Thalheim", "latitude": 51.65268, "longitude": 12.22756, "state": "Saxony-Anhalt"}, {"city": "Thalheim", "latitude": 50.70077, "longitude": 12.84996, "state": "Saxony"}, {"city": "Thaleischweiler-Fr\u00f6schen", "latitude": 49.26667, "longitude": 7.58333, "state": "Rheinland-Pfalz"}, {"city": "Thale", "latitude": 51.74861, "longitude": 11.041, "state": "Saxony-Anhalt"}, {"city": "Thal", "latitude": 50.91684, "longitude": 10.39209, "state": "Thuringia"}, {"city": "Teutschenthal", "latitude": 51.45, "longitude": 11.8, "state": "Saxony-Anhalt"}, {"city": "Teuschnitz", "latitude": 50.39839, "longitude": 11.38235, "state": "Bavaria"}, {"city": "Teupitz", "latitude": 52.12967, "longitude": 13.6196, "state": "Brandenburg"}, {"city": "Teunz", "latitude": 49.48333, "longitude": 12.38333, "state": "Bavaria"}, {"city": "Teugn", "latitude": 48.89299, "longitude": 12.01175, "state": "Bavaria"}, {"city": "Teuchern", "latitude": 51.12094, "longitude": 12.0241, "state": "Saxony-Anhalt"}, {"city": "Teuchel", "latitude": 51.88842, "longitude": 12.64587, "state": "Saxony-Anhalt"}, {"city": "Teublitz", "latitude": 49.22289, "longitude": 12.08727, "state": "Bavaria"}, {"city": "Tettnang", "latitude": 47.66857, "longitude": 9.59132, "state": "Baden-Wurttemberg"}, {"city": "Tettenweis", "latitude": 48.44281, "longitude": 13.26955, "state": "Bavaria"}, {"city": "Tettau", "latitude": 50.46979, "longitude": 11.25888, "state": "Bavaria"}, {"city": "Teterow", "latitude": 53.77545, "longitude": 12.57487, "state": "Mecklenburg-Vorpommern"}, {"city": "Tessin", "latitude": 54.02764, "longitude": 12.46519, "state": "Mecklenburg-Vorpommern"}, {"city": "Tespe", "latitude": 53.3964, "longitude": 10.41084, "state": "Lower Saxony"}, {"city": "Tennenbronn", "latitude": 48.19041, "longitude": 8.35176, "state": "Baden-Wurttemberg"}, {"city": "Teningen", "latitude": 48.12952, "longitude": 7.81205, "state": "Baden-Wurttemberg"}, {"city": "Tengen", "latitude": 47.82128, "longitude": 8.66117, "state": "Baden-Wurttemberg"}, {"city": "Templin", "latitude": 53.11865, "longitude": 13.5022, "state": "Brandenburg"}, {"city": "Tempelhof", "latitude": 52.46667, "longitude": 13.4, "state": "Berlin"}, {"city": "Teltow", "latitude": 52.4031, "longitude": 13.26014, "state": "Brandenburg"}, {"city": "Tellingstedt", "latitude": 54.21667, "longitude": 9.28333, "state": "Schleswig-Holstein"}, {"city": "Telgte", "latitude": 51.97995, "longitude": 7.78293, "state": "North Rhine-Westphalia"}, {"city": "Teistungen", "latitude": 51.46667, "longitude": 10.26667, "state": "Thuringia"}, {"city": "Teisnach", "latitude": 49.04114, "longitude": 12.98784, "state": "Bavaria"}, {"city": "Teising", "latitude": 48.22721, "longitude": 12.61137, "state": "Bavaria"}, {"city": "Teisendorf", "latitude": 47.84921, "longitude": 12.81919, "state": "Bavaria"}, {"city": "Teichwolframsdorf", "latitude": 50.72093, "longitude": 12.24689, "state": "Thuringia"}, {"city": "Teicha", "latitude": 51.55887, "longitude": 11.95482, "state": "Saxony-Anhalt"}, {"city": "Tegernsee", "latitude": 47.7123, "longitude": 11.7582, "state": "Bavaria"}, {"city": "Tegernheim", "latitude": 49.02394, "longitude": 12.17303, "state": "Bavaria"}, {"city": "Tegel", "latitude": 52.57601, "longitude": 13.29389, "state": "Berlin"}, {"city": "Tecklenburg", "latitude": 52.21957, "longitude": 7.81357, "state": "North Rhine-Westphalia"}, {"city": "Tawern", "latitude": 49.66667, "longitude": 6.51667, "state": "Rheinland-Pfalz"}, {"city": "Tautenhain", "latitude": 50.9247, "longitude": 11.91945, "state": "Thuringia"}, {"city": "Tauscha", "latitude": 51.26667, "longitude": 13.8, "state": "Saxony"}, {"city": "Taura", "latitude": 50.91667, "longitude": 12.85, "state": "Saxony"}, {"city": "Taunusstein", "latitude": 50.14993, "longitude": 8.15206, "state": "Hesse"}, {"city": "Taufkirchen", "latitude": 48.34987, "longitude": 12.13202, "state": "Bavaria"}, {"city": "Taufkirchen", "latitude": 48.15, "longitude": 12.45, "state": "Bavaria"}, {"city": "Taufkirchen", "latitude": 48.0486, "longitude": 11.61701, "state": "Bavaria"}, {"city": "Tauche", "latitude": 52.15, "longitude": 14.16667, "state": "Brandenburg"}, {"city": "Taucha", "latitude": 51.38333, "longitude": 12.48333, "state": "Saxony"}, {"city": "Tauberbischofsheim", "latitude": 49.62472, "longitude": 9.66278, "state": "Baden-Wurttemberg"}, {"city": "Tating", "latitude": 54.32607, "longitude": 8.70802, "state": "Schleswig-Holstein"}, {"city": "Markt Taschendorf", "latitude": 49.70111, "longitude": 10.55557, "state": "Bavaria"}, {"city": "Tarp", "latitude": 54.66667, "longitude": 9.4, "state": "Schleswig-Holstein"}, {"city": "Tarnow", "latitude": 53.77941, "longitude": 12.01785, "state": "Mecklenburg-Vorpommern"}, {"city": "Tarmstedt", "latitude": 53.22505, "longitude": 9.07763, "state": "Lower Saxony"}, {"city": "Tappenbeck", "latitude": 52.47055, "longitude": 10.74068, "state": "Lower Saxony"}, {"city": "Tapfheim", "latitude": 48.67322, "longitude": 10.68377, "state": "Bavaria"}, {"city": "Tannheim", "latitude": 48.0, "longitude": 10.08333, "state": "Baden-Wurttemberg"}, {"city": "Tannhausen", "latitude": 48.9787, "longitude": 10.36129, "state": "Baden-Wurttemberg"}, {"city": "T\u00e4nnesberg", "latitude": 49.53182, "longitude": 12.32765, "state": "Bavaria"}, {"city": "Tannenbergsthal", "latitude": 50.43665, "longitude": 12.45754, "state": "Saxony"}, {"city": "Tannenberg", "latitude": 50.60738, "longitude": 12.93798, "state": "Saxony"}, {"city": "Tanna", "latitude": 50.4946, "longitude": 11.85725, "state": "Thuringia"}, {"city": "Tann", "latitude": 50.64284, "longitude": 10.02385, "state": "Hesse"}, {"city": "Tann", "latitude": 48.31463, "longitude": 12.89301, "state": "Bavaria"}, {"city": "Tangstedt", "latitude": 53.73333, "longitude": 10.08333, "state": "Schleswig-Holstein"}, {"city": "Tangstedt", "latitude": 53.67711, "longitude": 9.8488, "state": "Schleswig-Holstein"}, {"city": "Tangerm\u00fcnde", "latitude": 52.54463, "longitude": 11.97647, "state": "Saxony-Anhalt"}, {"city": "Tangerh\u00fctte", "latitude": 52.4353, "longitude": 11.80724, "state": "Saxony-Anhalt"}, {"city": "Tamm", "latitude": 48.91988, "longitude": 9.11556, "state": "Baden-Wurttemberg"}, {"city": "Tambach-Dietharz", "latitude": 50.79245, "longitude": 10.61568, "state": "Thuringia"}, {"city": "Talheim", "latitude": 49.08333, "longitude": 9.19306, "state": "Baden-Wurttemberg"}, {"city": "Talheim", "latitude": 48.01667, "longitude": 8.66667, "state": "Baden-Wurttemberg"}, {"city": "Tagmersheim", "latitude": 48.81667, "longitude": 10.96667, "state": "Bavaria"}, {"city": "T\u00e4ferrot", "latitude": 48.84972, "longitude": 9.83824, "state": "Baden-Wurttemberg"}, {"city": "Taching am See", "latitude": 47.95942, "longitude": 12.72933, "state": "Bavaria"}, {"city": "Tacherting", "latitude": 48.07825, "longitude": 12.57008, "state": "Bavaria"}, {"city": "Tabarz", "latitude": 50.87529, "longitude": 10.51607, "state": "Thuringia"}, {"city": "Syrau", "latitude": 50.54297, "longitude": 12.07933, "state": "Saxony"}, {"city": "Syke", "latitude": 52.91345, "longitude": 8.82209, "state": "Lower Saxony"}, {"city": "Sustrum", "latitude": 52.91667, "longitude": 7.28333, "state": "Lower Saxony"}, {"city": "S\u00fcstedt", "latitude": 52.86165, "longitude": 8.92213, "state": "Lower Saxony"}, {"city": "S\u00fc\u00dfen", "latitude": 48.67934, "longitude": 9.75534, "state": "Baden-Wurttemberg"}, {"city": "S\u00fcsel", "latitude": 54.08135, "longitude": 10.70172, "state": "Schleswig-Holstein"}, {"city": "Surwold", "latitude": 52.978, "longitude": 7.51534, "state": "Lower Saxony"}, {"city": "Surberg", "latitude": 47.86667, "longitude": 12.7, "state": "Bavaria"}, {"city": "S\u00fcpplingen", "latitude": 52.22811, "longitude": 10.90393, "state": "Lower Saxony"}, {"city": "S\u00fcplingen", "latitude": 52.28759, "longitude": 11.3245, "state": "Saxony-Anhalt"}, {"city": "Sundern", "latitude": 51.3281, "longitude": 8.00369, "state": "North Rhine-Westphalia"}, {"city": "S\u00fcnching", "latitude": 48.87855, "longitude": 12.35129, "state": "Bavaria"}, {"city": "Sulzheim", "latitude": 49.95, "longitude": 10.33333, "state": "Bavaria"}, {"city": "Sulzheim", "latitude": 49.84306, "longitude": 8.09167, "state": "Rheinland-Pfalz"}, {"city": "Sulzfeld am Main", "latitude": 49.70694, "longitude": 10.13248, "state": "Bavaria"}, {"city": "Sulzfeld", "latitude": 50.25972, "longitude": 10.40525, "state": "Bavaria"}, {"city": "Sulzfeld", "latitude": 49.10472, "longitude": 8.85583, "state": "Baden-Wurttemberg"}, {"city": "Sulzemoos", "latitude": 48.29107, "longitude": 11.26356, "state": "Bavaria"}, {"city": "Sulzdorf", "latitude": 49.65002, "longitude": 9.90389, "state": "Bavaria"},