[{"city": "Nova Sintra", "latitude": 14.87139, "longitude": -24.69556, "state": "Brava"}, {"city": "Vila do Maio", "latitude": 15.13823, "longitude": -23.21158, "state": "Maio"}, {"city": "Ribeira Brava", "latitude": 16.61583, "longitude": -24.29833, "state": null}, {"city": "Tarrafal de S\u00e3o Nicolau", "latitude": 16.56622, "longitude": -24.35793, "state": null}, {"city": "Tarrafal", "latitude": 15.27881, "longitude": -23.75192, "state": null}, {"city": "S\u00e3o Filipe", "latitude": 14.8961, "longitude": -24.49556, "state": null}, {"city": "S\u00e3o Domingos", "latitude": 15.02438, "longitude": -23.5625, "state": null}, {"city": "Santa Maria", "latitude": 16.59796, "longitude": -22.90509, "state": "Sal"}, {"city": "Santa Cruz", "latitude": 15.13333, "longitude": -23.56667, "state": null}, {"city": "Sal Rei", "latitude": 16.17611, "longitude": -22.91722, "state": "Boa Vista"}, {"city": "Ribeira Grande", "latitude": 17.1825, "longitude": -25.065, "state": null}, {"city": "Praia", "latitude": 14.93152, "longitude": -23.51254, "state": null}, {"city": "Porto Novo", "latitude": 17.01969, "longitude": -25.06471, "state": null}, {"city": "Ponta do Sol", "latitude": 17.20171, "longitude": -25.09217, "state": "Ribeira Grande"}, {"city": "Pombas", "latitude": 17.15026, "longitude": -25.02007, "state": "Paul"}, {"city": "Picos", "latitude": 15.0836, "longitude": -23.63236, "state": "S\u00e3o Salvador do Mundo"}, {"city": "Mindelo", "latitude": 16.89014, "longitude": -24.98042, "state": "S\u00e3o Vicente"}, {"city": "Igreja", "latitude": 15.03333, "longitude": -24.33333, "state": "Mosteiros"}, {"city": "Cova Figueira", "latitude": 14.89054, "longitude": -24.29343, "state": "Santa Catarina do Fogo"}, {"city": "Cidade Velha", "latitude": 14.91531, "longitude": -23.60527, "state": "Ribeira Grande de Santiago"}, {"city": "Calheta", "latitude": 15.18613, "longitude": -23.59228, "state": "S\u00e3o Miguel"}, {"city": "Assomada", "latitude": 15.1, "longitude": -23.68333, "state": "Santa Catarina"}, {"city": "Jo\u00e3o Teves", "latitude": 15.06694, "longitude": -23.58917, "state": "S\u00e3o Louren\u00e7o dos \u00d3rg\u00e3os"}, {"city": "Pedra Badejo", "latitude": 15.1375, "longitude": -23.53083, "state": "Santa Cruz"}, {"city": "Espargos", "latitude": 16.75524, "longitude": -22.9446, "state": "Sal"}]