[{"city": "Boumerdas", "latitude": 36.76639, "longitude": 3.47717, "state": "Boumerdes"}, {"city": "Zighout Youcef", "latitude": 36.53307, "longitude": 6.71237, "state": "Constantine"}, {"city": "Zeribet el Oued", "latitude": 34.68284, "longitude": 6.51109, "state": "Biskra"}, {"city": "Zeralda", "latitude": 36.71169, "longitude": 2.84244, "state": "Algiers"}, {"city": "Zemoura", "latitude": 35.72251, "longitude": 0.75509, "state": "Relizane"}, {"city": "Touggourt", "latitude": 33.11083, "longitude": 6.07, "state": null}, {"city": "Tolga", "latitude": 34.72224, "longitude": 5.37845, "state": "Biskra"}, {"city": "Tlemcen", "latitude": 34.87833, "longitude": -1.315, "state": null}, {"city": "Tizi Rached", "latitude": 36.67176, "longitude": 4.19176, "state": "Tizi Ouzou"}, {"city": "Tizi Ouzou", "latitude": 36.71182, "longitude": 4.04591, "state": null}, {"city": "Tizi-n-Tleta", "latitude": 36.54569, "longitude": 4.05712, "state": "Tizi Ouzou"}, {"city": "Tizi Gheniff", "latitude": 36.58839, "longitude": 3.77445, "state": "Tizi Ouzou"}, {"city": "Tissemsilt", "latitude": 35.60722, "longitude": 1.81081, "state": null}, {"city": "Tirmitine", "latitude": 36.65393, "longitude": 3.98143, "state": "Tizi Ouzou"}, {"city": "Tipasa", "latitude": 36.58972, "longitude": 2.44889, "state": "Tipaza"}, {"city": "Tindouf", "latitude": 27.67111, "longitude": -8.14743, "state": null}, {"city": "Timizart", "latitude": 36.8, "longitude": 4.26667, "state": "Tizi Ouzou"}, {"city": "Timimoun", "latitude": 29.26417, "longitude": 0.23583, "state": null}, {"city": "el hed", "latitude": 36.65, "longitude": 4.77361, "state": "B\u00e9ja\u00efa"}, {"city": "Tighenif", "latitude": 35.41722, "longitude": 0.32982, "state": "Mascara"}, {"city": "Tiaret", "latitude": 35.37103, "longitude": 1.31699, "state": null}, {"city": "Theniet el Had", "latitude": 35.87111, "longitude": 2.02806, "state": "Tissemsilt"}, {"city": "Thenia", "latitude": 36.72544, "longitude": 3.55665, "state": "Boumerdes"}, {"city": "T\u00e9n\u00e8s", "latitude": 36.51076, "longitude": 1.30809, "state": "Chlef"}, {"city": "Telerghma", "latitude": 36.11653, "longitude": 6.35434, "state": "Mila"}, {"city": "T\u00e9bessa", "latitude": 35.40417, "longitude": 8.12417, "state": null}, {"city": "Tebesbest", "latitude": 33.11667, "longitude": 6.08333, "state": "Touggourt"}, {"city": "Tazoult-Lambese", "latitude": 35.48171, "longitude": 6.26074, "state": "Batna"}, {"city": "Tarhit Ouled Hellal", "latitude": 35.08111, "longitude": 6.33375, "state": "Batna"}, {"city": "Tamanghasset", "latitude": 22.785, "longitude": 5.52278, "state": "Tamanrasset"}, {"city": "Tamalous", "latitude": 36.83763, "longitude": 6.64018, "state": "Skikda"}, {"city": "Ta\u00efbet", "latitude": 33.08515, "longitude": 6.3891, "state": "Touggourt"}, {"city": "Tadma\u00eft", "latitude": 36.74413, "longitude": 3.90045, "state": "Tizi Ouzou"}, {"city": "Tadjenanet", "latitude": 36.12129, "longitude": 5.9867, "state": "Mila"}, {"city": "Sour el Ghozlane", "latitude": 36.14766, "longitude": 3.69123, "state": "Bouira"}, {"city": "Souma", "latitude": 36.51833, "longitude": 2.90528, "state": "Blida"}, {"city": "Lardjem", "latitude": 35.74922, "longitude": 1.54778, "state": "Tissemsilt"}, {"city": "Souk Ahras", "latitude": 36.28639, "longitude": 7.95111, "state": null}, {"city": "Sougueur", "latitude": 35.18568, "longitude": 1.49612, "state": "Tiaret"}, {"city": "Skikda", "latitude": 36.87617, "longitude": 6.90921, "state": null}, {"city": "Sig", "latitude": 35.52832, "longitude": -0.19369, "state": "Mascara"}, {"city": "Sidi Okba", "latitude": 34.74512, "longitude": 5.89833, "state": "Biskra"}, {"city": "Sidi Moussa", "latitude": 36.60637, "longitude": 3.08783, "state": "Algiers"}, {"city": "Sidi M\u00e9rouane", "latitude": 36.52056, "longitude": 6.26111, "state": "Mila"}, {"city": "Sidi Khaled", "latitude": 34.387, "longitude": 4.98785, "state": "Ouled Djellal"}, {"city": "Sidi ech Chahmi", "latitude": 35.65903, "longitude": -0.52168, "state": "Oran"}, {"city": "Sidi Bel Abbes", "latitude": 35.18994, "longitude": -0.63085, "state": "Sidi Bel Abb\u00e8s"}, {"city": "Sidi Amrane", "latitude": 33.49885, "longitude": 6.00803, "state": "El Mghair"}, {"city": "Sidi Akkacha", "latitude": 36.46472, "longitude": 1.30258, "state": "Chlef"}, {"city": "Sidi A\u00efssa", "latitude": 35.88548, "longitude": 3.77236, "state": "M'Sila"}, {"city": "Sidi Abdelli", "latitude": 35.06937, "longitude": -1.13706, "state": "Tlemcen"}, {"city": "Sfizef", "latitude": 35.23464, "longitude": -0.24435, "state": "Sidi Bel Abb\u00e8s"}, {"city": "S\u00e9tif", "latitude": 36.19112, "longitude": 5.41373, "state": null}, {"city": "Sedrata", "latitude": 36.12868, "longitude": 7.53376, "state": "Souk Ahras"}, {"city": "Seddouk", "latitude": 36.54722, "longitude": 4.68611, "state": "B\u00e9ja\u00efa"}, {"city": "Sebdou", "latitude": 34.63703, "longitude": -1.33143, "state": "Tlemcen"}, {"city": "Saoula", "latitude": 36.70456, "longitude": 3.02462, "state": "Algiers"}, {"city": "Salah Bey", "latitude": 35.85451, "longitude": 5.29053, "state": "S\u00e9tif"}, {"city": "Sa\u00efda", "latitude": 34.83033, "longitude": 0.15171, "state": "Saida"}, {"city": "Rouissat", "latitude": 31.92427, "longitude": 5.35018, "state": "Ouargla"}, {"city": "Rouiba", "latitude": 36.73829, "longitude": 3.28079, "state": "Algiers"}, {"city": "Rouached", "latitude": 36.45774, "longitude": 6.04267, "state": "Mila"}, {"city": "Robbah", "latitude": 33.27967, "longitude": 6.90984, "state": "El Oued"}, {"city": "Remchi", "latitude": 35.06196, "longitude": -1.43362, "state": "Tlemcen"}, {"city": "Relizane", "latitude": 35.73734, "longitude": 0.55599, "state": null}, {"city": "Reguiba", "latitude": 33.56391, "longitude": 6.70326, "state": "El Oued"}, {"city": "Regha\u00efa", "latitude": 36.73587, "longitude": 3.34018, "state": "Algiers"}, {"city": "Reggane", "latitude": 26.71576, "longitude": 0.1714, "state": "Adrar"}, {"city": "R\u00e2s el Oued", "latitude": 35.9441, "longitude": 5.03107, "state": "Bordj Bou Arr\u00e9ridj"}, {"city": "R\u00e2s el A\u00efoun", "latitude": 35.67384, "longitude": 5.6453, "state": "Batna"}, {"city": "Ouzera", "latitude": 36.25417, "longitude": 2.84722, "state": "Medea"}, {"city": "Oum el Bouaghi", "latitude": 35.87541, "longitude": 7.11353, "state": null}, {"city": "Oumache", "latitude": 34.69292, "longitude": 5.68092, "state": "Biskra"}, {"city": "Ouled Slama Fouaga", "latitude": 36.54828, "longitude": 3.11006, "state": "Blida"}, {"city": "Ouled Moussa", "latitude": 36.68394, "longitude": 3.36661, "state": "Boumerdes"}, {"city": "Ouled Mimoun", "latitude": 34.90472, "longitude": -1.03394, "state": "Tlemcen"}, {"city": "Ouled Haddaj", "latitude": 36.71461, "longitude": 3.3422, "state": "Boumerdes"}, {"city": "Ouled Djellal", "latitude": 34.43, "longitude": 5.06139, "state": null}, {"city": "Ouenza", "latitude": 35.95333, "longitude": 8.12917, "state": "T\u00e9bessa"}, {"city": "Oued Zenati", "latitude": 36.31611, "longitude": 7.16364, "state": "Guelma"}, {"city": "Oued Sly", "latitude": 36.10124, "longitude": 1.19949, "state": "Chlef"}, {"city": "Oued Rhiou", "latitude": 35.96124, "longitude": 0.91896, "state": "Relizane"}, {"city": "Oued Fodda", "latitude": 36.18503, "longitude": 1.53299, "state": "Chlef"}, {"city": "Oued el Alleug", "latitude": 36.55528, "longitude": 2.79028, "state": "Blida"}, {"city": "Oued el Abtal", "latitude": 35.45595, "longitude": 0.68778, "state": "Mascara"}, {"city": "Ouargla", "latitude": 31.94932, "longitude": 5.32502, "state": null}, {"city": "Oran", "latitude": 35.69906, "longitude": -0.63588, "state": null}, {"city": "N\u2019Gaous", "latitude": 35.555, "longitude": 5.61056, "state": "Batna"}, {"city": "Nedroma", "latitude": 35.01361, "longitude": -1.74799, "state": "Tlemcen"}, {"city": "Naciria", "latitude": 36.74625, "longitude": 3.83163, "state": "Boumerdes"}, {"city": "Naama", "latitude": 33.26667, "longitude": -0.31667, "state": null}, {"city": "M'Sila", "latitude": 35.70889, "longitude": 4.53722, "state": null}, {"city": "Mouza\u00efa", "latitude": 36.46695, "longitude": 2.68991, "state": "Blida"}, {"city": "Mostaganem", "latitude": 35.93115, "longitude": 0.08918, "state": null}, {"city": "Mohammadia", "latitude": 35.58861, "longitude": 0.06861, "state": "Mascara"}, {"city": "Miliana", "latitude": 36.30554, "longitude": 2.2248, "state": "A\u00efn Defla"}, {"city": "Mila", "latitude": 36.45028, "longitude": 6.26444, "state": null}, {"city": "Metlili Chaamba", "latitude": 32.26667, "longitude": 3.63333, "state": "Ghardaia"}, {"city": "Messaad", "latitude": 34.15429, "longitude": 3.50309, "state": "Djelfa"}, {"city": "Meskiana", "latitude": 35.63058, "longitude": 7.66606, "state": "Oum el Bouaghi"}, {"city": "Mers el Kebir", "latitude": 35.7279, "longitude": -0.7081, "state": "Oran"}, {"city": "Merouana", "latitude": 35.63106, "longitude": 5.91186, "state": "Batna"}, {"city": "Melouza", "latitude": 35.97999, "longitude": 4.18665, "state": "M'Sila"}, {"city": "Mekla", "latitude": 36.68178, "longitude": 4.26378, "state": "Tizi Ouzou"}, {"city": "Mehdia daira de meghila", "latitude": 35.43058, "longitude": 1.75714, "state": "Tiaret"}, {"city": "Megarine", "latitude": 33.19195, "longitude": 6.08695, "state": "Touggourt"}, {"city": "Meftah", "latitude": 36.6204, "longitude": 3.22248, "state": "Blida"}, {"city": "M\u00e9d\u00e9a", "latitude": 36.26417, "longitude": 2.75393, "state": "Medea"}, {"city": "Draa Klalouche", "latitude": 35.79234, "longitude": 5.97706, "state": "Batna"}, {"city": "Mecheria", "latitude": 33.54453, "longitude": -0.28117, "state": "Naama"}, {"city": "M\u2019Daourouch", "latitude": 36.07821, "longitude": 7.8196, "state": "Souk Ahras"}, {"city": "Mazouna", "latitude": 36.12232, "longitude": 0.89865, "state": "Relizane"}, {"city": "Mascara", "latitude": 35.39664, "longitude": 0.14027, "state": null}, {"city": "Mansourah", "latitude": 36.08725, "longitude": 4.45192, "state": "Bordj Bou Arr\u00e9ridj"}, {"city": "Manso\u00fbra", "latitude": 34.86158, "longitude": -1.33935, "state": "Tlemcen"}, {"city": "Makouda", "latitude": 36.78567, "longitude": 4.06273, "state": "Tizi Ouzou"}, {"city": "Maghnia", "latitude": 34.84969, "longitude": -1.72753, "state": "Tlemcen"}, {"city": "L\u2019Arbaa Na\u00eft Irathen", "latitude": 36.63112, "longitude": 4.19864, "state": "Tizi Ouzou"}, {"city": "Larba\u00e2", "latitude": 36.56471, "longitude": 3.15434, "state": "Blida"}, {"city": "Lakhdaria", "latitude": 36.56463, "longitude": 3.5933, "state": "Bouira"}, {"city": "Laghouat", "latitude": 33.8, "longitude": 2.86514, "state": null}, {"city": "Ksar el Boukhari", "latitude": 35.88889, "longitude": 2.74905, "state": "Medea"}, {"city": "Ksar Chellala", "latitude": 35.21222, "longitude": 2.31889, "state": "Tiaret"}, {"city": "Kolea", "latitude": 36.63888, "longitude": 2.76845, "state": "Tipaza"}, {"city": "Khenchela", "latitude": 35.43583, "longitude": 7.14333, "state": null}, {"city": "Khemis Miliana", "latitude": 36.26104, "longitude": 2.22015, "state": "A\u00efn Defla"}, {"city": "Khemis el Khechna", "latitude": 36.64997, "longitude": 3.3308, "state": "Boumerdes"}, {"city": "Kerkera", "latitude": 36.92917, "longitude": 6.58556, "state": "Skikda"}, {"city": "Ka\u00efs", "latitude": 35.49474, "longitude": 6.92492, "state": "Khenchela"}, {"city": "Jijel", "latitude": 36.821, "longitude": 5.76352, "state": null}, {"city": "Djidiouia", "latitude": 35.92989, "longitude": 0.82871, "state": "Relizane"}, {"city": "In Guezzam", "latitude": 19.57361, "longitude": 5.76806, "state": null}, {"city": "Illizi", "latitude": 26.48333, "longitude": 8.46667, "state": null}, {"city": "Ighram", "latitude": 36.46295, "longitude": 4.50532, "state": "B\u00e9ja\u00efa"}, {"city": "Hennaya", "latitude": 34.95139, "longitude": -1.36806, "state": "Tlemcen"}, {"city": "H\u00e9liopolis", "latitude": 36.50361, "longitude": 7.44278, "state": "Guelma"}, {"city": "Hassi Messaoud", "latitude": 31.68041, "longitude": 6.07286, "state": "Ouargla"}, {"city": "Assi Bou Nif", "latitude": 35.69222, "longitude": -0.49944, "state": "Oran"}, {"city": "Hassi Bahbah", "latitude": 35.07109, "longitude": 3.0299, "state": "Djelfa"}, {"city": "Hammam Righa", "latitude": 36.37972, "longitude": 2.39889, "state": "A\u00efn Defla"}, {"city": "Hammamet", "latitude": 35.44862, "longitude": 7.95184, "state": "T\u00e9bessa"}, {"city": "Hammam Bou Hadjar", "latitude": 35.37889, "longitude": -0.96778, "state": "A\u00efn T\u00e9mouchent"}, {"city": "Hamma Bouziane", "latitude": 36.41205, "longitude": 6.59603, "state": "Constantine"}, {"city": "Hadjout", "latitude": 36.51257, "longitude": 2.41382, "state": "Tipaza"}, {"city": "Guerara", "latitude": 32.79211, "longitude": 4.49949, "state": "Ghardaia"}, {"city": "Guemar", "latitude": 33.48529, "longitude": 6.79693, "state": "El Oued"}, {"city": "Guelma", "latitude": 36.46214, "longitude": 7.42608, "state": null}, {"city": "Grarem", "latitude": 36.51611, "longitude": 6.32722, "state": "Mila"}, {"city": "Ghazaouet", "latitude": 35.09579, "longitude": -1.85772, "state": "Tlemcen"}, {"city": "Gharda\u00efa", "latitude": 32.49094, "longitude": 3.67347, "state": "Ghardaia"}, {"city": "Gdyel", "latitude": 35.78111, "longitude": -0.42581, "state": "Oran"}, {"city": "Frenda", "latitude": 35.06544, "longitude": 1.04945, "state": "Tiaret"}, {"city": "Freha", "latitude": 36.75234, "longitude": 4.3155, "state": "Tizi Ouzou"}, {"city": "Feraoun", "latitude": 36.56041, "longitude": 4.85454, "state": "B\u00e9ja\u00efa"}, {"city": "Feidh el Botma", "latitude": 34.5, "longitude": 3.76667, "state": "Djelfa"}, {"city": "Fedj M\u2019Zala", "latitude": 36.40937, "longitude": 5.94463, "state": "Mila"}, {"city": "Es Senia", "latitude": 35.64779, "longitude": -0.62397, "state": "Oran"}, {"city": "En Nedjma", "latitude": 35.64785, "longitude": -0.5695, "state": "Oran"}, {"city": "El Tarf", "latitude": 36.7672, "longitude": 8.31377, "state": null}, {"city": "El Oued", "latitude": 33.35608, "longitude": 6.86319, "state": null}, {"city": "El Milia", "latitude": 36.75472, "longitude": 6.2725, "state": "Jijel"}, {"city": "El Megha\u00efer", "latitude": 33.95139, "longitude": 5.92222, "state": "El Mghair"}, {"city": "El Malah", "latitude": 35.39137, "longitude": -1.09238, "state": "A\u00efn T\u00e9mouchent"}, {"city": "El Kseur", "latitude": 36.67942, "longitude": 4.8555, "state": "B\u00e9ja\u00efa"}, {"city": "El Khroub", "latitude": 36.26333, "longitude": 6.69361, "state": "Constantine"}, {"city": "El Kala", "latitude": 36.89556, "longitude": 8.44333, "state": "El Tarf"}, {"city": "El Idrissia", "latitude": 34.44542, "longitude": 2.52749, "state": "Djelfa"}, {"city": "El Hadjira", "latitude": 32.61336, "longitude": 5.51259, "state": "Ouargla"}, {"city": "El Hadjar", "latitude": 36.80377, "longitude": 7.73684, "state": "Annaba"}, {"city": "El Menia", "latitude": 30.57556, "longitude": 2.88417, "state": null}, {"city": "El Eulma", "latitude": 36.15281, "longitude": 5.69016, "state": "S\u00e9tif"}, {"city": "El Bayadh", "latitude": 33.68318, "longitude": 1.01927, "state": null}, {"city": "El Attaf", "latitude": 36.22393, "longitude": 1.67187, "state": "A\u00efn Defla"}, {"city": "Chlef", "latitude": 36.16525, "longitude": 1.33452, "state": null}, {"city": "El Arrouch", "latitude": 36.65306, "longitude": 6.83639, "state": "Skikda"}, {"city": "El Aouinet", "latitude": 35.86691, "longitude": 7.88673, "state": "T\u00e9bessa"}, {"city": "El Amria", "latitude": 35.52439, "longitude": -1.01577, "state": "A\u00efn T\u00e9mouchent"}, {"city": "El Affroun", "latitude": 36.4701, "longitude": 2.62528, "state": "Blida"}, {"city": "El Achir", "latitude": 36.06386, "longitude": 4.62744, "state": "Bordj Bou Arr\u00e9ridj"}, {"city": "El Abiodh Sidi Cheikh", "latitude": 32.893, "longitude": 0.54839, "state": "El Bayadh"}, {"city": "El Abadia", "latitude": 36.26951, "longitude": 1.68609, "state": "A\u00efn Defla"}, {"city": "Ech Chettia", "latitude": 36.19591, "longitude": 1.25537, "state": "Chlef"}, {"city": "Drean", "latitude": 36.68482, "longitude": 7.75111, "state": "El Tarf"}, {"city": "Dra\u00e2 Esmar", "latitude": 36.27354, "longitude": 2.71695, "state": "Medea"}, {"city": "Draa el Mizan", "latitude": 36.53628, "longitude": 3.8334, "state": "Tizi Ouzou"}, {"city": "Draa Ben Khedda", "latitude": 36.73436, "longitude": 3.96223, "state": "Tizi Ouzou"}, {"city": "Dou\u00e9ra", "latitude": 36.67, "longitude": 2.94444, "state": "Algiers"}, {"city": "Djelfa", "latitude": 34.67279, "longitude": 3.263, "state": null}, {"city": "Djanet", "latitude": 24.55528, "longitude": 9.485, "state": null}, {"city": "Djamaa", "latitude": 33.53388, "longitude": 5.99306, "state": "El Mghair"}, {"city": "Didouche Mourad", "latitude": 36.4525, "longitude": 6.63639, "state": "Constantine"}, {"city": "Dellys", "latitude": 36.91716, "longitude": 3.91311, "state": "Boumerdes"}, {"city": "Debila", "latitude": 33.51667, "longitude": 6.95, "state": "El Oued"}, {"city": "Dar el Be\u00efda", "latitude": 36.71333, "longitude": 3.2125, "state": "Algiers"}, {"city": "Dar Chioukh", "latitude": 34.89638, "longitude": 3.48543, "state": "Djelfa"}, {"city": "Constantine", "latitude": 36.365, "longitude": 6.61472, "state": null}, {"city": "Chorfa", "latitude": 36.36505, "longitude": 4.32636, "state": "Bouira"}, {"city": "Chiffa", "latitude": 36.46293, "longitude": 2.73873, "state": "Blida"}, {"city": "Chetouane", "latitude": 34.92129, "longitude": -1.29512, "state": "Tlemcen"}, {"city": "Cheria", "latitude": 35.27306, "longitude": 7.75194, "state": "T\u00e9bessa"}, {"city": "Cherchell", "latitude": 36.605, "longitude": 2.19083, "state": "Tipaza"}, {"city": "Cheraga", "latitude": 36.76775, "longitude": 2.95924, "state": "Algiers"}, {"city": "Chemini", "latitude": 36.6, "longitude": 4.61667, "state": "B\u00e9ja\u00efa"}, {"city": "Chellalat el Adhaouara", "latitude": 35.93968, "longitude": 3.41588, "state": "Medea"}, {"city": "Chelghoum el A\u00efd", "latitude": 36.16286, "longitude": 6.16651, "state": "Mila"}, {"city": "Chebli", "latitude": 36.57722, "longitude": 3.00917, "state": "Blida"}, {"city": "Charef", "latitude": 34.62098, "longitude": 2.79503, "state": "Djelfa"}, {"city": "Chabet el Ameur", "latitude": 36.63709, "longitude": 3.69474, "state": "Boumerdes"}, {"city": "Brezina", "latitude": 33.09892, "longitude": 1.26082, "state": "El Bayadh"}, {"city": "Bou Tlelis", "latitude": 35.57272, "longitude": -0.8996, "state": "Oran"}, {"city": "Bou Sa\u00e2da", "latitude": 35.20855, "longitude": 4.17402, "state": "M'Sila"}, {"city": "Boumagueur", "latitude": 35.5052, "longitude": 5.5525, "state": "Batna"}, {"city": "Boumahra Ahmed", "latitude": 36.45833, "longitude": 7.51389, "state": "Guelma"}, {"city": "Boukadir", "latitude": 36.06629, "longitude": 1.12602, "state": "Chlef"}, {"city": "Bou Isma\u00efl", "latitude": 36.64262, "longitude": 2.69007, "state": "Tipaza"}, {"city": "Bou\u00efra", "latitude": 36.37489, "longitude": 3.902, "state": "Bouira"}, {"city": "Bouinan", "latitude": 36.53167, "longitude": 2.99194, "state": "Blida"}, {"city": "Bou Hanifia el Hamamat", "latitude": 35.31473, "longitude": -0.05037, "state": "Mascara"}, {"city": "Bougzoul", "latitude": 35.70558, "longitude": 2.84599, "state": "Medea"}, {"city": "Bougara", "latitude": 36.54178, "longitude": 3.081, "state": "Blida"}, {"city": "Bougaa", "latitude": 36.33293, "longitude": 5.08843, "state": "S\u00e9tif"}, {"city": "Boufarik", "latitude": 36.57413, "longitude": 2.91214, "state": "Blida"}, {"city": "Boudouaou", "latitude": 36.72735, "longitude": 3.40995, "state": "Boumerdes"}, {"city": "Boudjima", "latitude": 36.80218, "longitude": 4.15187, "state": "Tizi Ouzou"}, {"city": "Bo\u00fb Arfa", "latitude": 36.46298, "longitude": 2.81464, "state": "Blida"}, {"city": "Bordj Zemoura", "latitude": 36.27462, "longitude": 4.85668, "state": "Bordj Bou Arr\u00e9ridj"}, {"city": "Bordj Mena\u00efel", "latitude": 36.74328, "longitude": 3.7173, "state": "Boumerdes"}, {"city": "Bordj Ghdir", "latitude": 35.90111, "longitude": 4.89806, "state": "Bordj Bou Arr\u00e9ridj"}, {"city": "Bordj el Kiffan", "latitude": 36.74871, "longitude": 3.19249, "state": "Algiers"}, {"city": "Bordj Bou Arreridj", "latitude": 36.07389, "longitude": 4.76139, "state": "Bordj Bou Arr\u00e9ridj"}, {"city": "Boghni", "latitude": 36.54222, "longitude": 3.95306, "state": "Tizi Ouzou"}, {"city": "Blida", "latitude": 36.47004, "longitude": 2.8277, "state": null}, {"city": "Biskra", "latitude": 34.85038, "longitude": 5.72805, "state": null}, {"city": "Birkhadem", "latitude": 36.71499, "longitude": 3.05002, "state": "Algiers"}, {"city": "Birine", "latitude": 35.635, "longitude": 3.225, "state": "Djelfa"}, {"city": "Bir el Djir", "latitude": 35.72, "longitude": -0.545, "state": "Oran"}, {"city": "Bir el Ater", "latitude": 34.74488, "longitude": 8.06024, "state": "T\u00e9bessa"}, {"city": "Besbes", "latitude": 36.70222, "longitude": 7.84722, "state": "El Tarf"}, {"city": "Berrouaghia", "latitude": 36.13516, "longitude": 2.91085, "state": "Medea"}, {"city": "Berriane", "latitude": 32.82648, "longitude": 3.76689, "state": "Ghardaia"}, {"city": "Berrahal", "latitude": 36.83528, "longitude": 7.45333, "state": "Annaba"}, {"city": "Bensekrane", "latitude": 35.07465, "longitude": -1.22431, "state": "Tlemcen"}, {"city": "Ben Mehidi", "latitude": 36.76967, "longitude": 7.90641, "state": "El Tarf"}, {"city": "Beni Tamou", "latitude": 36.53833, "longitude": 2.82174, "state": "Blida"}, {"city": "Beni Saf", "latitude": 35.30099, "longitude": -1.38226, "state": "A\u00efn T\u00e9mouchent"}, {"city": "Barbouche", "latitude": 36.10589, "longitude": 2.48185, "state": "A\u00efn Defla"}, {"city": "Beni Mester", "latitude": 34.87045, "longitude": -1.42319, "state": "Tlemcen"}, {"city": "Beni Mered", "latitude": 36.52389, "longitude": 2.86131, "state": "Blida"}, {"city": "Beni Douala", "latitude": 36.61954, "longitude": 4.08282, "state": "Tizi Ouzou"}, {"city": "Beni Amrane", "latitude": 36.66774, "longitude": 3.59115, "state": "Boumerdes"}, {"city": "B\u00e9ni Abb\u00e8s", "latitude": 30.13306, "longitude": -2.16611, "state": "Beni Abbes"}, {"city": "B\u00e9ja\u00efa", "latitude": 36.75587, "longitude": 5.08433, "state": null}, {"city": "B\u00e9char", "latitude": 31.61667, "longitude": -2.21667, "state": null}, {"city": "Batna City", "latitude": 35.55597, "longitude": 6.17414, "state": "Batna"}, {"city": "Barika", "latitude": 35.38901, "longitude": 5.36584, "state": "Batna"}, {"city": "Barbacha", "latitude": 36.56667, "longitude": 4.96667, "state": "B\u00e9ja\u00efa"}, {"city": "Baraki", "latitude": 36.66655, "longitude": 3.09606, "state": "Algiers"}, {"city": "Bab Ezzouar", "latitude": 36.72615, "longitude": 3.18291, "state": "Algiers"}, {"city": "Azzaba", "latitude": 36.73944, "longitude": 7.10528, "state": "Skikda"}, {"city": "Azazga", "latitude": 36.74472, "longitude": 4.37222, "state": "Tizi Ouzou"}, {"city": "Arzew", "latitude": 35.85048, "longitude": -0.318, "state": "Oran"}, {"city": "Arris", "latitude": 35.25881, "longitude": 6.34706, "state": "Batna"}, {"city": "Arhribs", "latitude": 36.79361, "longitude": 4.31158, "state": "Tizi Ouzou"}, {"city": "Arbatache", "latitude": 36.63773, "longitude": 3.37127, "state": "Boumerdes"}, {"city": "Aoulef", "latitude": 26.96667, "longitude": 1.08333, "state": "Adrar"}, {"city": "Annaba", "latitude": 36.9, "longitude": 7.76667, "state": null}, {"city": "Ammi Moussa", "latitude": 35.86781, "longitude": 1.11143, "state": "Relizane"}, {"city": "Amizour", "latitude": 36.64022, "longitude": 4.90131, "state": "B\u00e9ja\u00efa"}, {"city": "Algiers", "latitude": 36.73225, "longitude": 3.08746, "state": null}, {"city": "Akbou", "latitude": 36.4575, "longitude": 4.53494, "state": "B\u00e9ja\u00efa"}, {"city": "A\u00efn Touta", "latitude": 35.37675, "longitude": 5.90001, "state": "Batna"}, {"city": "A\u00efn Temouchent", "latitude": 35.29749, "longitude": -1.14037, "state": "A\u00efn T\u00e9mouchent"}, {"city": "A\u00efn Taya", "latitude": 36.79333, "longitude": 3.28694, "state": "Algiers"}, {"city": "A\u00efn Smara", "latitude": 36.2674, "longitude": 6.50135, "state": "Constantine"}, {"city": "A\u00efn Sefra", "latitude": 32.75, "longitude": -0.58333, "state": "Naama"}, {"city": "A\u00efn Oussera", "latitude": 35.45139, "longitude": 2.90583, "state": "Djelfa"}, {"city": "A\u00efn Oulmene", "latitude": 35.92296, "longitude": 5.29604, "state": "S\u00e9tif"}, {"city": "A\u00efn M\u2019Lila", "latitude": 36.03687, "longitude": 6.57219, "state": "Oum el Bouaghi"}, {"city": "\u2019A\u00efn Merane", "latitude": 36.16277, "longitude": 0.97037, "state": "Chlef"}, {"city": "A\u00efn Lechiakh", "latitude": 36.15848, "longitude": 2.40514, "state": "A\u00efn Defla"}, {"city": "A\u00efn Kercha", "latitude": 35.92472, "longitude": 6.69528, "state": "Oum el Bouaghi"}, {"city": "A\u00efn Fakroun", "latitude": 35.97108, "longitude": 6.87374, "state": "Oum el Bouaghi"}, {"city": "\u2019A\u00efn el Turk", "latitude": 35.74381, "longitude": -0.7693, "state": "Oran"}, {"city": "\u2019A\u00efn el Melh", "latitude": 34.84146, "longitude": 4.16383, "state": "M'Sila"}, {"city": "\u2019A\u00efn el Hammam", "latitude": 36.56471, "longitude": 4.30619, "state": "Tizi Ouzou"}, {"city": "Ain el Hadjel", "latitude": 35.67003, "longitude": 3.88153, "state": "M'Sila"}, {"city": "\u2019A\u00efn el Hadjar", "latitude": 34.75846, "longitude": 0.14528, "state": "Saida"}, {"city": "A\u00efn el Bya", "latitude": 35.80389, "longitude": -0.30178, "state": "Oran"}, {"city": "\u2019A\u00efn el Berd", "latitude": 35.36395, "longitude": -0.51279, "state": "Sidi Bel Abb\u00e8s"}, {"city": "\u2019A\u00efn el Bell", "latitude": 34.34381, "longitude": 3.22475, "state": "Djelfa"}, {"city": "\u2019A\u00efn Deheb", "latitude": 34.84218, "longitude": 1.54697, "state": "Tiaret"}, {"city": "A\u00efn Defla", "latitude": 36.26405, "longitude": 1.9679, "state": null}, {"city": "\u2019A\u00efn Boucif", "latitude": 35.89123, "longitude": 3.1585, "state": "Medea"}, {"city": "A\u00efn Bessem", "latitude": 36.29333, "longitude": 3.67319, "state": "Bouira"}, {"city": "\u2019A\u00efn Benian", "latitude": 36.80277, "longitude": 2.92185, "state": "Algiers"}, {"city": "A\u00efn Be\u00efda", "latitude": 35.79639, "longitude": 7.39278, "state": "Oum el Bouaghi"}, {"city": "\u2019A\u00efn Azel", "latitude": 35.81846, "longitude": 5.51115, "state": "S\u00e9tif"}, {"city": "A\u00efn Arnat", "latitude": 36.18683, "longitude": 5.31347, "state": "S\u00e9tif"}, {"city": "\u2019A\u00efn Abid", "latitude": 36.23194, "longitude": 6.94333, "state": "Constantine"}, {"city": "Ahmed Bel Hadj", "latitude": 36.80146, "longitude": 7.60811, "state": "Annaba"}, {"city": "Aghlal", "latitude": 35.20111, "longitude": -1.06958, "state": "A\u00efn T\u00e9mouchent"}, {"city": "Aflou", "latitude": 34.11279, "longitude": 2.10228, "state": "Laghouat"}, {"city": "Adrar", "latitude": 27.87429, "longitude": -0.29388, "state": null}, {"city": "Abou el Hassan", "latitude": 36.41657, "longitude": 1.19616, "state": "Chlef"}, {"city": "Abadla", "latitude": 31.019, "longitude": -2.72387, "state": "B\u00e9char"}, {"city": "BABOR - VILLE", "latitude": 36.48994, "longitude": 5.5393, "state": "S\u00e9tif"}, {"city": "In Salah", "latitude": 27.19678, "longitude": 2.47913, "state": null}, {"city": "Smala", "latitude": 35.71652, "longitude": 0.75437, "state": "Relizane"}, {"city": "Djebilet Rosfa", "latitude": 34.86375, "longitude": 0.83496, "state": "Tiaret"}, {"city": "Ait Yahia", "latitude": 36.58907, "longitude": 4.33505, "state": "Tizi Ouzou"}, {"city": "Ali Mendjeli", "latitude": 36.2459, "longitude": 6.5671, "state": "Constantine"}, {"city": "Sidi Senoussi \u0633\u064a\u062f\u064a \u0633\u0646\u0648\u0633\u064a", "latitude": 34.99691, "longitude": -1.09449, "state": "Tlemcen"}, {"city": "District of Taher", "latitude": 36.772, "longitude": 5.8982, "state": "Jijel"}, {"city": "Collo", "latitude": 37.00563, "longitude": 6.56049, "state": "Skikda"}, {"city": "Ma\u00e2tkas", "latitude": 36.60466, "longitude": 3.98437, "state": "Tizi Ouzou"}, {"city": "Sidi Amar", "latitude": 36.82019, "longitude": 7.71641, "state": "Annaba"}]