[{"city": "Serravalle", "latitude": 43.96897, "longitude": 12.48167, "state": null}, {"city": "San Marino", "latitude": 43.93667, "longitude": 12.44639, "state": null}, {"city": "Poggio di Chiesanuova", "latitude": 43.90451, "longitude": 12.42142, "state": "Chiesanuova"}, {"city": "Monte Giardino", "latitude": 43.90878, "longitude": 12.48201, "state": "Montegiardino"}, {"city": "Fiorentino", "latitude": 43.91001, "longitude": 12.45738, "state": null}, {"city": "Faetano", "latitude": 43.92831, "longitude": 12.49798, "state": null}, {"city": "Domagnano", "latitude": 43.94961, "longitude": 12.46828, "state": null}, {"city": "Borgo Maggiore", "latitude": 43.94193, "longitude": 12.44738, "state": null}, {"city": "Acquaviva", "latitude": 43.94593, "longitude": 12.4185, "state": null}]