[{"city": "Saint-Pierre", "latitude": 14.74309, "longitude": -61.17541, "state": "Martinique"}, {"city": "Saint-Joseph", "latitude": 14.67099, "longitude": -61.03905, "state": "Martinique"}, {"city": "Sainte-Marie", "latitude": 14.78352, "longitude": -60.99227, "state": "Martinique"}, {"city": "Sainte-Luce", "latitude": 14.46848, "longitude": -60.92138, "state": "Martinique"}, {"city": "Rivi\u00e8re-Pilote", "latitude": 14.48738, "longitude": -60.90257, "state": "Martinique"}, {"city": "Le Vauclin", "latitude": 14.5454, "longitude": -60.83831, "state": "Martinique"}, {"city": "Les Trois-\u00celets", "latitude": 14.53912, "longitude": -61.03354, "state": "Martinique"}, {"city": "Saint-Esprit", "latitude": 14.55, "longitude": -60.93333, "state": "Martinique"}, {"city": "Le Robert", "latitude": 14.67751, "longitude": -60.94228, "state": "Martinique"}, {"city": "Le Morne-Rouge", "latitude": 14.7761, "longitude": -61.13564, "state": "Martinique"}, {"city": "Le Marin", "latitude": 14.47158, "longitude": -60.86989, "state": "Martinique"}, {"city": "Le Lorrain", "latitude": 14.83257, "longitude": -61.05553, "state": "Martinique"}, {"city": "Le Lamentin", "latitude": 14.61341, "longitude": -60.99964, "state": "Martinique"}, {"city": "Le Fran\u00e7ois", "latitude": 14.61513, "longitude": -60.90311, "state": "Martinique"}, {"city": "La Trinit\u00e9", "latitude": 14.73807, "longitude": -60.96319, "state": "Martinique"}, {"city": "L'Ajoupa-Bouillon", "latitude": 14.82094, "longitude": -61.11749, "state": "Martinique"}, {"city": "Le Gros-Morne", "latitude": 14.7, "longitude": -61.0, "state": "Martinique"}, {"city": "Fort-de-France", "latitude": 14.60365, "longitude": -61.07418, "state": "Martinique"}, {"city": "Ducos", "latitude": 14.57529, "longitude": -60.97453, "state": "Martinique"}, {"city": "Basse-Pointe", "latitude": 14.86935, "longitude": -61.11521, "state": "Martinique"}]