[{"city": "Victoria", "latitude": -4.62001, "longitude": 55.45501, "state": "La Rivi\u00e8re Anglaise"}, {"city": "Takamaka", "latitude": -4.76667, "longitude": 55.5, "state": null}, {"city": "Port Glaud", "latitude": -4.66256, "longitude": 55.41841, "state": null}, {"city": "Cascade", "latitude": -4.66915, "longitude": 55.49952, "state": null}, {"city": "Bel Ombre", "latitude": -4.61667, "longitude": 55.41667, "state": null}, {"city": "Beau Vallon", "latitude": -4.62091, "longitude": 55.43015, "state": null}, {"city": "Anse Royale", "latitude": -4.73333, "longitude": 55.51667, "state": null}, {"city": "Anse Boileau", "latitude": -4.71667, "longitude": 55.48333, "state": null}, {"city": "La Passe", "latitude": -4.34808, "longitude": 55.83269, "state": "La Digue and Inner Islands"}, {"city": "Perseverance", "latitude": -4.60445, "longitude": 55.46428, "state": null}]