[{"city": "Y\u00ean Vinh", "latitude": 18.66667, "longitude": 105.66667, "state": "Ngh\u1ec7 An Province"}, {"city": "Y\u00ean Th\u00e0nh", "latitude": 18.99856, "longitude": 105.47116, "state": "Ngh\u1ec7 An Province"}, {"city": "Y\u00ean Ninh", "latitude": 20.18396, "longitude": 106.06121, "state": "Ninh B\u00ecnh Province"}, {"city": "Th\u1ecb Tr\u1ea5n Y\u00ean Minh", "latitude": 23.11792, "longitude": 105.14159, "state": "H\u00e0 Giang Province"}, {"city": "Y\u1ebfn L\u1ea1c", "latitude": 22.23693, "longitude": 106.18149, "state": "B\u1eafc K\u1ea1n Province"}, {"city": "Y\u00ean L\u1ea1c", "latitude": 21.23646, "longitude": 105.57297, "state": "V\u0129nh Ph\u00fac Province"}, {"city": "Y\u00ean Ch\u00e2u", "latitude": 21.04584, "longitude": 104.30101, "state": "S\u01a1n La Province"}, {"city": "Y\u00ean B\u00e1i", "latitude": 21.72288, "longitude": 104.9113, "state": "Y\u00ean B\u00e1i Province"}, {"city": "Xu\u00e2n Mai", "latitude": 20.9, "longitude": 105.58333, "state": "Hanoi"}, {"city": "Tr\u1ea1i Khoai", "latitude": 21.13174, "longitude": 105.34479, "state": "Hanoi"}, {"city": "C\u00e1i \u0110\u00f4i V\u00e0m", "latitude": 8.85707, "longitude": 104.81199, "state": "C\u00e0 Mau Province"}, {"city": "Tr\u1ea3ng Bom", "latitude": 10.95358, "longitude": 107.00589, "state": "\u0110\u1ed3ng Nai Province"}, {"city": "Gia Ray", "latitude": 10.92615, "longitude": 107.40172, "state": "\u0110\u1ed3ng Nai Province"}, {"city": "V\u0169ng T\u00e0u", "latitude": 10.34599, "longitude": 107.08426, "state": "B\u00e0 R\u1ecba\u2013V\u0169ng T\u00e0u Province"}, {"city": "V\u0169ng Li\u00eam", "latitude": 10.09576, "longitude": 106.18548, "state": "V\u0129nh Long Province"}, {"city": "V\u1ee5 B\u1ea3n", "latitude": 20.4642, "longitude": 105.44348, "state": "H\u00f2a B\u00ecnh Province"}, {"city": "V\u00f5 Xu", "latitude": 11.18691, "longitude": 107.56025, "state": "B\u00ecnh Thu\u1eadn Province"}, {"city": "V\u1ecb Thanh", "latitude": 9.78449, "longitude": 105.47012, "state": "H\u1eadu Giang"}, {"city": "V\u0129nh Y\u00ean", "latitude": 21.30891, "longitude": 105.60489, "state": "V\u0129nh Ph\u00fac Province"}, {"city": "Th\u1ecb Tr\u1ea5n V\u0129nh Tuy", "latitude": 22.27441, "longitude": 104.89091, "state": "H\u00e0 Giang Province"}, {"city": "V\u0129nh Thu\u1eadn", "latitude": 9.50802, "longitude": 105.25747, "state": "Ki\u00ean Giang Province"}, {"city": "V\u0129nh Th\u1ea1nh", "latitude": 14.10884, "longitude": 108.78381, "state": "\u00ecnh \u0110\u1ecbnh Province"}, {"city": "V\u0129nh Long", "latitude": 10.25369, "longitude": 105.9722, "state": "V\u0129nh Long Province"}, {"city": "V\u0129nh L\u1ed9c", "latitude": 20.05438, "longitude": 105.61567, "state": "Thanh H\u00f3a Province"}, {"city": "V\u0129nh Ch\u00e2u", "latitude": 9.32439, "longitude": 105.98006, "state": "S\u00f3c Tr\u0103ng Province"}, {"city": "V\u0129nh B\u00ecnh", "latitude": 10.34498, "longitude": 106.58056, "state": "Ti\u1ec1n Giang"}, {"city": "Vinh", "latitude": 18.67337, "longitude": 105.69232, "state": "Ngh\u1ec7 An Province"}, {"city": "Vi\u1ec7t Tr\u00ec", "latitude": 21.32274, "longitude": 105.40198, "state": "Ph\u00fa Th\u1ecd Province"}, {"city": "V\u0103n Quan", "latitude": 21.86516, "longitude": 106.53925, "state": "L\u1ea1ng S\u01a1n Province"}, {"city": "V\u1ea1n Gi\u00e3", "latitude": 12.69203, "longitude": 109.22069, "state": "Kh\u00e1nh H\u00f2a Province"}, {"city": "V\u00e2n \u0110\u00ecnh", "latitude": 20.73514, "longitude": 105.77236, "state": "Hanoi"}, {"city": "V\u0103n \u0110i\u1ec3n", "latitude": 20.9463, "longitude": 105.845, "state": "Hanoi"}, {"city": "V\u00e2n Canh", "latitude": 13.61945, "longitude": 108.99805, "state": "\u00ecnh \u0110\u1ecbnh Province"}, {"city": "Th\u00e0nh Ph\u1ed1 U\u00f4ng B\u00ed", "latitude": 21.03433, "longitude": 106.77049, "state": "Qu\u1ea3ng Ninh"}, {"city": "Tuy Ph\u01b0\u1edbc", "latitude": 13.82738, "longitude": 109.16651, "state": "\u00ecnh \u0110\u1ecbnh Province"}, {"city": "Tuy H\u00f2a", "latitude": 13.09546, "longitude": 109.32094, "state": "Ph\u00fa Y\u00ean Province"}, {"city": "Tuy\u00ean Quang", "latitude": 21.82356, "longitude": 105.21424, "state": "Tuy\u00ean Quang Province"}, {"city": "H\u00f2a B\u00ecnh", "latitude": 19.26393, "longitude": 104.47232, "state": "Ngh\u1ec7 An Province"}, {"city": "T\u01b0 Ngh\u0129a", "latitude": 15.08451, "longitude": 108.826, "state": "Qu\u1ea3ng Ng\u00e3i Province"}, {"city": "Th\u1ecb Tr\u1ea5n Tr\u00f9ng Kh\u00e1nh", "latitude": 22.83514, "longitude": 106.52496, "state": "Cao B\u1eb1ng Province"}, {"city": "Tri T\u00f4n", "latitude": 10.4202, "longitude": 105.00073, "state": "An Giang Province"}, {"city": "Tr\u00e0 Vinh", "latitude": 9.94719, "longitude": 106.34225, "state": "Tr\u00e0 Vinh Province"}, {"city": "Tr\u00e0 \u00d4n", "latitude": 9.96261, "longitude": 105.92168, "state": "V\u0129nh Long Province"}, {"city": "Tr\u1ea3ng B\u00e0ng", "latitude": 11.02987, "longitude": 106.35751, "state": "T\u00e2y Ninh Province"}, {"city": "Th\u1ecb Tr\u1ea5n Tr\u1ea1m T\u1ea5u", "latitude": 21.46659, "longitude": 104.37966, "state": "Y\u00ean B\u00e1i Province"}, {"city": "Tr\u00e0 My", "latitude": 15.33965, "longitude": 108.22065, "state": "Qu\u1ea3ng Nam Province"}, {"city": "Tr\u00e0m Chim", "latitude": 10.67001, "longitude": 105.56469, "state": "\u0110\u1ed3ng Th\u00e1p Province"}, {"city": "Tr\u00e0 C\u00fa", "latitude": 9.69774, "longitude": 106.25834, "state": "Tr\u00e0 Vinh Province"}, {"city": "Tr\u00e0 B\u1ed3ng", "latitude": 15.25569, "longitude": 108.51722, "state": "Qu\u1ea3ng Ng\u00e3i Province"}, {"city": "T\u0129nh Gia", "latitude": 19.44645, "longitude": 105.77861, "state": "Thanh H\u00f3a Province"}, {"city": "Ti\u1ec3u C\u1ea7n", "latitude": 9.81166, "longitude": 106.19067, "state": "Tr\u00e0 Vinh Province"}, {"city": "Ti\u00ean Ph\u01b0\u1edbc", "latitude": 15.48819, "longitude": 108.30736, "state": "Qu\u1ea3ng Nam Province"}, {"city": "Th\u1ee7 Th\u1eeba", "latitude": 10.60232, "longitude": 106.40207, "state": "Long An Povince"}, {"city": "Th\u01b0\u1eddng Xu\u00e2n", "latitude": 19.90294, "longitude": 105.34723, "state": "Thanh H\u00f3a Province"}, {"city": "Th\u1ee7 \u0110\u1ee9c", "latitude": 10.84863, "longitude": 106.77209, "state": "Ho Chi Minh"}, {"city": "Th\u1ee7 D\u1ea7u M\u1ed9t", "latitude": 10.9804, "longitude": 106.6519, "state": "B\u00ecnh D\u01b0\u01a1ng Province"}, {"city": "Th\u1ecd Xu\u00e2n", "latitude": 19.93133, "longitude": 105.52179, "state": "Thanh H\u00f3a Province"}, {"city": "Th\u1ed1t N\u1ed1t", "latitude": 10.27213, "longitude": 105.5338, "state": "Can Tho"}, {"city": "Th\u1edbi Lai", "latitude": 10.06522, "longitude": 105.55863, "state": "Can Tho"}, {"city": "Th\u1edbi B\u00ecnh", "latitude": 9.35584, "longitude": 105.09929, "state": "C\u00e0 Mau Province"}, {"city": "\u00c1i T\u1eed", "latitude": 16.76886, "longitude": 107.16504, "state": "Qu\u1ea3ng Tr\u1ecb Province"}, {"city": "Th\u1ecb Tr\u1ea5n Th\u1ea5t Kh\u00ea", "latitude": 22.25525, "longitude": 106.47359, "state": "L\u1ea1ng S\u01a1n Province"}, {"city": "Than Uy\u00ean", "latitude": 21.95907, "longitude": 103.88001, "state": "Lai Ch\u00e2u Province"}, {"city": "Ph\u00fa L\u1ed9c", "latitude": 9.42838, "longitude": 105.74111, "state": "S\u00f3c Tr\u0103ng Province"}, {"city": "Thanh S\u01a1n", "latitude": 21.19867, "longitude": 105.17892, "state": "Ph\u00fa Th\u1ecd Province"}, {"city": "Th\u1ea1nh Ph\u00fa", "latitude": 9.94827, "longitude": 106.51629, "state": "B\u1ebfn Tre Province"}, {"city": "Ho Chi Minh City", "latitude": 10.82302, "longitude": 106.62965, "state": "Ho Chi Minh"}, {"city": "Thanh N\u00ea", "latitude": 20.3881, "longitude": 106.43834, "state": "Th\u00e1i B\u00ecnh Province"}, {"city": "Thanh H\u00f3a", "latitude": 19.8, "longitude": 105.76667, "state": "Thanh H\u00f3a Province"}, {"city": "Thanh Ch\u01b0\u01a1ng", "latitude": 18.77877, "longitude": 105.33356, "state": "Ngh\u1ec7 An Province"}, {"city": "Thanh B\u00ecnh", "latitude": 10.5619, "longitude": 105.48411, "state": "\u0110\u1ed3ng Th\u00e1p Province"}, {"city": "Th\u00e1i Nguy\u00ean", "latitude": 21.59422, "longitude": 105.84817, "state": "Th\u00e1i Nguy\u00ean Province"}, {"city": "Th\u00e1i B\u00ecnh", "latitude": 20.45, "longitude": 106.34002, "state": "Th\u00e1i B\u00ecnh Province"}, {"city": "Kim T\u00e2n", "latitude": 20.13053, "longitude": 105.67454, "state": "Thanh H\u00f3a Province"}, {"city": "Th\u1ea1ch H\u00e0", "latitude": 18.36788, "longitude": 105.86122, "state": "H\u00e0 T\u0129nh Province"}, {"city": "T\u00e2y Ninh", "latitude": 11.31004, "longitude": 106.09828, "state": "T\u00e2y Ninh Province"}, {"city": "T\u00e2y H\u1ed3", "latitude": 21.06895, "longitude": 105.81053, "state": "Hanoi"}, {"city": "T\u00e2y \u0110\u1eb1ng", "latitude": 21.19809, "longitude": 105.42217, "state": "Hanoi"}, {"city": "\u0110\u1ea1i T\u00e2n", "latitude": 15.83333, "longitude": 108.05, "state": "Qu\u1ea3ng Nam Province"}, {"city": "\u0110\u1ea7m D\u01a1i", "latitude": 8.99214, "longitude": 105.19602, "state": "C\u00e0 Mau Province"}, {"city": "T\u00e2n K\u1ef3", "latitude": 19.04756, "longitude": 105.26807, "state": "Ngh\u1ec7 An Province"}, {"city": "T\u00e1nh Linh", "latitude": 11.08421, "longitude": 107.68095, "state": "B\u00ecnh Thu\u1eadn Province"}, {"city": "T\u00e2n Hi\u1ec7p", "latitude": 10.44905, "longitude": 106.34386, "state": "Ti\u1ec1n Giang"}, {"city": "T\u00e2n Hi\u1ec7p", "latitude": 10.11709, "longitude": 105.28578, "state": "Ki\u00ean Giang Province"}, {"city": "T\u00e2n Ch\u00e2u", "latitude": 10.79832, "longitude": 105.23887, "state": "An Giang Province"}, {"city": "T\u00e2n An", "latitude": 10.53589, "longitude": 106.41366, "state": "Long An Povince"}, {"city": "Tam K\u1ef3", "latitude": 15.57364, "longitude": 108.47403, "state": "Qu\u1ea3ng Nam Province"}, {"city": "Tam \u0110\u1ea3o", "latitude": 21.39324, "longitude": 105.61441, "state": "V\u0129nh Ph\u00fac Province"}, {"city": "Tam B\u00ecnh", "latitude": 10.04811, "longitude": 106.00017, "state": "V\u0129nh Long Province"}, {"city": "Th\u1ecb Tr\u1ea5n T\u00e0 L\u00f9ng", "latitude": 22.4979, "longitude": 106.5669, "state": "Cao B\u1eb1ng Province"}, {"city": "S\u01a1n T\u1ecbnh", "latitude": 15.15856, "longitude": 108.79582, "state": "Qu\u1ea3ng Ng\u00e3i Province"}, {"city": "S\u01a1n T\u00e2y", "latitude": 21.14053, "longitude": 105.50686, "state": "Hanoi"}, {"city": "S\u01a1n H\u00e0", "latitude": 15.04193, "longitude": 108.46973, "state": "Qu\u1ea3ng Ng\u00e3i Province"}, {"city": "S\u01a1n D\u01b0\u01a1ng", "latitude": 21.69676, "longitude": 105.39901, "state": "Tuy\u00ean Quang Province"}, {"city": "S\u01a1n La", "latitude": 21.3256, "longitude": 103.91882, "state": "S\u01a1n La Province"}, {"city": "S\u00f4ng M\u00e3", "latitude": 21.05091, "longitude": 103.74987, "state": "S\u01a1n La Province"}, {"city": "S\u00f4ng C\u1ea7u", "latitude": 13.4556, "longitude": 109.22348, "state": "Ph\u00fa Y\u00ean Province"}, {"city": "S\u00f3c Tr\u0103ng", "latitude": 9.59995, "longitude": 105.97193, "state": "S\u00f3c Tr\u0103ng Province"}, {"city": "Th\u1ecb Tr\u1ea5n S\u00ecn H\u1ed3", "latitude": 22.36647, "longitude": 103.23438, "state": "Lai Ch\u00e2u Province"}, {"city": "Si Ma Cai", "latitude": 22.6951, "longitude": 104.27857, "state": "L\u00e0o Cai Province"}, {"city": "Sa Pa", "latitude": 22.34023, "longitude": 103.84415, "state": "L\u00e0o Cai Province"}, {"city": "Sa Dec", "latitude": 10.29085, "longitude": 105.75635, "state": "\u0110\u1ed3ng Th\u00e1p Province"}, {"city": "R\u1ea1ch Gi\u00e1", "latitude": 10.01245, "longitude": 105.08091, "state": "Ki\u00ean Giang Province"}, {"city": "M\u01b0\u1eddng Chi\u00ean", "latitude": 21.8424, "longitude": 103.56608, "state": "S\u01a1n La Province"}, {"city": "Qu\u1ef3nh C\u00f4i", "latitude": 20.66192, "longitude": 106.32744, "state": "Th\u00e1i B\u00ecnh Province"}, {"city": "Qui Nhon", "latitude": 13.77648, "longitude": 109.22367, "state": "\u00ecnh \u0110\u1ecbnh Province"}, {"city": "Qu\u1ef3 H\u1ee3p", "latitude": 19.32546, "longitude": 105.18251, "state": "Ngh\u1ec7 An Province"}, {"city": "Quy \u0110\u1ea1t", "latitude": 17.80459, "longitude": 105.97044, "state": "Qu\u1ea3ng B\u00ecnh Province"}, {"city": "Qu\u1ef3 Ch\u00e2u", "latitude": 19.55206, "longitude": 105.09387, "state": "Ngh\u1ec7 An Province"}, {"city": "Qu\u1ebf S\u01a1n", "latitude": 15.67356, "longitude": 108.2201, "state": "Qu\u1ea3ng Nam Province"}, {"city": "Kim S\u01a1n", "latitude": 19.60409, "longitude": 104.91903, "state": "Ngh\u1ec7 An Province"}, {"city": "Quan H\u00f3a", "latitude": 20.38481, "longitude": 105.10024, "state": "Thanh H\u00f3a Province"}, {"city": "Qu\u1ea3ng Y\u00ean", "latitude": 20.9421, "longitude": 106.8027, "state": "Qu\u1ea3ng Ninh"}, {"city": "Th\u1ecb Tr\u1ea5n Qu\u1ea3ng Uy\u00ean", "latitude": 22.69499, "longitude": 106.44235, "state": "Cao B\u1eb1ng Province"}, {"city": "Ba \u0110\u1ed3n", "latitude": 17.75353, "longitude": 106.42355, "state": "Qu\u1ea3ng B\u00ecnh Province"}, {"city": "Qu\u00e1n H\u00e0u", "latitude": 17.40438, "longitude": 106.64072, "state": "Qu\u1ea3ng B\u00ecnh Province"}, {"city": "Qu\u1ea3ng Ng\u00e3i", "latitude": 15.12047, "longitude": 108.79232, "state": "Qu\u1ea3ng Ng\u00e3i Province"}, {"city": "Plei K\u1ea7n", "latitude": 14.70495, "longitude": 107.6862, "state": "Kon Tum"}, {"city": "Pleiku", "latitude": 13.98333, "longitude": 108.0, "state": "Gia Lai Province"}, {"city": "Ph\u00f9 Y\u00ean", "latitude": 21.26331, "longitude": 104.64439, "state": "S\u01a1n La Province"}, {"city": "Ph\u00fa Vang", "latitude": 16.43911, "longitude": 107.71438, "state": "Th\u1eeba Thi\u00ean Hu\u1ebf Province"}, {"city": "Ph\u00fa T\u00fac", "latitude": 13.19682, "longitude": 108.69043, "state": "Gia Lai Province"}, {"city": "Ph\u1ee7 Th\u00f4ng", "latitude": 22.27314, "longitude": 105.87943, "state": "B\u1eafc K\u1ea1n Province"}, {"city": "Ph\u00fa Th\u1ecd", "latitude": 21.39963, "longitude": 105.22221, "state": "Ph\u00fa Th\u1ecd Province"}, {"city": "D\u01b0\u01a1ng \u0110\u00f4ng", "latitude": 10.21716, "longitude": 103.95929, "state": "Ki\u00ean Giang Province"}, {"city": "Ph\u00fa Phong", "latitude": 13.90964, "longitude": 108.91903, "state": "\u00ecnh \u0110\u1ecbnh Province"}, {"city": "\u0110\u1ea1i \u0110\u1ed3ng", "latitude": 15.87439, "longitude": 108.02133, "state": "Qu\u1ea3ng Nam Province"}, {"city": "Ph\u01b0\u1edbc An", "latitude": 12.71298, "longitude": 108.30148, "state": "\u0110\u1eafk L\u1eafk"}, {"city": "Ph\u00f9 Ninh", "latitude": 21.08333, "longitude": 105.95, "state": "Hanoi"}, {"city": "Ph\u1ee5ng Hi\u1ec7p", "latitude": 9.77972, "longitude": 105.7338, "state": "H\u1eadu Giang"}, {"city": "Ph\u00f9 M\u1ef9", "latitude": 14.17182, "longitude": 109.04888, "state": "\u00ecnh \u0110\u1ecbnh Province"}, {"city": "Ph\u1ee7 L\u00fd", "latitude": 20.54531, "longitude": 105.91221, "state": "H\u00e0 Nam Province"}, {"city": "Ph\u00fa L\u1ed9c", "latitude": 16.28035, "longitude": 107.85898, "state": "Th\u1eeba Thi\u00ean Hu\u1ebf Province"}, {"city": "Ph\u00fa Kh\u01b0\u01a1ng", "latitude": 11.28333, "longitude": 106.13333, "state": "T\u00e2y Ninh Province"}, {"city": "Ph\u00fac Y\u00ean", "latitude": 21.23695, "longitude": 105.70483, "state": "V\u0129nh Ph\u00fac Province"}, {"city": "Ph\u00f9 C\u00e1t", "latitude": 14.00316, "longitude": 109.05804, "state": "\u00ecnh \u0110\u1ecbnh Province"}, {"city": "\u0110\u1ea1i C\u01b0\u1eddng", "latitude": 15.85, "longitude": 108.08333, "state": "Qu\u1ea3ng Nam Province"}, {"city": "Phong Th\u1ed5", "latitude": 22.54433, "longitude": 103.29776, "state": "Lai Ch\u00e2u Province"}, {"city": "Phong \u0110i\u1ec1n", "latitude": 16.58321, "longitude": 107.36438, "state": "Th\u1eeba Thi\u00ean Hu\u1ebf Province"}, {"city": "Phong \u0110i\u1ec1n", "latitude": 9.99753, "longitude": 105.6673, "state": "Can Tho"}, {"city": "Th\u1ecb Tr\u1ea5n Ph\u1ed1 Lu", "latitude": 22.31918, "longitude": 104.18719, "state": "L\u00e0o Cai Province"}, {"city": "Ph\u1ed1 Ch\u00e2u", "latitude": 18.51335, "longitude": 105.42411, "state": "H\u00e0 T\u0129nh Province"}, {"city": "B\u1ebfn Sung", "latitude": 19.63141, "longitude": 105.57815, "state": "Thanh H\u00f3a Province"}, {"city": "Ph\u00e1t Di\u1ec7m", "latitude": 20.09054, "longitude": 106.08323, "state": "Ninh B\u00ecnh Province"}, {"city": "Phan Thi\u1ebft", "latitude": 10.92889, "longitude": 108.10208, "state": "B\u00ecnh Thu\u1eadn Province"}, {"city": "Phan Rang-Th\u00e1p Ch\u00e0m", "latitude": 11.56432, "longitude": 108.98858, "state": "Ninh Thu\u1eadn Province"}, {"city": "\u00d4 M\u00f4n", "latitude": 10.10974, "longitude": 105.62318, "state": "Can Tho"}, {"city": "Th\u1ecb Tr\u1ea5n N\u01b0\u1edbc Hai", "latitude": 22.73738, "longitude": 106.15216, "state": "Cao B\u1eb1ng Province"}, {"city": "N\u00fai \u0110\u00e8o", "latitude": 20.91569, "longitude": 106.6744, "state": "Haiphong"}, {"city": "\u0110\u1ea1i Quang", "latitude": 15.86667, "longitude": 108.05, "state": "Qu\u1ea3ng Nam Province"}, {"city": "Ninh H\u00f2a", "latitude": 12.49187, "longitude": 109.12495, "state": "Kh\u00e1nh H\u00f2a Province"}, {"city": "Ninh Giang", "latitude": 20.73083, "longitude": 106.39789, "state": "H\u1ea3i D\u01b0\u01a1ng Province"}, {"city": "Ninh B\u00ecnh", "latitude": 20.25809, "longitude": 105.97965, "state": "Ninh B\u00ecnh Province"}, {"city": "Nh\u01b0 Qu\u1ef3nh", "latitude": 20.98167, "longitude": 105.98486, "state": "H\u01b0ng Y\u00ean Province"}, {"city": "Nho Quan", "latitude": 20.32279, "longitude": 105.75189, "state": "Ninh B\u00ecnh Province"}, {"city": "Nh\u01a1n Tr\u1ea1ch", "latitude": 10.72294, "longitude": 106.88341, "state": "\u0110\u1ed3ng Nai Province"}, {"city": "Nha Trang", "latitude": 12.24507, "longitude": 109.19432, "state": "Kh\u00e1nh H\u00f2a Province"}, {"city": "Nh\u00e0 B\u00e8", "latitude": 10.69672, "longitude": 106.74032, "state": "Ho Chi Minh"}, {"city": "Nh\u00e0 B\u00e0ng", "latitude": 10.61772, "longitude": 105.00343, "state": "An Giang Province"}, {"city": "Th\u1ecb Tr\u1ea5n Nguy\u00ean B\u00ecnh", "latitude": 22.64995, "longitude": 105.95985, "state": "Cao B\u1eb1ng Province"}, {"city": "Ng\u00f4 \u0110\u1ed3ng", "latitude": 20.28296, "longitude": 106.44347, "state": "Nam \u0110\u1ecbnh Province"}, {"city": "Ng\u1ecdc L\u1eb7c", "latitude": 20.09189, "longitude": 105.36761, "state": "Thanh H\u00f3a Province"}, {"city": "Ti\u1ec1n H\u1ea3i", "latitude": 20.40557, "longitude": 106.50365, "state": "Th\u00e1i B\u00ecnh Province"}, {"city": "Nghi Xu\u00e2n", "latitude": 18.66206, "longitude": 105.75575, "state": "H\u00e0 T\u0129nh Province"}, {"city": "Qu\u00e1n H\u00e0nh", "latitude": 18.77927, "longitude": 105.64597, "state": "Ngh\u1ec7 An Province"}, {"city": "Ngh\u0129a L\u1ed9", "latitude": 21.6, "longitude": 104.51667, "state": "Y\u00ean B\u00e1i Province"}, {"city": "Ngh\u0129a H\u00e0nh", "latitude": 15.04568, "longitude": 108.77724, "state": "Qu\u1ea3ng Ng\u00e3i Province"}, {"city": "Nga S\u01a1n", "latitude": 20.00722, "longitude": 105.97044, "state": "Thanh H\u00f3a Province"}, {"city": "V\u00e2n T\u00f9ng", "latitude": 22.43082, "longitude": 105.99687, "state": "B\u1eafc K\u1ea1n Province"}, {"city": "Th\u1ecb Tr\u1ea5n Ng\u1ea3i Giao", "latitude": 10.6471, "longitude": 107.24577, "state": "B\u00e0 R\u1ecba\u2013V\u0169ng T\u00e0u Province"}, {"city": "Th\u1ecb Tr\u1ea5n Na S\u1ea7m", "latitude": 22.05639, "longitude": 106.6151, "state": "L\u1ea1ng S\u01a1n Province"}, {"city": "Nam \u0110\u1ecbnh", "latitude": 20.43389, "longitude": 106.17729, "state": "Nam \u0110\u1ecbnh Province"}, {"city": "Nam \u0110\u00e0n", "latitude": 18.69799, "longitude": 105.49881, "state": "Ngh\u1ec7 An Province"}, {"city": "N\u0103m C\u0103n", "latitude": 8.75899, "longitude": 104.99285, "state": "C\u00e0 Mau Province"}, {"city": "M\u1ef9 Xuy\u00ean", "latitude": 9.56006, "longitude": 105.98984, "state": "S\u00f3c Tr\u0103ng Province"}, {"city": "M\u1ef9 Tho", "latitude": 10.36004, "longitude": 106.35996, "state": "Ti\u1ec1n Giang"}, {"city": "M\u1ef9 Th\u1ecd", "latitude": 10.44267, "longitude": 105.69508, "state": "\u0110\u1ed3ng Th\u00e1p Province"}, {"city": "M\u1ef9 L\u1ed9c", "latitude": 20.44111, "longitude": 106.10238, "state": "Nam \u0110\u1ecbnh Province"}, {"city": "Th\u1ea1nh M\u1ef9", "latitude": 15.74889, "longitude": 107.83678, "state": "Qu\u1ea3ng Nam Province"}, {"city": "M\u01b0\u1eddng Nh\u00e9", "latitude": 22.19236, "longitude": 102.4579, "state": "\u0110i\u1ec7n Bi\u00ean Province"}, {"city": "M\u01b0\u1eddng Lay", "latitude": 22.0, "longitude": 103.13333, "state": "\u0110i\u1ec7n Bi\u00ean Province"}, {"city": "Th\u1ecb Tr\u1ea5n M\u01b0\u1eddng Kh\u01b0\u01a1ng", "latitude": 22.76141, "longitude": 104.12156, "state": "L\u00e0o Cai Province"}, {"city": "M\u01b0\u1eddng L\u00e1t", "latitude": 20.52915, "longitude": 104.60138, "state": "Thanh H\u00f3a Province"}, {"city": "M\u00f9 Cang Ch\u1ea3i", "latitude": 21.85125, "longitude": 104.08954, "state": "Y\u00ean B\u00e1i Province"}, {"city": "M\u00f3ng C\u00e1i", "latitude": 21.52471, "longitude": 107.96619, "state": "Qu\u1ea3ng Ninh"}, {"city": "M\u1ed9 \u0110\u1ee9c", "latitude": 14.95513, "longitude": 108.88586, "state": "Qu\u1ea3ng Ng\u00e3i Province"}, {"city": "M\u1ed9c Ch\u00e2u", "latitude": 20.85199, "longitude": 104.62177, "state": "S\u01a1n La Province"}, {"city": "M\u1ecf C\u00e0y", "latitude": 10.13312, "longitude": 106.33519, "state": "B\u1ebfn Tre Province"}, {"city": "Minh L\u01b0\u01a1ng", "latitude": 9.90248, "longitude": 105.1595, "state": "Ki\u00ean Giang Province"}, {"city": "Minh Long", "latitude": 14.93218, "longitude": 108.70328, "state": "Qu\u1ea3ng Ng\u00e3i Province"}, {"city": "Th\u1ecb Tr\u1ea5n M\u00e8o V\u1ea1c", "latitude": 23.16411, "longitude": 105.40993, "state": "H\u00e0 Giang Province"}, {"city": "Ma \u0110a Gui", "latitude": 11.38702, "longitude": 107.53508, "state": "L\u00e2m \u0110\u1ed3ng Province"}, {"city": "Long Xuy\u00ean", "latitude": 10.38639, "longitude": 105.43518, "state": "An Giang Province"}, {"city": "Long Th\u00e0nh", "latitude": 10.78909, "longitude": 106.95029, "state": "\u0110\u1ed3ng Nai Province"}, {"city": "Long Ph\u00fa", "latitude": 9.61025, "longitude": 106.11881, "state": "S\u00f3c Tr\u0103ng Province"}, {"city": "Long M\u1ef9", "latitude": 9.68141, "longitude": 105.57226, "state": "H\u1eadu Giang"}, {"city": "L\u1ed9c Ninh", "latitude": 11.84476, "longitude": 106.59073, "state": "B\u00ecnh Ph\u01b0\u1edbc Province"}, {"city": "L\u1ed9c B\u00ecnh", "latitude": 21.75873, "longitude": 106.92335, "state": "L\u1ea1ng S\u01a1n Province"}, {"city": "Li\u1ec5u \u0110\u1ec1", "latitude": 20.22095, "longitude": 106.18747, "state": "Nam \u0110\u1ecbnh Province"}, {"city": "Li\u00ean H\u01b0\u01a1ng", "latitude": 11.22761, "longitude": 108.72366, "state": "B\u00ecnh Thu\u1eadn Province"}, {"city": "Ki\u1ebfn Giang", "latitude": 17.22328, "longitude": 106.79011, "state": "Qu\u1ea3ng B\u00ecnh Province"}, {"city": "L\u1ea5p V\u00f2", "latitude": 10.36161, "longitude": 105.51924, "state": "\u0110\u1ed3ng Th\u00e1p Province"}, {"city": "Lao Ch\u1ea3i", "latitude": 22.31377, "longitude": 103.86844, "state": "L\u00e0o Cai Province"}, {"city": "L\u00e0o Cai", "latitude": 22.48556, "longitude": 103.97066, "state": "L\u00e0o Cai Province"}, {"city": "L\u1ea1ng S\u01a1n", "latitude": 21.85264, "longitude": 106.76101, "state": "L\u1ea1ng S\u01a1n Province"}, {"city": "Th\u1ecb Tr\u1ea5n Ph\u01b0\u1edbc B\u1eedu", "latitude": 10.53472, "longitude": 107.40202, "state": "B\u00e0 R\u1ecba\u2013V\u0169ng T\u00e0u Province"}, {"city": "L\u0169ng H\u1ed3", "latitude": 22.98479, "longitude": 105.23983, "state": "H\u00e0 Giang Province"}, {"city": "Lang Ch\u00e1nh", "latitude": 20.15611, "longitude": 105.24223, "state": "Thanh H\u00f3a Province"}, {"city": "Th\u1ecb Tr\u1ea5n Lai Vung", "latitude": 10.28701, "longitude": 105.6617, "state": "\u0110\u1ed3ng Th\u00e1p Province"}, {"city": "L\u00e1i Thi\u00eau", "latitude": 10.90512, "longitude": 106.69949, "state": "B\u00ecnh D\u01b0\u01a1ng Province"}, {"city": "Lai C\u00e1ch", "latitude": 20.93252, "longitude": 106.24756, "state": "H\u1ea3i D\u01b0\u01a1ng Province"}, {"city": "La Gi", "latitude": 10.65993, "longitude": 107.77206, "state": "B\u00ecnh Thu\u1eadn Province"}, {"city": "L\u1eafk", "latitude": 12.41086, "longitude": 108.17682, "state": "\u0110\u1eafk L\u1eafk"}, {"city": "L\u1ea1c D\u01b0\u01a1ng", "latitude": 12.00405, "longitude": 108.41905, "state": "L\u00e2m \u0110\u1ed3ng Province"}, {"city": "M\u01b0\u1eddng X\u00e9n", "latitude": 19.39795, "longitude": 104.15239, "state": "Ngh\u1ec7 An Province"}, {"city": "K\u1ef3 Anh", "latitude": 18.06243, "longitude": 106.29832, "state": "H\u00e0 T\u0129nh Province"}, {"city": "Kon Tum", "latitude": 14.35451, "longitude": 108.00759, "state": null}, {"city": "Kinh M\u00f4n", "latitude": 20.98962, "longitude": 106.5551, "state": "H\u1ea3i D\u01b0\u01a1ng Province"}, {"city": "Kim B\u00e0i", "latitude": 20.85265, "longitude": 105.76963, "state": "Hanoi"}, {"city": "Ki\u00ean L\u01b0\u01a1ng", "latitude": 10.28624, "longitude": 104.64616, "state": "Ki\u00ean Giang Province"}, {"city": "Khe Sanh", "latitude": 16.62825, "longitude": 106.73884, "state": "Qu\u1ea3ng Tr\u1ecb Province"}, {"city": "Th\u1ecb Tr\u1ea5n Kh\u00e1nh Y\u00ean", "latitude": 22.08935, "longitude": 104.25149, "state": "L\u00e0o Cai Province"}, {"city": "K\u1ebb S\u1eb7t", "latitude": 20.91007, "longitude": 106.14771, "state": "H\u1ea3i D\u01b0\u01a1ng Province"}, {"city": "K\u1ebf S\u00e1ch", "latitude": 9.76743, "longitude": 105.98574, "state": "S\u00f3c Tr\u0103ng Province"}, {"city": "H\u1eefu L\u0169ng", "latitude": 21.5056, "longitude": 106.34459, "state": "L\u1ea1ng S\u01a1n Province"}, {"city": "H\u01b0\u01a1ng Tr\u00e0", "latitude": 16.52539, "longitude": 107.4755, "state": "Th\u1eeba Thi\u00ean Hu\u1ebf Province"}, {"city": "H\u01b0\u01a1ng Kh\u00ea", "latitude": 18.17669, "longitude": 105.70019, "state": "H\u00e0 T\u0129nh Province"}, {"city": "H\u01b0\u01a1ng Canh", "latitude": 21.27882, "longitude": 105.64697, "state": "V\u0129nh Ph\u00fac Province"}, {"city": "H\u01b0ng Y\u00ean", "latitude": 20.64637, "longitude": 106.05112, "state": "H\u01b0ng Y\u00ean Province"}, {"city": "Hu\u1ebf", "latitude": 16.4619, "longitude": 107.59546, "state": "Th\u1eeba Thi\u00ean Hu\u1ebf Province"}, {"city": "H\u1ed3 X\u00e1", "latitude": 17.06836, "longitude": 107.0052, "state": "Qu\u1ea3ng Tr\u1ecb Province"}, {"city": "B\u00ecnh Long", "latitude": 11.64711, "longitude": 106.60586, "state": "B\u00ecnh Ph\u01b0\u1edbc Province"}, {"city": "H\u1ea1 Long", "latitude": 20.95045, "longitude": 107.07336, "state": "Qu\u1ea3ng Ninh"}, {"city": "H\u00f2n \u0110\u1ea5t", "latitude": 10.18462, "longitude": 104.92959, "state": "Ki\u00ean Giang Province"}, {"city": "Hoi An", "latitude": 15.87944, "longitude": 108.335, "state": "Qu\u1ea3ng Nam Province"}, {"city": "H\u00f3c M\u00f4n", "latitude": 10.8891, "longitude": 106.59533, "state": "Ho Chi Minh"}, {"city": "H\u00f2a Vang", "latitude": 15.98764, "longitude": 108.13893, "state": "Da Nang"}, {"city": "H\u00f2a M\u1ea1c", "latitude": 20.64173, "longitude": 105.989, "state": "H\u00e0 Nam Province"}, {"city": "Ho\u00e0i \u00c2n", "latitude": 14.36352, "longitude": 108.96476, "state": "\u00ecnh \u0110\u1ecbnh Province"}, {"city": "H\u00f2a B\u00ecnh", "latitude": 20.81717, "longitude": 105.33759, "state": "H\u00f2a B\u00ecnh Province"}, {"city": "Hi\u1ec7p \u0110\u1ee9c", "latitude": 15.58224, "longitude": 108.11422, "state": "Qu\u1ea3ng Nam Province"}, {"city": "H\u00e0 T\u0129nh", "latitude": 18.34282, "longitude": 105.90569, "state": "H\u00e0 T\u0129nh Province"}, {"city": "H\u00e0 Ti\u00ean", "latitude": 10.3831, "longitude": 104.48753, "state": "Ki\u00ean Giang Province"}, {"city": "Hanoi", "latitude": 21.0245, "longitude": 105.84117, "state": null}, {"city": "Th\u1ecb Tr\u1ea5n Thanh Nh\u1eadt", "latitude": 22.68749, "longitude": 106.67004, "state": "Cao B\u1eb1ng Province"}, {"city": "H\u00e0 Lam", "latitude": 15.73871, "longitude": 108.35062, "state": "Qu\u1ea3ng Nam Province"}, {"city": "Haiphong", "latitude": 20.86481, "longitude": 106.68345, "state": null}, {"city": "H\u1ea3i L\u0103ng", "latitude": 16.69347, "longitude": 107.25124, "state": "Qu\u1ea3ng Tr\u1ecb Province"}, {"city": "H\u1ea3i D\u01b0\u01a1ng", "latitude": 20.94099, "longitude": 106.33302, "state": "H\u1ea3i D\u01b0\u01a1ng Province"}, {"city": "H\u1ea1 H\u00f2a", "latitude": 21.56302, "longitude": 105.00512, "state": "Ph\u00fa Th\u1ecd Province"}, {"city": "H\u00e0 Giang", "latitude": 22.82333, "longitude": 104.98357, "state": "H\u00e0 Giang Province"}, {"city": "H\u00e0 \u0110\u00f4ng", "latitude": 20.97136, "longitude": 105.77876, "state": "Hanoi"}, {"city": "G\u00f2 Quao", "latitude": 9.7332, "longitude": 105.27393, "state": "Ki\u00ean Giang Province"}, {"city": "G\u00f2 C\u00f4ng", "latitude": 10.36667, "longitude": 106.66667, "state": "Ti\u1ec1n Giang"}, {"city": "Gi\u1ed3ng Ri\u1ec1ng", "latitude": 9.90974, "longitude": 105.31433, "state": "Ki\u00ean Giang Province"}, {"city": "Gio Linh", "latitude": 16.9248, "longitude": 107.08438, "state": "Qu\u1ea3ng Tr\u1ecb Province"}, {"city": "Gia Ngh\u0129a", "latitude": 12.00423, "longitude": 107.69074, "state": "\u0110\u0103k N\u00f4ng Province"}, {"city": "Duy Xuy\u00ean", "latitude": 15.82898, "longitude": 108.25956, "state": "Qu\u1ea3ng Nam Province"}, {"city": "\u0110\u01b0c Tr\u1ecdng", "latitude": 11.73559, "longitude": 108.3733, "state": "L\u00e2m \u0110\u1ed3ng Province"}, {"city": "\u0110\u1ee9c Th\u1ecd", "latitude": 18.53957, "longitude": 105.58302, "state": "H\u00e0 T\u0129nh Province"}, {"city": "\u0110\u1ee9c Phong", "latitude": 11.81346, "longitude": 107.24433, "state": "B\u00ecnh Ph\u01b0\u1edbc Province"}, {"city": "\u0110\u1ee9c Ph\u1ed5", "latitude": 14.81355, "longitude": 108.95931, "state": "Qu\u1ea3ng Ng\u00e3i Province"}, {"city": "\u0110\u1eafk Mil", "latitude": 12.44957, "longitude": 107.62237, "state": "\u0110\u0103k N\u00f4ng Province"}, {"city": "\u0110\u1ed3ng Xu\u00e2n", "latitude": 13.37732, "longitude": 109.10807, "state": "Ph\u00fa Y\u00ean Province"}, {"city": "\u0110\u1ed3ng Xo\u00e0i", "latitude": 11.53495, "longitude": 106.88324, "state": "B\u00ecnh Ph\u01b0\u1edbc Province"}, {"city": "Th\u1ecb Tr\u1ea5n \u0110\u1ed3ng V\u0103n", "latitude": 23.27841, "longitude": 105.36291, "state": "H\u00e0 Giang Province"}, {"city": "\u0110\u1ed3ng M\u1ecf", "latitude": 21.65701, "longitude": 106.57832, "state": "L\u1ea1ng S\u01a1n Province"}, {"city": "Th\u1ecb Tr\u1ea5n \u0110\u00f4ng Kh\u00ea", "latitude": 22.42939, "longitude": 106.43194, "state": "Cao B\u1eb1ng Province"}, {"city": "\u0110\u1ed3ng H\u1edbi", "latitude": 17.46885, "longitude": 106.62226, "state": "Qu\u1ea3ng B\u00ecnh Province"}, {"city": "\u00d0\u00f4ng H\u00e0", "latitude": 16.81625, "longitude": 107.10031, "state": "Qu\u1ea3ng Tr\u1ecb Province"}, {"city": "Th\u1ecb Tr\u1ea5n \u0110\u1ed3ng \u0110\u0103ng", "latitude": 21.9511, "longitude": 106.69767, "state": "L\u1ea1ng S\u01a1n Province"}, {"city": "Anh Son", "latitude": 18.96961, "longitude": 105.05505, "state": "Ngh\u1ec7 An Province"}, {"city": "\u0110oan H\u00f9ng", "latitude": 21.62254, "longitude": 105.18462, "state": "Ph\u00fa Th\u1ecd Province"}, {"city": "\u0110\u00ecnh L\u1eadp", "latitude": 21.54633, "longitude": 107.09812, "state": "L\u1ea1ng S\u01a1n Province"}, {"city": "Di Linh", "latitude": 11.58153, "longitude": 108.07641, "state": "L\u00e2m \u0110\u1ed3ng Province"}, {"city": "Di\u00ean Kh\u00e1nh", "latitude": 12.2549, "longitude": 109.09332, "state": "Kh\u00e1nh H\u00f2a Province"}, {"city": "Di\u1ec5n Ch\u00e2u", "latitude": 18.97652, "longitude": 105.60034, "state": "Ngh\u1ec7 An Province"}, {"city": "Dien Bien Phu", "latitude": 21.38602, "longitude": 103.02301, "state": "\u0110i\u1ec7n Bi\u00ean Province"}, {"city": "\u0110i\u1ec7n B\u00e0n", "latitude": 15.88853, "longitude": 108.25447, "state": "Qu\u1ea3ng Nam Province"}, {"city": "Di\u00eam \u0110i\u1ec1n", "latitude": 20.55832, "longitude": 106.56882, "state": "Th\u00e1i B\u00ecnh Province"}, {"city": "D\u0129 An", "latitude": 10.90682, "longitude": 106.7694, "state": "B\u00ecnh D\u01b0\u01a1ng Province"}, {"city": "D\u1ea7u Ti\u1ebfng", "latitude": 11.2741, "longitude": 106.35879, "state": "B\u00ecnh D\u01b0\u01a1ng Province"}, {"city": "Th\u1ecb Tr\u1ea5n \u0110\u1ea5t \u0110\u1ecf", "latitude": 10.49093, "longitude": 107.27014, "state": "B\u00e0 R\u1ecba\u2013V\u0169ng T\u00e0u Province"}, {"city": "Da Nang", "latitude": 16.06778, "longitude": 108.22083, "state": null}, {"city": "\u00d0\u00e0 L\u1ea1t", "latitude": 11.94646, "longitude": 108.44193, "state": "L\u00e2m \u0110\u1ed3ng Province"}, {"city": "\u0110\u1eafk Song", "latitude": 12.25518, "longitude": 107.60924, "state": "\u0110\u0103k N\u00f4ng Province"}, {"city": "\u0110\u1ea1i L\u1ed9c", "latitude": 15.88214, "longitude": 108.12092, "state": "Qu\u1ea3ng Nam Province"}, {"city": "\u0110\u1eafk T\u00f4", "latitude": 14.66092, "longitude": 107.8389, "state": "Kon Tum"}, {"city": "C\u1ee7ng S\u01a1n", "latitude": 13.04998, "longitude": 108.97895, "state": "Ph\u00fa Y\u00ean Province"}, {"city": "C\u1ee7 Chi", "latitude": 10.97333, "longitude": 106.49325, "state": "Ho Chi Minh"}, {"city": "C\u1edd \u0110\u1ecf", "latitude": 10.09377, "longitude": 105.42916, "state": "Can Tho"}, {"city": "C\u00f4n S\u01a1n", "latitude": 8.68641, "longitude": 106.60824, "state": "B\u00e0 R\u1ecba\u2013V\u0169ng T\u00e0u Province"}, {"city": "Con Cu\u00f4ng", "latitude": 19.04996, "longitude": 104.88124, "state": "Ngh\u1ec7 An Province"}, {"city": "C\u1ed5 L\u00f3a", "latitude": 21.11667, "longitude": 105.86667, "state": "Hanoi"}, {"city": "Ch\u00fac S\u01a1n", "latitude": 20.92375, "longitude": 105.70155, "state": "Hanoi"}, {"city": "Ch\u0169", "latitude": 21.37379, "longitude": 106.56649, "state": "B\u1eafc Giang Province"}, {"city": "Ch\u01a1n Th\u00e0nh", "latitude": 11.42821, "longitude": 106.63536, "state": "B\u00ecnh Ph\u01b0\u1edbc Province"}, {"city": "Ch\u1ee3 M\u1edbi", "latitude": 21.88374, "longitude": 105.77281, "state": "B\u1eafc K\u1ea1n Province"}, {"city": "Ch\u1ee3 M\u1edbi", "latitude": 10.55123, "longitude": 105.40441, "state": "An Giang Province"}, {"city": "Ch\u1ee3 L\u00e1ch", "latitude": 10.26032, "longitude": 106.11892, "state": "B\u1ebfn Tre Province"}, {"city": "Gi\u1ed3ng Tr\u00f4m", "latitude": 10.15021, "longitude": 106.50606, "state": "B\u1ebfn Tre Province"}, {"city": "Ch\u1ee3 G\u1ea1o", "latitude": 10.34984, "longitude": 106.4634, "state": "Ti\u1ec1n Giang"}, {"city": "Ch\u1ee3 Chu", "latitude": 21.90724, "longitude": 105.64219, "state": "Th\u00e1i Nguy\u00ean Province"}, {"city": "Ch\u00ed Th\u1ea1nh", "latitude": 13.30845, "longitude": 109.21522, "state": "Ph\u00fa Y\u00ean Province"}, {"city": "Chi N\u00ea", "latitude": 20.49056, "longitude": 105.778, "state": "H\u00f2a B\u00ecnh Province"}, {"city": "Ch\u00ed Linh", "latitude": 21.06667, "longitude": 106.31667, "state": "H\u1ea3i D\u01b0\u01a1ng Province"}, {"city": "Ch\u00e2u \u0110\u1ed1c", "latitude": 10.7, "longitude": 105.11667, "state": "An Giang Province"}, {"city": "C\u1ea7u K\u00e8", "latitude": 9.8724, "longitude": 106.05497, "state": "Tr\u00e0 Vinh Province"}, {"city": "C\u1ea7u Gi\u00e1t", "latitude": 19.146, "longitude": 105.63089, "state": "Ngh\u1ec7 An Province"}, {"city": "C\u00e1t B\u00e0", "latitude": 20.72779, "longitude": 107.04819, "state": "Haiphong"}, {"city": "Cao Th\u01b0\u1ee3ng", "latitude": 21.38707, "longitude": 106.12931, "state": "B\u1eafc Giang Province"}, {"city": "Cao L\u00e3nh", "latitude": 10.46017, "longitude": 105.63294, "state": "\u0110\u1ed3ng Th\u00e1p Province"}, {"city": "Cao B\u1eb1ng", "latitude": 22.66568, "longitude": 106.25786, "state": "Cao B\u1eb1ng Province"}, {"city": "C\u1ea7n Th\u01a1", "latitude": 10.03711, "longitude": 105.78825, "state": "Can Tho"}, {"city": "C\u1ea7n Gi\u1edd", "latitude": 10.41115, "longitude": 106.95474, "state": "Ho Chi Minh"}, {"city": "C\u1ea7n \u0110\u01b0\u1edbc", "latitude": 10.50966, "longitude": 106.60308, "state": "Long An Povince"}, {"city": "C\u1ea7n Giu\u1ed9c", "latitude": 10.60857, "longitude": 106.67135, "state": "Long An Povince"}, {"city": "C\u1ea9m Xuy\u00ean", "latitude": 18.25029, "longitude": 106.00132, "state": "H\u00e0 T\u0129nh Province"}, {"city": "C\u1ea9m Th\u1ee7y", "latitude": 20.20866, "longitude": 105.4695, "state": "Thanh H\u00f3a Province"}, {"city": "Cam Ranh", "latitude": 11.92144, "longitude": 109.15913, "state": "Kh\u00e1nh H\u00f2a Province"}, {"city": "C\u1ea9m Ph\u1ea3 Mines", "latitude": 21.01667, "longitude": 107.3, "state": "Qu\u1ea3ng Ninh"}, {"city": "C\u1ea9m Ph\u1ea3", "latitude": 21.01004, "longitude": 107.27345, "state": "Qu\u1ea3ng Ninh"}, {"city": "Cam L\u1ed9", "latitude": 16.80797, "longitude": 106.99405, "state": "Qu\u1ea3ng Tr\u1ecb Province"}, {"city": "C\u00e0 Mau", "latitude": 9.17682, "longitude": 105.15242, "state": "C\u00e0 Mau Province"}, {"city": "C\u00e1i T\u00e0u H\u1ea1", "latitude": 10.25973, "longitude": 105.87044, "state": "\u0110\u1ed3ng Th\u00e1p Province"}, {"city": "C\u00e1i R\u0103ng", "latitude": 10.0009, "longitude": 105.75095, "state": "Can Tho"}, {"city": "C\u00e1i N\u01b0\u1edbc", "latitude": 8.94231, "longitude": 105.01411, "state": "C\u00e0 Mau Province"}, {"city": "C\u00e1i Nhum", "latitude": 10.17412, "longitude": 106.11051, "state": "V\u0129nh Long Province"}, {"city": "Bu\u00f4n Tr\u1ea5p", "latitude": 12.48478, "longitude": 108.02982, "state": "\u0110\u1eafk L\u1eafk"}, {"city": "Bu\u00f4n Ma Thu\u1ed9t", "latitude": 12.66747, "longitude": 108.03775, "state": "\u0110\u1eafk L\u1eafk"}, {"city": "Bu\u00f4n H\u1ed3", "latitude": 12.95226, "longitude": 108.2962, "state": "\u0110\u1eafk L\u1eafk"}, {"city": "Ho\u00e0n L\u00e3o", "latitude": 17.58436, "longitude": 106.53425, "state": "Qu\u1ea3ng B\u00ecnh Province"}, {"city": "B\u1ed3ng S\u01a1n", "latitude": 14.42907, "longitude": 109.0156, "state": "\u00ecnh \u0110\u1ecbnh Province"}, {"city": "B\u00f9 \u0110\u1ed1p", "latitude": 11.95486, "longitude": 106.80018, "state": "B\u00ecnh Ph\u01b0\u1edbc Province"}, {"city": "B\u00ecnh Th\u1ee7y", "latitude": 10.07431, "longitude": 105.73974, "state": "Can Tho"}, {"city": "B\u00ecnh S\u01a1n", "latitude": 15.29776, "longitude": 108.76124, "state": "Qu\u1ea3ng Ng\u00e3i Province"}, {"city": "B\u00ecnh Gia", "latitude": 21.96094, "longitude": 106.36448, "state": "L\u1ea1ng S\u01a1n Province"}, {"city": "B\u00ecnh \u0110\u1ea1i", "latitude": 10.18964, "longitude": 106.69149, "state": "B\u1ebfn Tre Province"}, {"city": "T\u00e2n T\u00fac", "latitude": 10.69541, "longitude": 106.59128, "state": "Ho Chi Minh"}, {"city": "B\u1ec9m S\u01a1n", "latitude": 20.07806, "longitude": 105.86028, "state": "Thanh H\u00f3a Province"}, {"city": "Bi\u00ean H\u00f2a", "latitude": 10.94469, "longitude": 106.82432, "state": "\u0110\u1ed3ng Nai Province"}, {"city": "B\u1ebfn Tre", "latitude": 10.24147, "longitude": 106.37585, "state": "B\u1ebfn Tre Province"}, {"city": "B\u1ebfn C\u1ea7u", "latitude": 11.11051, "longitude": 106.17924, "state": "T\u00e2y Ninh Province"}, {"city": "Ba Tri", "latitude": 10.04427, "longitude": 106.5902, "state": "B\u1ebfn Tre Province"}, {"city": "Ba T\u01a1", "latitude": 14.7636, "longitude": 108.73223, "state": "Qu\u1ea3ng Ng\u00e3i Province"}, {"city": "Th\u1ecb Tr\u1ea5n Ph\u1ed1 R\u00e0ng", "latitude": 22.23429, "longitude": 104.47643, "state": "L\u00e0o Cai Province"}, {"city": "B\u1ea3o L\u1ed9c", "latitude": 11.54798, "longitude": 107.80772, "state": "L\u00e2m \u0110\u1ed3ng Province"}, {"city": "Th\u1ecb Tr\u1ea5n B\u1ea3o L\u1ea1c", "latitude": 22.94924, "longitude": 105.68046, "state": "Cao B\u1eb1ng Province"}, {"city": "B\u1ea9n Y\u00ean Nh\u00e2n", "latitude": 20.93653, "longitude": 106.05711, "state": "H\u01b0ng Y\u00ean Province"}, {"city": "\u00cdt Ong", "latitude": 21.5175, "longitude": 104.02701, "state": "S\u01a1n La Province"}, {"city": "Th\u1ecb Tr\u1ea5n Thu\u1eadn Ch\u00e2u", "latitude": 21.43849, "longitude": 103.69, "state": "S\u01a1n La Province"}, {"city": "B\u1eafc Y\u00ean", "latitude": 21.24626, "longitude": 104.43281, "state": "S\u01a1n La Province"}, {"city": "B\u1eafc S\u01a1n", "latitude": 21.89999, "longitude": 106.32077, "state": "L\u1ea1ng S\u01a1n Province"}, {"city": "B\u1eafc Ninh", "latitude": 21.18608, "longitude": 106.07631, "state": "B\u1eafc Ninh Province"}, {"city": "B\u1ea1c Li\u00eau", "latitude": 9.29414, "longitude": 105.72776, "state": "B\u1ea1c Li\u00eau Province"}, {"city": "B\u1eafc H\u00e0", "latitude": 22.53911, "longitude": 104.29305, "state": "L\u00e0o Cai Province"}, {"city": "B\u1eafc Giang", "latitude": 21.27307, "longitude": 106.1946, "state": "B\u1eafc Giang Province"}, {"city": "B\u1eafc K\u1ea1n", "latitude": 22.14701, "longitude": 105.83481, "state": "B\u1eafc K\u1ea1n Province"}, {"city": "T\u00e2n Tr\u1ee5", "latitude": 10.51271, "longitude": 106.50762, "state": "Long An Povince"}, {"city": "\u1ea4p T\u00e2n Ng\u00e3i", "latitude": 10.23333, "longitude": 106.28333, "state": "B\u1ebfn Tre Province"}, {"city": "An H\u00f2a", "latitude": 10.29693, "longitude": 105.74435, "state": "\u0110\u1ed3ng Th\u00e1p Province"}, {"city": "An Nh\u01a1n", "latitude": 13.88579, "longitude": 109.10823, "state": "\u00ecnh \u0110\u1ecbnh Province"}, {"city": "An L\u00e3o", "latitude": 14.61241, "longitude": 108.8899, "state": "\u00ecnh \u0110\u1ecbnh Province"}, {"city": "An D\u01b0\u01a1ng", "latitude": 20.86382, "longitude": 106.6133, "state": "Haiphong"}, {"city": "An Ch\u00e2u", "latitude": 21.33465, "longitude": 106.84934, "state": "B\u1eafc Giang Province"}, {"city": "An Bi\u00ean", "latitude": 9.81532, "longitude": 105.06366, "state": "Ki\u00ean Giang Province"}, {"city": "A L\u01b0\u1edbi", "latitude": 16.27228, "longitude": 107.23385, "state": "Th\u1eeba Thi\u00ean Hu\u1ebf Province"}, {"city": "Qu\u1eadn B\u1ea3y", "latitude": 10.7118, "longitude": 106.73643, "state": "Ho Chi Minh"}, {"city": "Tam \u0110i\u1ec7p", "latitude": 20.15635, "longitude": 105.91737, "state": "Ninh B\u00ecnh Province"}, {"city": "Ch\u00e2u Th\u00e0nh", "latitude": 9.86989, "longitude": 106.34939, "state": "Tr\u00e0 Vinh Province"}, {"city": "Uyen Hung", "latitude": 11.08416, "longitude": 106.78834, "state": "B\u00ecnh D\u01b0\u01a1ng Province"}, {"city": "Y\u00ean L\u1eadp", "latitude": 21.34705, "longitude": 105.05739, "state": "Ph\u00fa Th\u1ecd Province"}, {"city": "Thanh Ba", "latitude": 21.49881, "longitude": 105.14104, "state": "Ph\u00fa Th\u1ecd Province"}, {"city": "S\u00f4ng Thao", "latitude": 21.4213, "longitude": 105.13374, "state": "Ph\u00fa Th\u1ecd Province"}, {"city": "H\u01b0ng H\u00f3a", "latitude": 21.25487, "longitude": 105.2953, "state": "Ph\u00fa Th\u1ecd Province"}, {"city": "Phong Ch\u00e2u", "latitude": 21.4068, "longitude": 105.31228, "state": "Ph\u00fa Th\u1ecd Province"}, {"city": "Th\u1ecb Tr\u1ea5n T\u00e2n Y\u00ean", "latitude": 22.0655, "longitude": 105.0345, "state": "Tuy\u00ean Quang Province"}, {"city": "T\u00e2n Vi\u1ec7t", "latitude": 22.86407, "longitude": 105.45905, "state": "Cao B\u1eb1ng Province"}, {"city": "P\u00e1c Mi\u1ea7u", "latitude": 22.82968, "longitude": 105.49334, "state": "Cao B\u1eb1ng Province"}, {"city": "L\u1eadp Th\u1ea1ch", "latitude": 21.41539, "longitude": 105.46081, "state": "V\u0129nh Ph\u00fac Province"}, {"city": "An Ch\u00e2u", "latitude": 10.44559, "longitude": 105.38622, "state": "An Giang Province"}, {"city": "N\u00fai S\u1eadp", "latitude": 10.26478, "longitude": 105.26676, "state": "An Giang Province"}, {"city": "T\u1ea7m Vu", "latitude": 10.44114, "longitude": 106.46793, "state": "Long An Povince"}, {"city": "Gia B\u00ecnh", "latitude": 21.05938, "longitude": 106.17468, "state": "B\u1eafc Ninh Province"}, {"city": "Th\u1ee9a", "latitude": 21.01937, "longitude": 106.20044, "state": "B\u1eafc Ninh Province"}, {"city": "Ch\u1edd", "latitude": 21.19491, "longitude": 105.95471, "state": "B\u1eafc Ninh Province"}, {"city": "Ph\u1ed1 M\u1edbi", "latitude": 21.15328, "longitude": 106.15164, "state": "B\u1eafc Ninh Province"}, {"city": "H\u1ed3", "latitude": 21.06308, "longitude": 106.0857, "state": "B\u1eafc Ninh Province"}, {"city": "Lim", "latitude": 21.14388, "longitude": 106.02018, "state": "B\u1eafc Ninh Province"}, {"city": "Cung Ki\u1ec7m", "latitude": 21.18697, "longitude": 106.16076, "state": "B\u1eafc Ninh Province"}, {"city": "Th\u1ecb Tr\u1ea5n G\u00e0nh H\u00e0o", "latitude": 9.03183, "longitude": 105.42115, "state": "B\u1ea1c Li\u00eau Province"}, {"city": "Th\u1ecb Tr\u1ea5n Ngan D\u1eeba", "latitude": 9.56703, "longitude": 105.45019, "state": "B\u1ea1c Li\u00eau Province"}, {"city": "Th\u1ecb Tr\u1ea5n Ph\u01b0\u1edbc Long", "latitude": 9.43753, "longitude": 105.46217, "state": "B\u1ea1c Li\u00eau Province"}, {"city": "Th\u1ecb Tr\u1ea5n Gi\u00e1 Rai", "latitude": 9.23789, "longitude": 105.45524, "state": "B\u1ea1c Li\u00eau Province"}, {"city": "Th\u1ecb Tr\u1ea5n H\u00f2a B\u00ecnh", "latitude": 9.28471, "longitude": 105.62916, "state": "B\u1ea1c Li\u00eau Province"}, {"city": "C\u00e1i D\u1ea7u", "latitude": 10.56982, "longitude": 105.22953, "state": "An Giang Province"}, {"city": "C\u1ea7u G\u1ed3", "latitude": 21.47679, "longitude": 106.12653, "state": "B\u1eafc Giang Province"}, {"city": "\u0110\u1ed3i Ng\u00f4", "latitude": 21.30626, "longitude": 106.38673, "state": "B\u1eafc Giang Province"}, {"city": "Neo", "latitude": 21.20048, "longitude": 106.24739, "state": "B\u1eafc Giang Province"}, {"city": "B\u00edch \u0110\u1ed9ng", "latitude": 21.27421, "longitude": 106.10069, "state": "B\u1eafc Giang Province"}, {"city": "Th\u1eafng", "latitude": 21.35505, "longitude": 105.98344, "state": "B\u1eafc Giang Province"}, {"city": "B\u1ed9c B\u1ed1", "latitude": 22.61206, "longitude": 105.66707, "state": "B\u1eafc K\u1ea1n Province"}, {"city": "B\u1eb1ng L\u0169ng", "latitude": 22.15777, "longitude": 105.59559, "state": "B\u1eafc K\u1ea1n Province"}, {"city": "Th\u1ecb Tr\u1ea5n Long \u0110i\u1ec1n", "latitude": 10.48557, "longitude": 107.21226, "state": "B\u00e0 R\u1ecba\u2013V\u0169ng T\u00e0u Province"}, {"city": "M\u01b0\u1eddng Ch\u00e0", "latitude": 21.76172, "longitude": 103.09783, "state": "\u0110i\u1ec7n Bi\u00ean Province"}, {"city": "Th\u1ecb Tr\u1ea5n T\u1ee7a Ch\u00f9a", "latitude": 21.85771, "longitude": 103.3426, "state": "\u0110i\u1ec7n Bi\u00ean Province"}, {"city": "\u0110i\u1ec7n Bi\u00ean \u0110\u00f4ng", "latitude": 21.29673, "longitude": 103.22009, "state": "\u0110i\u1ec7n Bi\u00ean Province"}, {"city": "Th\u1ecb Tr\u1ea5n \u0110i\u1ec7n Bi\u00ean", "latitude": 21.2596, "longitude": 103.0344, "state": "\u0110i\u1ec7n Bi\u00ean Province"}, {"city": "Tam \u0110\u01b0\u1eddng", "latitude": 22.31812, "longitude": 103.62619, "state": "Lai Ch\u00e2u Province"}, {"city": "Lai Ch\u00e2u", "latitude": 22.39644, "longitude": 103.45824, "state": "Lai Ch\u00e2u Province"}, {"city": "Th\u1ecb Tr\u1ea5n M\u01b0\u1eddng T\u00e8", "latitude": 22.38067, "longitude": 102.82011, "state": "Lai Ch\u00e2u Province"}, {"city": "Th\u1ecb Tr\u1ea5n Tam S\u01a1n", "latitude": 23.0674, "longitude": 104.98926, "state": "H\u00e0 Giang Province"}, {"city": "Th\u1ecb Tr\u1ea5n V\u1ecb Xuy\u00ean", "latitude": 22.66762, "longitude": 104.98191, "state": "H\u00e0 Giang Province"}, {"city": "Th\u1ecb Tr\u1ea5n Vi\u1ec7t L\u00e2m", "latitude": 22.62486, "longitude": 104.95988, "state": "H\u00e0 Giang Province"}, {"city": "Th\u1ecb Tr\u1ea5n Vi\u1ec7t Quang", "latitude": 22.41509, "longitude": 104.80682, "state": "H\u00e0 Giang Province"}, {"city": "Y\u00ean Ph\u00fa", "latitude": 22.73223, "longitude": 105.37145, "state": "H\u00e0 Giang Province"}, {"city": "Th\u1ecb Tr\u1ea5n Vinh Quang", "latitude": 22.74085, "longitude": 104.67956, "state": "H\u00e0 Giang Province"}, {"city": "Y\u00ean B\u00ecnh", "latitude": 22.40989, "longitude": 104.57949, "state": "H\u00e0 Giang Province"}, {"city": "Th\u1ecb Tr\u1ea5n Th\u00f4ng N\u00f4ng", "latitude": 22.7841, "longitude": 105.9832, "state": "Cao B\u1eb1ng Province"}, {"city": "Th\u1ecb Tr\u1ea5n Xu\u00e2n Ho\u00e0", "latitude": 22.90243, "longitude": 106.07737, "state": "Cao B\u1eb1ng Province"}, {"city": "Th\u1ecb Tr\u1ea5n H\u00f9ng Qu\u1ed1c", "latitude": 22.82898, "longitude": 106.32335, "state": "Cao B\u1eb1ng Province"}, {"city": "Th\u1ecb Tr\u1ea5n Cao L\u1ed9c", "latitude": 21.8665, "longitude": 106.76833, "state": "L\u1ea1ng S\u01a1n Province"}, {"city": "Th\u1ecb Tr\u1ea5n V\u0129nh L\u1ed9c", "latitude": 22.1436, "longitude": 105.27192, "state": "Tuy\u00ean Quang Province"}, {"city": "S\u01a1n Th\u1ecbnh", "latitude": 21.56252, "longitude": 104.5948, "state": "Y\u00ean B\u00e1i Province"}, {"city": "C\u1ed5 Ph\u00fac", "latitude": 21.75585, "longitude": 104.82768, "state": "Y\u00ean B\u00e1i Province"}, {"city": "Th\u1ecb Tr\u1ea5n Y\u00ean Th\u1ebf", "latitude": 22.11075, "longitude": 104.76748, "state": "Y\u00ean B\u00e1i Province"}, {"city": "Th\u1ecb Tr\u1ea5n Na Hang", "latitude": 22.34917, "longitude": 105.38241, "state": "Tuy\u00ean Quang Province"}, {"city": "B\u00ecnh Minh", "latitude": 10.06821, "longitude": 105.82221, "state": "V\u0129nh Long Province"}, {"city": "An Ph\u00fa", "latitude": 10.81591, "longitude": 105.09038, "state": "An Giang Province"}, {"city": "Ph\u00fa M\u1ef9", "latitude": 10.59236, "longitude": 105.35573, "state": "An Giang Province"}, {"city": "Th\u1ecb Tr\u1ea5n Ph\u00fa M\u1ef9", "latitude": 10.6036, "longitude": 107.054, "state": "B\u00e0 R\u1ecba\u2013V\u0169ng T\u00e0u Province"}, {"city": "B\u00e1t X\u00e1t", "latitude": 22.54311, "longitude": 103.88989, "state": "L\u00e0o Cai Province"}, {"city": "H\u00e1t L\u00f3t", "latitude": 21.19733, "longitude": 104.10595, "state": "S\u01a1n La Province"}, {"city": "Qu\u1ea3ng X\u01b0\u01a1ng", "latitude": 19.72948, "longitude": 105.78273, "state": "Thanh H\u00f3a Province"}, {"city": "N\u00f4ng C\u1ed1ng", "latitude": 19.62403, "longitude": 105.64941, "state": "Thanh H\u00f3a Province"}, {"city": "Quan S\u01a1n", "latitude": 20.25909, "longitude": 104.94521, "state": "Thanh H\u00f3a Province"}, {"city": "Y\u00ean C\u00e1t", "latitude": 19.66327, "longitude": 105.42854, "state": "Thanh H\u00f3a Province"}, {"city": "B\u00fat S\u01a1n", "latitude": 19.85797, "longitude": 105.85482, "state": "Thanh H\u00f3a Province"}, {"city": "C\u00e0nh N\u00e0ng", "latitude": 20.34803, "longitude": 105.22881, "state": "Thanh H\u00f3a Province"}, {"city": "H\u1eadu L\u1ed9c", "latitude": 19.91444, "longitude": 105.88615, "state": "Thanh H\u00f3a Province"}, {"city": "Tri\u1ec7u S\u01a1n", "latitude": 19.81913, "longitude": 105.60392, "state": "Thanh H\u00f3a Province"}, {"city": "Qu\u00e1n L\u00e0o", "latitude": 19.97153, "longitude": 105.65106, "state": "Thanh H\u00f3a Province"}, {"city": "H\u00e0 Trung", "latitude": 20.01285, "longitude": 105.85322, "state": "Thanh H\u00f3a Province"}, {"city": "R\u1eebng Th\u00f4ng", "latitude": 19.81906, "longitude": 105.73279, "state": "Thanh H\u00f3a Province"}, {"city": "V\u1ea1n H\u00e0", "latitude": 19.88659, "longitude": 105.67879, "state": "Thanh H\u00f3a Province"}, {"city": "\u0110\u00e0 B\u1eafc", "latitude": 20.87714, "longitude": 105.25417, "state": "H\u00f2a B\u00ecnh Province"}, {"city": "M\u01b0\u1eddng Kh\u1ebfn", "latitude": 20.61441, "longitude": 105.27948, "state": "H\u00f2a B\u00ecnh Province"}, {"city": "H\u00e0ng Tr\u1ea1m", "latitude": 20.39472, "longitude": 105.6224, "state": "H\u00f2a B\u00ecnh Province"}, {"city": "Bo", "latitude": 20.67264, "longitude": 105.53625, "state": "H\u00f2a B\u00ecnh Province"}, {"city": "L\u01b0\u01a1ng S\u01a1n", "latitude": 20.87148, "longitude": 105.52568, "state": "H\u00f2a B\u00ecnh Province"}, {"city": "K\u1ef3 S\u01a1n", "latitude": 20.88668, "longitude": 105.35244, "state": "H\u00f2a B\u00ecnh Province"}, {"city": "Cao Phong", "latitude": 20.70446, "longitude": 105.32063, "state": "H\u00f2a B\u00ecnh Province"}, {"city": "Me", "latitude": 20.34697, "longitude": 105.83615, "state": "Ninh B\u00ecnh Province"}, {"city": "Thi\u00ean T\u1ed3n", "latitude": 20.29905, "longitude": 105.95198, "state": "Ninh B\u00ecnh Province"}, {"city": "Y\u00ean Th\u1ecbnh", "latitude": 20.16245, "longitude": 106.00697, "state": "Ninh B\u00ecnh Province"}, {"city": "Xu\u00e2n Tr\u01b0\u1eddng", "latitude": 20.29227, "longitude": 106.33275, "state": "Nam \u0110\u1ecbnh Province"}, {"city": "Y\u00ean \u0110\u1ecbnh", "latitude": 20.20145, "longitude": 106.29578, "state": "Nam \u0110\u1ecbnh Province"}, {"city": "L\u00e2m", "latitude": 20.32773, "longitude": 106.01208, "state": "Nam \u0110\u1ecbnh Province"}, {"city": "G\u00f4i", "latitude": 20.33335, "longitude": 106.07826, "state": "Nam \u0110\u1ecbnh Province"}, {"city": "Nam Giang", "latitude": 20.33322, "longitude": 106.17754, "state": "Nam \u0110\u1ecbnh Province"}, {"city": "C\u1ed5 L\u1ec5", "latitude": 20.32336, "longitude": 106.26584, "state": "Nam \u0110\u1ecbnh Province"}, {"city": "Qu\u1ebf", "latitude": 20.58064, "longitude": 105.87266, "state": "H\u00e0 Nam Province"}, {"city": "V\u0129nh Tr\u1ee5", "latitude": 20.5602, "longitude": 106.02812, "state": "H\u00e0 Nam Province"}, {"city": "B\u00ecnh M\u1ef9", "latitude": 20.49121, "longitude": 106.00955, "state": "H\u00e0 Nam Province"}, {"city": "Thanh L\u01b0u", "latitude": 20.47398, "longitude": 105.95268, "state": "H\u00e0 Nam Province"}, {"city": "H\u01b0ng H\u00e0", "latitude": 20.5904, "longitude": 106.22445, "state": "Th\u00e1i B\u00ecnh Province"}, {"city": "V\u0169 Th\u01b0", "latitude": 20.43671, "longitude": 106.29116, "state": "Th\u00e1i B\u00ecnh Province"}, {"city": "\u0110\u00f4ng H\u01b0ng", "latitude": 20.55651, "longitude": 106.35532, "state": "Th\u00e1i B\u00ecnh Province"}, {"city": "Th\u00e0nh Ph\u1ed1 B\u00e0 R\u1ecba", "latitude": 10.49629, "longitude": 107.16841, "state": "B\u00e0 R\u1ecba\u2013V\u0169ng T\u00e0u Province"}, {"city": "Th\u1ecb Tr\u1ea5n Tu\u1ea7n Gi\u00e1o", "latitude": 21.58992, "longitude": 103.42179, "state": "\u0110i\u1ec7n Bi\u00ean Province"}, {"city": "M\u01b0\u1eddng \u1ea2ng", "latitude": 21.51993, "longitude": 103.22294, "state": "\u0110i\u1ec7n Bi\u00ean Province"}, {"city": "An L\u00e3o", "latitude": 20.82294, "longitude": 106.55575, "state": "Haiphong"}, {"city": "Ti\u00ean L\u00e3ng", "latitude": 20.72464, "longitude": 106.55391, "state": "Haiphong"}, {"city": "N\u00fai \u0110\u1ed1i", "latitude": 20.75078, "longitude": 106.66894, "state": "Haiphong"}, {"city": "Qu\u1ea3ng H\u00e0", "latitude": 21.4506, "longitude": 107.75592, "state": "Qu\u1ea3ng Ninh"}, {"city": "Tr\u1edbi", "latitude": 21.03141, "longitude": 106.99101, "state": "Qu\u1ea3ng Ninh"}, {"city": "C\u00f4 T\u00f4", "latitude": 20.97268, "longitude": 107.76578, "state": "Qu\u1ea3ng Ninh"}, {"city": "Thanh Mi\u1ec7n", "latitude": 20.78714, "longitude": 106.24623, "state": "H\u1ea3i D\u01b0\u01a1ng Province"}, {"city": "Nam S\u00e1ch", "latitude": 20.99205, "longitude": 106.33613, "state": "H\u1ea3i D\u01b0\u01a1ng Province"}, {"city": "Gia L\u1ed9c", "latitude": 20.86783, "longitude": 106.3, "state": "H\u1ea3i D\u01b0\u01a1ng Province"}, {"city": "T\u1ee9 K\u1ef3", "latitude": 20.81914, "longitude": 106.40661, "state": "H\u1ea3i D\u01b0\u01a1ng Province"}, {"city": "Thanh H\u00e0", "latitude": 20.89816, "longitude": 106.42612, "state": "H\u1ea3i D\u01b0\u01a1ng Province"}, {"city": "Ph\u00fa Th\u00e1i", "latitude": 20.96278, "longitude": 106.5095, "state": "H\u1ea3i D\u01b0\u01a1ng Province"}, {"city": "\u0110u", "latitude": 21.73847, "longitude": 105.70388, "state": "Th\u00e1i Nguy\u00ean Province"}, {"city": "H\u01b0\u01a1ng S\u01a1n", "latitude": 21.46014, "longitude": 105.97814, "state": "Th\u00e1i Nguy\u00ean Province"}, {"city": "Ch\u00f9a Hang", "latitude": 21.62384, "longitude": 105.84168, "state": "Th\u00e1i Nguy\u00ean Province"}, {"city": "Thanh Th\u1ee7y", "latitude": 21.17548, "longitude": 105.28388, "state": "Ph\u00fa Th\u1ecd Province"}, {"city": "L\u00e2m Thao", "latitude": 21.3201, "longitude": 105.29156, "state": "Ph\u00fa Th\u1ecd Province"}, {"city": "M\u00ea Linh", "latitude": 21.1831, "longitude": 105.72041, "state": "Hanoi"}, {"city": "V\u0129nh T\u01b0\u1eddng", "latitude": 21.2165, "longitude": 105.51249, "state": "V\u0129nh Ph\u00fac Province"}, {"city": "H\u1ee3p H\u00f2a", "latitude": 21.37525, "longitude": 105.54256, "state": "V\u0129nh Ph\u00fac Province"}, {"city": "V\u0103n Giang", "latitude": 20.94301, "longitude": 105.93119, "state": "H\u01b0ng Y\u00ean Province"}, {"city": "Y\u00ean M\u1ef9", "latitude": 20.88557, "longitude": 106.0356, "state": "H\u01b0ng Y\u00ean Province"}, {"city": "Kho\u00e1i Ch\u00e2u", "latitude": 20.83912, "longitude": 105.97755, "state": "H\u01b0ng Y\u00ean Province"}, {"city": "L\u01b0\u01a1ng B\u1eb1ng", "latitude": 20.74003, "longitude": 106.05998, "state": "H\u01b0ng Y\u00ean Province"}, {"city": "\u00c2n Thi", "latitude": 20.81835, "longitude": 106.09118, "state": "H\u01b0ng Y\u00ean Province"}, {"city": "Tr\u1ea7n Cao", "latitude": 20.72952, "longitude": 106.17971, "state": "H\u01b0ng Y\u00ean Province"}, {"city": "V\u01b0\u01a1ng", "latitude": 20.7011, "longitude": 106.11751, "state": "H\u01b0ng Y\u00ean Province"}, {"city": "Li\u00ean Quan", "latitude": 21.05723, "longitude": 105.57919, "state": "Hanoi"}, {"city": "Ph\u00fac Th\u1ecd", "latitude": 21.10345, "longitude": 105.54551, "state": "Hanoi"}, {"city": "Ph\u00f9ng", "latitude": 21.08902, "longitude": 105.65901, "state": "Hanoi"}, {"city": "Tr\u00f4i", "latitude": 21.06953, "longitude": 105.70646, "state": "Hanoi"}, {"city": "Qu\u1ed1c Oai", "latitude": 20.99019, "longitude": 105.64088, "state": "Hanoi"}, {"city": "Th\u01b0\u1eddng T\u00edn", "latitude": 20.86874, "longitude": 105.86125, "state": "Hanoi"}, {"city": "Ph\u00fa Xuy\u00ean", "latitude": 20.74549, "longitude": 105.91363, "state": "Hanoi"}, {"city": "\u0110\u1ea1i Ngh\u0129a", "latitude": 20.68667, "longitude": 105.74471, "state": "Hanoi"}, {"city": "S\u00f3c S\u01a1n", "latitude": 21.25782, "longitude": 105.84894, "state": "Hanoi"}, {"city": "\u0110\u00f4ng Anh", "latitude": 21.13962, "longitude": 105.84926, "state": "Hanoi"}, {"city": "C\u1ea7u Di\u1ec5n", "latitude": 21.03929, "longitude": 105.76659, "state": "Hanoi"}, {"city": "Tr\u00e2u Qu\u1ef3", "latitude": 21.01951, "longitude": 105.93694, "state": "Hanoi"}, {"city": "C\u1ea7u Gi\u1ea5y", "latitude": 21.03228, "longitude": 105.80073, "state": "Hanoi"}, {"city": "Thanh Xu\u00e2n", "latitude": 20.99472, "longitude": 105.79977, "state": "Hanoi"}, {"city": "\u0110\u1ed1ng \u0110a", "latitude": 21.02009, "longitude": 105.83097, "state": "Hanoi"}, {"city": "Ho\u00e0n Ki\u1ebfm", "latitude": 21.02857, "longitude": 105.85064, "state": "Hanoi"}, {"city": "Hai B\u00e0Tr\u01b0ng", "latitude": 21.01341, "longitude": 105.84772, "state": "Hanoi"}, {"city": "H\u01b0ng Nguy\u00ean", "latitude": 18.67165, "longitude": 105.62882, "state": "Ngh\u1ec7 An Province"}, {"city": "V\u0169 Quang", "latitude": 18.38385, "longitude": 105.5059, "state": "H\u00e0 T\u0129nh Province"}, {"city": "Ngh\u00e8n", "latitude": 18.45119, "longitude": 105.77969, "state": "H\u00e0 T\u0129nh Province"}, {"city": "\u0110\u1ed3ng L\u00ea", "latitude": 17.88389, "longitude": 106.02536, "state": "Qu\u1ea3ng B\u00ecnh Province"}, {"city": "Kr\u00f4ng Klang", "latitude": 16.68906, "longitude": 106.8874, "state": "Qu\u1ea3ng Tr\u1ecb Province"}, {"city": "Khe Tre", "latitude": 16.1691, "longitude": 107.71793, "state": "Th\u1eeba Thi\u00ean Hu\u1ebf Province"}, {"city": "S\u1ecba", "latitude": 16.57452, "longitude": 107.51066, "state": "Th\u1eeba Thi\u00ean Hu\u1ebf Province"}, {"city": "Thanh Kh\u00ea", "latitude": 16.0706, "longitude": 108.19102, "state": "Da Nang"}, {"city": "C\u1ea9m L\u1ec7", "latitude": 16.01771, "longitude": 108.20381, "state": "Da Nang"}, {"city": "S\u01a1n Tr\u00e0", "latitude": 16.06068, "longitude": 108.23256, "state": "Da Nang"}, {"city": "Li\u00ean Chi\u1ec3u", "latitude": 16.07272, "longitude": 108.15815, "state": "Da Nang"}, {"city": "Ng\u0169 H\u00e0nh S\u01a1n", "latitude": 16.01618, "longitude": 108.25335, "state": "Da Nang"}, {"city": "Prao", "latitude": 15.92438, "longitude": 107.64814, "state": "Qu\u1ea3ng Nam Province"}, {"city": "Kh\u00e2m \u0110\u1ee9c", "latitude": 15.44508, "longitude": 107.79337, "state": "Qu\u1ea3ng Nam Province"}, {"city": "N\u00fai Th\u00e0nh", "latitude": 15.43194, "longitude": 108.65946, "state": "Qu\u1ea3ng Nam Province"}, {"city": "Ph\u00fa Ninh", "latitude": 15.55473, "longitude": 108.41142, "state": "Qu\u1ea3ng Nam Province"}, {"city": "T\u00e2y Tr\u00e0", "latitude": 15.16948, "longitude": 108.35998, "state": "Qu\u1ea3ng Ng\u00e3i Province"}, {"city": "L\u00fd S\u01a1n", "latitude": 15.37198, "longitude": 109.11891, "state": "Qu\u1ea3ng Ng\u00e3i Province"}, {"city": "\u0110\u1eafk Glei", "latitude": 15.08642, "longitude": 107.73577, "state": "Kon Tum"}, {"city": "Sa Th\u1ea7y", "latitude": 14.41377, "longitude": 107.79339, "state": "Kon Tum"}, {"city": "\u0110\u1eafk H\u00e0", "latitude": 14.51345, "longitude": 107.92102, "state": "Kon Tum"}, {"city": "\u0110\u1eafk Rve", "latitude": 14.50717, "longitude": 108.2473, "state": "Kon Tum"}, {"city": "M\u0103ng \u0110en", "latitude": 14.60064, "longitude": 108.29088, "state": "Kon Tum"}, {"city": "\u0110\u0103k \u0110oa", "latitude": 13.99501, "longitude": 108.11207, "state": "Gia Lai Province"}, {"city": "K Bang", "latitude": 14.14453, "longitude": 108.59908, "state": "Gia Lai Province"}, {"city": "K\u00f4ng Chro", "latitude": 13.77532, "longitude": 108.52558, "state": "Gia Lai Province"}, {"city": "Ia Pa", "latitude": 13.53361, "longitude": 108.45529, "state": "Gia Lai Province"}, {"city": "A Yun Pa", "latitude": 13.40025, "longitude": 108.43503, "state": "Gia Lai Province"}, {"city": "Ch\u01b0 S\u00ea", "latitude": 13.69153, "longitude": 108.08023, "state": "Gia Lai Province"}, {"city": "Ch\u01b0 Pr\u00f4ng", "latitude": 13.75684, "longitude": 107.88624, "state": "Gia Lai Province"}, {"city": "Ch\u01b0 Ty", "latitude": 13.80507, "longitude": 107.6961, "state": "Gia Lai Province"}, {"city": "Ia Kha", "latitude": 13.96242, "longitude": 107.84484, "state": "Gia Lai Province"}, {"city": "Ph\u00fa H\u00f2a", "latitude": 14.10005, "longitude": 107.96896, "state": "Gia Lai Province"}, {"city": "Kon D\u01a1ng", "latitude": 14.03886, "longitude": 108.25011, "state": "Gia Lai Province"}, {"city": "Hai Ri\u00eang", "latitude": 12.97908, "longitude": 108.89732, "state": "Ph\u00fa Y\u00ean Province"}, {"city": "Ea S\u00fap", "latitude": 13.06616, "longitude": 107.88546, "state": "\u0110\u1eafk L\u1eafk"}, {"city": "Ea Dr\u0103ng", "latitude": 13.2045, "longitude": 108.21029, "state": "\u0110\u1eafk L\u1eafk"}, {"city": "Kr\u00f4ng N\u0103ng", "latitude": 12.9517, "longitude": 108.34425, "state": "\u0110\u1eafk L\u1eafk"}, {"city": "Qu\u1ea3ng Ph\u00fa", "latitude": 12.81965, "longitude": 108.07738, "state": "\u0110\u1eafk L\u1eafk"}, {"city": "Ea Kar", "latitude": 12.80816, "longitude": 108.44901, "state": "\u0110\u1eafk L\u1eafk"}, {"city": "Kr\u00f4ng Kmar", "latitude": 12.5045, "longitude": 108.33288, "state": "\u0110\u1eafk L\u1eafk"}, {"city": "M\u2019\u0110r\u0103k", "latitude": 12.74624, "longitude": 108.74281, "state": "\u0110\u1eafk L\u1eafk"}, {"city": "Kh\u00e1nh V\u0129nh", "latitude": 12.28355, "longitude": 108.9047, "state": "Kh\u00e1nh H\u00f2a Province"}, {"city": "T\u00f4 H\u1ea1p", "latitude": 12.00582, "longitude": 108.94868, "state": "Kh\u00e1nh H\u00f2a Province"}, {"city": "Cam L\u00e2m", "latitude": 12.05398, "longitude": 109.16004, "state": "Kh\u00e1nh H\u00f2a Province"}, {"city": "Ea T\u2019ling", "latitude": 12.58904, "longitude": 107.89578, "state": "\u0110\u0103k N\u00f4ng Province"}, {"city": "\u0110\u1eafk M\u00e2m", "latitude": 12.45789, "longitude": 107.86246, "state": "\u0110\u0103k N\u00f4ng Province"}, {"city": "\u0110inh V\u0103n", "latitude": 11.78624, "longitude": 108.24282, "state": "L\u00e2m \u0110\u1ed3ng Province"}, {"city": "Th\u1ea1nh M\u1ef9", "latitude": 11.76165, "longitude": 108.49473, "state": "L\u00e2m \u0110\u1ed3ng Province"}, {"city": "L\u1ed9c Th\u1eafng", "latitude": 11.62836, "longitude": 107.83508, "state": "L\u00e2m \u0110\u1ed3ng Province"}, {"city": "\u0110\u1ed3ng Nai", "latitude": 11.57981, "longitude": 107.36518, "state": "L\u00e2m \u0110\u1ed3ng Province"}, {"city": "\u0110\u1ea1 T\u1ebbh", "latitude": 11.51148, "longitude": 107.49092, "state": "L\u00e2m \u0110\u1ed3ng Province"}, {"city": "B\u00e1c \u00c1i", "latitude": 11.84104, "longitude": 108.90316, "state": "Ninh Thu\u1eadn Province"}, {"city": "T\u00e2n S\u01a1n", "latitude": 11.77521, "longitude": 108.7848, "state": "Ninh Thu\u1eadn Province"}, {"city": "Ph\u01b0\u1edbc D\u00e2n", "latitude": 11.52696, "longitude": 108.92996, "state": "Ninh Thu\u1eadn Province"}, {"city": "Kh\u00e1nh H\u1ea3i", "latitude": 11.59105, "longitude": 109.04052, "state": "Ninh Thu\u1eadn Province"}, {"city": "Ch\u1ee3 L\u1ea7u", "latitude": 11.22158, "longitude": 108.50707, "state": "B\u00ecnh Thu\u1eadn Province"}, {"city": "Ma L\u00e2m", "latitude": 11.07297, "longitude": 108.12997, "state": "B\u00ecnh Thu\u1eadn Province"}, {"city": "Thu\u1eadn Nam", "latitude": 10.85004, "longitude": 107.87864, "state": "B\u00ecnh Thu\u1eadn Province"}, {"city": "Ph\u00fa Qu\u00fd", "latitude": 10.5166, "longitude": 108.93292, "state": "B\u00ecnh Thu\u1eadn Province"}, {"city": "T\u00e2n Ph\u00fa", "latitude": 11.27221, "longitude": 107.43655, "state": "\u0110\u1ed3ng Nai Province"}, {"city": "V\u0129nh An", "latitude": 11.08901, "longitude": 107.03516, "state": "\u0110\u1ed3ng Nai Province"}, {"city": "Th\u1ed1ng Nh\u1ea5t", "latitude": 10.95055, "longitude": 107.14571, "state": "\u0110\u1ed3ng Nai Province"}, {"city": "Long Kh\u00e1nh", "latitude": 10.92655, "longitude": 107.24783, "state": "\u0110\u1ed3ng Nai Province"}, {"city": "T\u00e2n Ph\u00fa", "latitude": 11.45119, "longitude": 106.86811, "state": "B\u00ecnh Ph\u01b0\u1edbc Province"}, {"city": "T\u00e2n Ch\u00e2u", "latitude": 11.55202, "longitude": 106.17245, "state": "T\u00e2y Ninh Province"}, {"city": "T\u00e2n Bi\u00ean", "latitude": 11.54441, "longitude": 106.01161, "state": "T\u00e2y Ninh Province"}, {"city": "Ch\u00e2u Th\u00e0nh", "latitude": 11.31167, "longitude": 106.0295, "state": "T\u00e2y Ninh Province"}, {"city": "H\u00f2a Th\u00e0nh", "latitude": 11.28696, "longitude": 106.12936, "state": "T\u00e2y Ninh Province"}, {"city": "G\u00f2 D\u1ea7u", "latitude": 11.0885, "longitude": 106.26346, "state": "T\u00e2y Ninh Province"}, {"city": "D\u01b0\u01a1ng Minh Ch\u00e2u", "latitude": 11.38414, "longitude": 106.23078, "state": "T\u00e2y Ninh Province"}, {"city": "T\u00e2n H\u01b0ng", "latitude": 10.83476, "longitude": 105.66135, "state": "Long An Povince"}, {"city": "V\u0129nh H\u01b0ng", "latitude": 10.89067, "longitude": 105.78495, "state": "Long An Povince"}, {"city": "T\u00e2n Th\u1ea1nh", "latitude": 10.60666, "longitude": 106.04714, "state": "Long An Povince"}, {"city": "Th\u1ea1nh H\u00f3a", "latitude": 10.65744, "longitude": 106.18081, "state": "Long An Povince"}, {"city": "\u0110\u00f4ng Th\u00e0nh", "latitude": 10.89221, "longitude": 106.30614, "state": "Long An Povince"}, {"city": "H\u1eadu Ngh\u0129a", "latitude": 10.89434, "longitude": 106.39695, "state": "Long An Povince"}, {"city": "M\u1ef9 Ph\u01b0\u1edbc", "latitude": 10.47711, "longitude": 106.19256, "state": "Ti\u1ec1n Giang"}, {"city": "T\u00e2n H\u00f2a", "latitude": 10.31906, "longitude": 106.71128, "state": "Ti\u1ec1n Giang"}, {"city": "Th\u1ee9 M\u01b0\u1eddi M\u1ed9t", "latitude": 9.61144, "longitude": 104.9465, "state": "Ki\u00ean Giang Province"}, {"city": "Sa R\u00e0i", "latitude": 10.87016, "longitude": 105.46583, "state": "\u0110\u1ed3ng Th\u00e1p Province"}, {"city": "Long H\u1ed3", "latitude": 10.19281, "longitude": 106.01229, "state": "V\u0129nh Long Province"}, {"city": "Duy\u00ean H\u1ea3i", "latitude": 9.63497, "longitude": 106.49237, "state": "Tr\u00e0 Vinh Province"}, {"city": "Ch\u00e2u Th\u00e0nh", "latitude": 10.30122, "longitude": 106.35701, "state": "B\u1ebfn Tre Province"}, {"city": "V\u0129nh Th\u1ea1nh", "latitude": 10.22263, "longitude": 105.39841, "state": "Can Tho"}, {"city": "N\u00e0ng Mau", "latitude": 9.75129, "longitude": 105.53448, "state": "H\u1eadu Giang"}, {"city": "Ng\u00e3 B\u1ea3y", "latitude": 9.81371, "longitude": 105.82096, "state": "H\u1eadu Giang"}, {"city": "Ng\u00e3 S\u00e1u", "latitude": 9.92303, "longitude": 105.80542, "state": "H\u1eadu Giang"}, {"city": "M\u1ed9t Ng\u00e0n", "latitude": 9.92402, "longitude": 105.62964, "state": "H\u1eadu Giang"}, {"city": "C\u00f9 Lao Dung", "latitude": 9.67314, "longitude": 106.14874, "state": "S\u00f3c Tr\u0103ng Province"}, {"city": "Ch\u00e2u Th\u00e0nh", "latitude": 9.7007, "longitude": 105.90202, "state": "S\u00f3c Tr\u0103ng Province"}, {"city": "Hu\u1ef3nh H\u1eefu Ngh\u0129a", "latitude": 9.63537, "longitude": 105.81165, "state": "S\u00f3c Tr\u0103ng Province"}, {"city": "U Minh", "latitude": 9.41286, "longitude": 104.97353, "state": "C\u00e0 Mau Province"}, {"city": "Tr\u1ea7n V\u0103n Th\u1eddi", "latitude": 9.07713, "longitude": 104.97914, "state": "C\u00e0 Mau Province"}, {"city": "Ng\u1ecdc Hi\u1ec3n", "latitude": 8.65724, "longitude": 105.06021, "state": "C\u00e0 Mau Province"}, {"city": "Qu\u1eadn Hai", "latitude": 10.79156, "longitude": 106.74948, "state": "Ho Chi Minh"}, {"city": "Qu\u1eadn Ch\u00edn", "latitude": 10.8397, "longitude": 106.77093, "state": "Ho Chi Minh"}, {"city": "Qu\u1eadn B\u1ed1n", "latitude": 10.76684, "longitude": 106.70574, "state": "Ho Chi Minh"}, {"city": "Qu\u1eadn S\u00e1u", "latitude": 10.7468, "longitude": 106.64903, "state": "Ho Chi Minh"}, {"city": "Qu\u1eadn N\u0103m", "latitude": 10.75567, "longitude": 106.66745, "state": "Ho Chi Minh"}, {"city": "Qu\u1eadn M\u1ed9t", "latitude": 10.78069, "longitude": 106.69944, "state": "Ho Chi Minh"}, {"city": "Qu\u1eadn Ph\u00fa Nhu\u1eadn", "latitude": 10.79475, "longitude": 106.6763, "state": "Ho Chi Minh"}, {"city": "Qu\u1eadn T\u00e2n Ph\u00fa", "latitude": 10.78379, "longitude": 106.63704, "state": "Ho Chi Minh"}, {"city": "Qu\u1eadn M\u01b0\u1eddi M\u1ed9t", "latitude": 10.76383, "longitude": 106.64355, "state": "Ho Chi Minh"}, {"city": "Qu\u1eadn M\u01b0\u1eddi", "latitude": 10.76823, "longitude": 106.66632, "state": "Ho Chi Minh"}, {"city": "Qu\u1eadn Ba", "latitude": 10.77494, "longitude": 106.68628, "state": "Ho Chi Minh"}, {"city": "Qu\u1eadn B\u00ecnh Th\u1ea1nh", "latitude": 10.80325, "longitude": 106.69666, "state": "Ho Chi Minh"}, {"city": "Ho\u00e0ng Sa", "latitude": 16.66657, "longitude": 112.72541, "state": "Da Nang"}, {"city": "Th\u1ecb Tr\u1ea5n T\u00e2n Th\u00e0nh", "latitude": 10.25616, "longitude": 105.5928, "state": "\u0110\u1ed3ng Th\u00e1p Province"}, {"city": "Qu\u1eadn \u0110\u1ee9c Th\u1ecbnh", "latitude": 10.30989, "longitude": 105.73855, "state": "\u0110\u1ed3ng Th\u00e1p Province"}, {"city": "Qu\u1eadn \u0110\u1ee9c Th\u00e0nh", "latitude": 10.25874, "longitude": 105.646, "state": "\u0110\u1ed3ng Th\u00e1p Province"}, {"city": "Qu\u1eadn L\u1ea5p V\u00f2", "latitude": 10.35554, "longitude": 105.58125, "state": "\u0110\u1ed3ng Th\u00e1p Province"}, {"city": "Ho\u00e0ng Sa", "latitude": 16.83517, "longitude": 112.33873, "state": null}, {"city": "Huy\u1ec7n L\u00e2m H\u00e0", "latitude": 11.81554, "longitude": 108.21444, "state": "L\u00e2m \u0110\u1ed3ng Province"}, {"city": "Huy\u1ec7n B\u1ea3o L\u00e2m", "latitude": 11.69958, "longitude": 107.76252, "state": "L\u00e2m \u0110\u1ed3ng Province"}, {"city": "X\u00e3 Ph\u00fac Th\u1ecd", "latitude": 11.80701, "longitude": 108.12875, "state": "L\u00e2m \u0110\u1ed3ng Province"}, {"city": "X\u00e3 T\u00e2n H\u00e0", "latitude": 11.73475, "longitude": 108.2023, "state": "L\u00e2m \u0110\u1ed3ng Province"}, {"city": "X\u00e3 T\u00e2n V\u0103n", "latitude": 11.77545, "longitude": 108.22464, "state": "L\u00e2m \u0110\u1ed3ng Province"}, {"city": "X\u00e3 Ho\u00e0i \u0110\u1ee9c", "latitude": 11.74475, "longitude": 108.14689, "state": "L\u00e2m \u0110\u1ed3ng Province"}, {"city": "X\u00e3 T\u00e2n Thanh", "latitude": 11.7522, "longitude": 108.06967, "state": "L\u00e2m \u0110\u1ed3ng Province"}, {"city": "X\u00e3 \u0110\u1ea1 K'N\u00e0ng", "latitude": 11.89361, "longitude": 108.13481, "state": "L\u00e2m \u0110\u1ed3ng Province"}, {"city": "Ph\u00fa Qu\u1ed1c", "latitude": 10.28715, "longitude": 104.01047, "state": "Ki\u00ean Giang Province"}, {"city": "th\u1ecb x\u00e3 Qu\u1ea3ng Tr\u1ecb", "latitude": 16.75083, "longitude": 107.18278, "state": "Qu\u1ea3ng Tr\u1ecb Province"}, {"city": "Quang Minh", "latitude": 21.18884, "longitude": 105.77269, "state": "Hanoi"}, {"city": "Thu\u1eadn An", "latitude": 10.9239, "longitude": 106.71428, "state": "B\u00ecnh D\u01b0\u01a1ng Province"}, {"city": "\u0110\u1ea1i Ngh\u0129a", "latitude": 15.87901, "longitude": 108.08903, "state": "Qu\u1ea3ng Nam Province"}, {"city": "\u00d4 Ch\u1ee3 D\u1eeba", "latitude": 21.02146, "longitude": 105.82464, "state": "Hanoi"}, {"city": "L\u00e1ng Th\u01b0\u1ee3ng", "latitude": 21.02374, "longitude": 105.8036, "state": "Hanoi"}]