[{"city": "Yovon", "latitude": 38.31408, "longitude": 69.03784, "state": "Khatlon Province"}, {"city": "Hulbuk", "latitude": 37.80542, "longitude": 69.64516, "state": "Khatlon Province"}, {"city": "Vorukh", "latitude": 39.85125, "longitude": 70.58012, "state": "Sughd"}, {"city": "Varzob", "latitude": 38.77369, "longitude": 68.81776, "state": "Republican Subordination"}, {"city": "Vanj", "latitude": 38.37078, "longitude": 71.45474, "state": "Gorno-Badakhshan"}, {"city": "Vakhsh", "latitude": 37.71485, "longitude": 68.83456, "state": "Khatlon Province"}, {"city": "Istaravshan", "latitude": 39.9142, "longitude": 69.00328, "state": "Sughd"}, {"city": "Tavildara", "latitude": 38.69529, "longitude": 70.48422, "state": "Republican Subordination"}, {"city": "Tartiki", "latitude": 37.58221, "longitude": 68.13347, "state": "Khatlon Province"}, {"city": "Tagob", "latitude": 38.83827, "longitude": 68.89847, "state": "Republican Subordination"}, {"city": "Tajikobod", "latitude": 39.12405, "longitude": 70.84009, "state": "Republican Subordination"}, {"city": "Sovet", "latitude": 38.0467, "longitude": 69.58822, "state": "Khatlon Province"}, {"city": "Sh\u016drobod", "latitude": 37.84137, "longitude": 70.04865, "state": "Khatlon Province"}, {"city": "Shahrinav", "latitude": 38.57085, "longitude": 68.33498, "state": "Republican Subordination"}, {"city": "Shahriston", "latitude": 39.77447, "longitude": 68.80929, "state": "Sughd"}, {"city": "Shahritus", "latitude": 37.26206, "longitude": 68.13849, "state": "Khatlon Province"}, {"city": "Sarikhosor", "latitude": 38.53852, "longitude": 69.83077, "state": "Khatlon Province"}, {"city": "R\u016dshon", "latitude": 37.94487, "longitude": 71.55745, "state": "Gorno-Badakhshan"}, {"city": "Roshtqal\u2019a", "latitude": 37.25827, "longitude": 71.82591, "state": "Gorno-Badakhshan"}, {"city": "Roghun", "latitude": 38.78257, "longitude": 69.87081, "state": "Republican Subordination"}, {"city": "Bokhtar", "latitude": 37.83667, "longitude": 68.7775, "state": "Khatlon Province"}, {"city": "Panj", "latitude": 37.23634, "longitude": 69.09911, "state": "Khatlon Province"}, {"city": "Panjakent", "latitude": 39.49524, "longitude": 67.60931, "state": "Sughd"}, {"city": "Farkhor", "latitude": 37.49219, "longitude": 69.40356, "state": "Khatlon Province"}, {"city": "Orzu", "latitude": 37.5582, "longitude": 68.81952, "state": "Khatlon Province"}, {"city": "Vahdat", "latitude": 38.55632, "longitude": 69.01354, "state": "Republican Subordination"}, {"city": "Ismoili Somon\u00ed", "latitude": 37.76627, "longitude": 68.80126, "state": "Khatlon Province"}, {"city": "Obikiik", "latitude": 38.16033, "longitude": 68.66605, "state": "Khatlon Province"}, {"city": "Obigarm", "latitude": 38.71731, "longitude": 69.70885, "state": "Republican Subordination"}, {"city": "Norak", "latitude": 38.38917, "longitude": 69.32272, "state": "Khatlon Province"}, {"city": "Novobod", "latitude": 39.01084, "longitude": 70.15082, "state": "Republican Subordination"}, {"city": "Murghob", "latitude": 38.17023, "longitude": 73.96674, "state": "Gorno-Badakhshan"}, {"city": "Moskva", "latitude": 37.66101, "longitude": 69.62849, "state": "Khatlon Province"}, {"city": "Somoniyon", "latitude": 38.44173, "longitude": 68.77458, "state": "Republican Subordination"}, {"city": "M\u016d\u2019minobod", "latitude": 38.10714, "longitude": 70.03213, "state": "Khatlon Province"}, {"city": "Bokhtariyon", "latitude": 37.88176, "longitude": 68.7297, "state": "Khatlon Province"}, {"city": "Abdurahmoni Jom\u00ed", "latitude": 37.94636, "longitude": 68.80878, "state": "Khatlon Province"}, {"city": "K\u016dlob", "latitude": 37.91459, "longitude": 69.78454, "state": "Khatlon Province"}, {"city": "Darband", "latitude": 38.86776, "longitude": 69.96642, "state": "Republican Subordination"}, {"city": "Kolkhozobod", "latitude": 37.58823, "longitude": 68.65886, "state": "Khatlon Province"}, {"city": "Kirov", "latitude": 37.81908, "longitude": 68.85905, "state": "Khatlon Province"}, {"city": "Khovaling", "latitude": 38.34194, "longitude": 69.97531, "state": "Khatlon Province"}, {"city": "Khorugh", "latitude": 37.48974, "longitude": 71.55304, "state": "Gorno-Badakhshan"}, {"city": "Khodzha-Maston", "latitude": 38.74457, "longitude": 68.62702, "state": "Republican Subordination"}, {"city": "Karakenja", "latitude": 39.23585, "longitude": 71.52412, "state": "Republican Subordination"}, {"city": "Levakant", "latitude": 37.87136, "longitude": 68.92233, "state": "Khatlon Province"}, {"city": "Qalaikhumb", "latitude": 38.45373, "longitude": 70.78902, "state": "Gorno-Badakhshan"}, {"city": "Qubodiyon", "latitude": 37.40973, "longitude": 68.18644, "state": "Khatlon Province"}, {"city": "Ishqoshim", "latitude": 36.72484, "longitude": 71.61331, "state": "Gorno-Badakhshan"}, {"city": "Hisor", "latitude": 38.52504, "longitude": 68.55124, "state": "Republican Subordination"}, {"city": "Rasht", "latitude": 39.02871, "longitude": 70.37446, "state": "Republican Subordination"}, {"city": "Gharav\u016dt\u00ed", "latitude": 37.56703, "longitude": 68.44668, "state": "Khatlon Province"}, {"city": "Ghonch\u00ed", "latitude": 39.96238, "longitude": 69.12966, "state": "Sughd"}, {"city": "Fayzobod", "latitude": 38.54731, "longitude": 69.3198, "state": "Republican Subordination"}, {"city": "Jirghatol", "latitude": 39.21966, "longitude": 71.19155, "state": "Republican Subordination"}, {"city": "Jilik\u016dl", "latitude": 37.49167, "longitude": 68.53106, "state": "Khatlon Province"}, {"city": "D\u016dst\u00ed", "latitude": 37.34812, "longitude": 68.66398, "state": "Khatlon Province"}, {"city": "Dushanbe", "latitude": 38.53575, "longitude": 68.77905, "state": null}, {"city": "Danghara", "latitude": 38.09578, "longitude": 69.33998, "state": "Khatlon Province"}, {"city": "Chubek", "latitude": 37.61453, "longitude": 69.70525, "state": "Khatlon Province"}, {"city": "Boshchorbogh", "latitude": 37.52027, "longitude": 68.12825, "state": "Khatlon Province"}, {"city": "B\u016dstonqal\u2019a", "latitude": 37.84783, "longitude": 68.83125, "state": "Khatlon Province"}, {"city": "Boshkengash", "latitude": 38.46613, "longitude": 68.80533, "state": "Dushanbe"}, {"city": "Baljuvon", "latitude": 38.30838, "longitude": 69.67672, "state": "Khatlon Province"}, {"city": "Ayn\u00ed", "latitude": 39.39406, "longitude": 68.53766, "state": "Sughd"}, {"city": "Tursunzoda", "latitude": 38.51271, "longitude": 68.23163, "state": "Republican Subordination"}, {"city": "Roghun", "latitude": 38.69331, "longitude": 69.73692, "state": "Republican Subordination"}, {"city": "Bahor\u00ed", "latitude": 37.40195, "longitude": 67.99446, "state": "Khatlon Province"}, {"city": "Avzikent", "latitude": 37.80333, "longitude": 69.27722, "state": "Khatlon Province"}, {"city": "Zafarobod", "latitude": 40.17603, "longitude": 68.84679, "state": "Sughd"}, {"city": "Taboshar", "latitude": 40.57017, "longitude": 69.64175, "state": "Sughd"}, {"city": "Sh\u016drob", "latitude": 40.04605, "longitude": 70.54117, "state": "Sughd"}, {"city": "Proletar", "latitude": 40.16713, "longitude": 69.50163, "state": "Sughd"}, {"city": "Palos", "latitude": 40.31628, "longitude": 69.73743, "state": "Sughd"}, {"city": "Pakhtakoron", "latitude": 40.15709, "longitude": 68.74659, "state": "Sughd"}, {"city": "Neftobod", "latitude": 40.21524, "longitude": 70.57193, "state": "Sughd"}, {"city": "Nov", "latitude": 40.1522, "longitude": 69.37076, "state": "Sughd"}, {"city": "Quruqsoy", "latitude": 40.57648, "longitude": 69.37962, "state": "Sughd"}, {"city": "Kim", "latitude": 40.20798, "longitude": 70.46882, "state": "Sughd"}, {"city": "Khujand", "latitude": 40.28256, "longitude": 69.62216, "state": "Sughd"}, {"city": "Qayroqqum", "latitude": 40.26598, "longitude": 69.79585, "state": "Sughd"}, {"city": "Konsoy", "latitude": 40.49155, "longitude": 69.70245, "state": "Sughd"}, {"city": "Konibodom", "latitude": 40.29414, "longitude": 70.43122, "state": "Sughd"}, {"city": "Isfara", "latitude": 40.12649, "longitude": 70.62526, "state": "Sughd"}, {"city": "Ghafurov", "latitude": 40.21571, "longitude": 69.72867, "state": "Sughd"}, {"city": "B\u016dston", "latitude": 40.52286, "longitude": 69.33307, "state": "Sughd"}, {"city": "Shaydon", "latitude": 40.66992, "longitude": 70.3502, "state": "Sughd"}, {"city": "Oltintopkan", "latitude": 40.65425, "longitude": 69.59811, "state": "Sughd"}, {"city": "Adrasmon", "latitude": 40.64928, "longitude": 69.98472, "state": "Sughd"}, {"city": "Buston", "latitude": 40.23417, "longitude": 69.69481, "state": "Sughd"}, {"city": "Mehron", "latitude": 39.41691, "longitude": 69.28677, "state": "Sughd"}, {"city": "Moskovskiy", "latitude": 37.60931, "longitude": 68.58094, "state": "Khatlon Province"}]