[{"city": "Douliu", "latitude": 23.70944, "longitude": 120.54333, "state": "Taiwan"}, {"city": "Yongkang", "latitude": 23.02444, "longitude": 120.25556, "state": "Taiwan"}, {"city": "Yujing", "latitude": 23.12493, "longitude": 120.46138, "state": "Taiwan"}, {"city": "Yuanlin", "latitude": 23.95671, "longitude": 120.57608, "state": "Taiwan"}, {"city": "Yingge", "latitude": 24.95608, "longitude": 121.3507, "state": "Taipei"}, {"city": "Wulai", "latitude": 24.86397, "longitude": 121.55133, "state": "Taipei"}, {"city": "Wufeng", "latitude": 24.0637, "longitude": 120.698, "state": "Taiwan"}, {"city": "Donggang", "latitude": 22.46515, "longitude": 120.44927, "state": "Taiwan"}, {"city": "Taoyuan", "latitude": 24.9896, "longitude": 121.3187, "state": "Taiwan"}, {"city": "Taitung", "latitude": 22.75991, "longitude": 121.14457, "state": "Taiwan"}, {"city": "Taipei", "latitude": 25.04776, "longitude": 121.53185, "state": "Taiwan"}, {"city": "Taibao", "latitude": 23.45944, "longitude": 120.33222, "state": "Taiwan"}, {"city": "Xinying", "latitude": 23.30694, "longitude": 120.31056, "state": "Taiwan"}, {"city": "Tainan", "latitude": 22.99083, "longitude": 120.21333, "state": "Taiwan"}, {"city": "Fengyuan", "latitude": 24.25, "longitude": 120.71694, "state": "Taiwan"}, {"city": "Taichung", "latitude": 24.1469, "longitude": 120.6839, "state": "Taiwan"}, {"city": "Daxi", "latitude": 24.88373, "longitude": 121.29043, "state": "Taiwan"}, {"city": "Shulin", "latitude": 24.99085, "longitude": 121.42199, "state": "Taipei"}, {"city": "Shiding", "latitude": 24.99301, "longitude": 121.65546, "state": "Taipei"}, {"city": "Shimen", "latitude": 25.29035, "longitude": 121.56623, "state": "Taipei"}, {"city": "Banqiao", "latitude": 25.01427, "longitude": 121.46719, "state": "Taipei"}, {"city": "Sanxia", "latitude": 24.93448, "longitude": 121.37139, "state": "Taipei"}, {"city": "Sanzhi", "latitude": 25.25782, "longitude": 121.50182, "state": "Taipei"}, {"city": "Puli", "latitude": 23.96639, "longitude": 120.96952, "state": "Taiwan"}, {"city": "Pizitou", "latitude": 23.48556, "longitude": 120.44472, "state": "Taiwan"}, {"city": "Pingtung", "latitude": 22.67135, "longitude": 120.48814, "state": "Taiwan"}, {"city": "Pinglin", "latitude": 24.9352, "longitude": 121.7103, "state": "Taipei"}, {"city": "Bade", "latitude": 24.92981, "longitude": 121.28372, "state": "Taiwan"}, {"city": "Neihu", "latitude": 25.0815, "longitude": 121.58809, "state": "Taiwan"}, {"city": "Nantou", "latitude": 23.91566, "longitude": 120.66387, "state": "Taiwan"}, {"city": "Miaoli", "latitude": 24.56427, "longitude": 120.82367, "state": "Taiwan"}, {"city": "Magong", "latitude": 23.5654, "longitude": 119.58627, "state": "Taiwan"}, {"city": "Lugu", "latitude": 23.74639, "longitude": 120.7525, "state": "Taiwan"}, {"city": "Fengshan", "latitude": 22.62659, "longitude": 120.36126, "state": "Takao"}, {"city": "Kaohsiung", "latitude": 22.61626, "longitude": 120.31333, "state": "Takao"}, {"city": "Yilan", "latitude": 24.757, "longitude": 121.753, "state": "Taiwan"}, {"city": "Hualien City", "latitude": 23.97694, "longitude": 121.60444, "state": "Taiwan"}, {"city": "Xindian", "latitude": 24.96005, "longitude": 121.53892, "state": "Taipei"}, {"city": "Hsinchu", "latitude": 24.80361, "longitude": 120.96861, "state": "Taiwan"}, {"city": "Xizhi", "latitude": 25.06615, "longitude": 121.65985, "state": "Taipei"}, {"city": "Hengchun", "latitude": 22.00417, "longitude": 120.74389, "state": "Taiwan"}, {"city": "Zhubei", "latitude": 24.83833, "longitude": 121.00778, "state": "Taiwan"}, {"city": "Jiufen", "latitude": 25.10957, "longitude": 121.84424, "state": "Taipei"}, {"city": "Jincheng", "latitude": 24.43415, "longitude": 118.31712, "state": "Fukien"}, {"city": "Keelung", "latitude": 25.13089, "longitude": 121.74094, "state": "Taiwan"}, {"city": "Jiayi Shi", "latitude": 23.47917, "longitude": 120.44889, "state": "Taiwan"}, {"city": "Chang-hua", "latitude": 24.07327, "longitude": 120.56276, "state": "Taiwan"}, {"city": "Taoyuan City", "latitude": 24.99368, "longitude": 121.29696, "state": "Taiwan"}, {"city": "Nangan", "latitude": 26.15039, "longitude": 119.93284, "state": "Fukien"}, {"city": "Zhongxing New Village", "latitude": 23.95908, "longitude": 120.68516, "state": "Taiwan"}]