[{"city": "Port Elizabeth", "latitude": 13.01102, "longitude": -61.23548, "state": "Grenadines Parish"}, {"city": "Layou", "latitude": 13.20175, "longitude": -61.27014, "state": "Saint Andrew Parish"}, {"city": "Kingstown", "latitude": 13.15527, "longitude": -61.22742, "state": "Saint George Parish"}, {"city": "Georgetown", "latitude": 13.28054, "longitude": -61.1185, "state": "Charlotte Parish"}, {"city": "Chateaubelair", "latitude": 13.29069, "longitude": -61.24043, "state": "Saint David Parish"}, {"city": "Byera Village", "latitude": 13.25636, "longitude": -61.11954, "state": "Charlotte Parish"}, {"city": "Biabou", "latitude": 13.1943, "longitude": -61.13904, "state": "Charlotte Parish"}, {"city": "Barrouallie", "latitude": 13.23676, "longitude": -61.27275, "state": "Saint Patrick Parish"}]