[{"city": "Padang Mat Sirat", "latitude": 6.35423, "longitude": 99.73404, "state": "Kedah"}, {"city": "Ayer Hangat", "latitude": 6.42062, "longitude": 99.82199, "state": "Kedah"}, {"city": "Kuah", "latitude": 6.32649, "longitude": 99.8432, "state": "Kedah"}, {"city": "Jerantut", "latitude": 3.936, "longitude": 102.3626, "state": "Pahang"}, {"city": "Maran", "latitude": 3.586, "longitude": 102.773, "state": "Pahang"}, {"city": "Raub", "latitude": 3.7899, "longitude": 101.857, "state": "Pahang"}, {"city": "Bentung", "latitude": 3.5316, "longitude": 101.9038, "state": "Pahang"}, {"city": "Tanjong Malim", "latitude": 3.681, "longitude": 101.5198, "state": "Perak"}, {"city": "Batu Pahat", "latitude": 1.8548, "longitude": 102.9325, "state": "Johor"}, {"city": "Ayer Hitam", "latitude": 1.915, "longitude": 103.1808, "state": "Johor"}, {"city": "Parit Raja", "latitude": 1.8681, "longitude": 103.1124, "state": "Johor"}, {"city": "Layang Layang", "latitude": 1.8154, "longitude": 103.4784, "state": "Johor"}, {"city": "Simpang Renggam", "latitude": 1.825, "longitude": 103.3107, "state": "Johor"}, {"city": "Rengit", "latitude": 1.6807, "longitude": 103.1478, "state": "Johor"}, {"city": "Pekan Nenas", "latitude": 1.51, "longitude": 103.5141, "state": "Johor"}, {"city": "Ayer Baloi", "latitude": 1.5915, "longitude": 103.3327, "state": "Johor"}, {"city": "Pontian Kechil", "latitude": 1.4866, "longitude": 103.3896, "state": "Johor"}, {"city": "Kukup", "latitude": 1.3233, "longitude": 103.4426, "state": "Johor"}, {"city": "Kampung Pasir Gudang Baru", "latitude": 1.4726, "longitude": 103.878, "state": "Johor"}, {"city": "Pasir Gudang", "latitude": 1.462, "longitude": 103.9053, "state": "Johor"}, {"city": "Kampung Sedenak", "latitude": 1.7114, "longitude": 103.5276, "state": "Johor"}, {"city": "Kota Tinggi", "latitude": 1.7381, "longitude": 103.8999, "state": "Johor"}, {"city": "Taman Senai", "latitude": 1.6006, "longitude": 103.6419, "state": "Johor"}, {"city": "Kulai", "latitude": 1.6561, "longitude": 103.6032, "state": "Johor"}, {"city": "Skudai", "latitude": 1.53741, "longitude": 103.65779, "state": "Johor"}, {"city": "Kempas", "latitude": 1.5489, "longitude": 103.6965, "state": "Johor"}, {"city": "Pelentong", "latitude": 1.5243, "longitude": 103.824, "state": "Johor"}, {"city": "Johor Bahru", "latitude": 1.4655, "longitude": 103.7578, "state": "Johor"}, {"city": "Gelang Patah", "latitude": 1.4484, "longitude": 103.5873, "state": "Johor"}, {"city": "Kluang", "latitude": 2.03046, "longitude": 103.31689, "state": "Johor"}, {"city": "Yong Peng", "latitude": 2.0136, "longitude": 103.0659, "state": "Johor"}, {"city": "Mersing", "latitude": 2.4312, "longitude": 103.8405, "state": "Johor"}, {"city": "Segamat", "latitude": 2.5148, "longitude": 102.8158, "state": "Johor"}, {"city": "Tangkak", "latitude": 2.2673, "longitude": 102.5453, "state": "Johor"}, {"city": "Pagoh", "latitude": 2.1495, "longitude": 102.7704, "state": "Johor"}, {"city": "Bandar Sungai Mati", "latitude": 2.1467, "longitude": 102.5655, "state": "Johor"}, {"city": "Muar", "latitude": 2.0442, "longitude": 102.5689, "state": "Johor"}, {"city": "Bakri", "latitude": 2.0441, "longitude": 102.6527, "state": "Johor"}, {"city": "Labis", "latitude": 2.385, "longitude": 103.021, "state": "Johor"}, {"city": "Chaah", "latitude": 2.249, "longitude": 103.048, "state": "Johor"}, {"city": "Kuala Selangor", "latitude": 3.35, "longitude": 101.25, "state": "Selangor"}, {"city": "Batang Berjuntai", "latitude": 3.38333, "longitude": 101.41667, "state": "Selangor"}, {"city": "Batu Arang", "latitude": 3.31667, "longitude": 101.46667, "state": "Selangor"}, {"city": "Shah Alam", "latitude": 3.08507, "longitude": 101.53281, "state": "Selangor"}, {"city": "Klang", "latitude": 3.03667, "longitude": 101.44333, "state": "Selangor"}, {"city": "Cangkat Jong", "latitude": 3.9851, "longitude": 101.1237, "state": "Perak"}, {"city": "Sungkai", "latitude": 4.0, "longitude": 101.31667, "state": "Perak"}, {"city": "Slim River", "latitude": 3.83333, "longitude": 101.4, "state": "Perak"}, {"city": "Sekinchan", "latitude": 3.5074, "longitude": 101.1041, "state": "Selangor"}, {"city": "Cukai", "latitude": 4.25, "longitude": 103.41667, "state": "Terengganu"}, {"city": "Kuala Lipis", "latitude": 4.1842, "longitude": 102.0468, "state": "Pahang"}, {"city": "Papar", "latitude": 5.73333, "longitude": 115.93333, "state": "Sabah"}, {"city": "Kota Kinabalu", "latitude": 5.9749, "longitude": 116.0724, "state": "Sabah"}, {"city": "Donggongon", "latitude": 5.90702, "longitude": 116.10146, "state": "Sabah"}, {"city": "Putatan", "latitude": 5.9258, "longitude": 116.06094, "state": "Sabah"}, {"city": "Kinarut", "latitude": 5.8231, "longitude": 116.0466, "state": "Sabah"}, {"city": "Ranau", "latitude": 5.9538, "longitude": 116.6641, "state": "Sabah"}, {"city": "Semporna", "latitude": 4.48178, "longitude": 118.61119, "state": "Sabah"}, {"city": "Labuan", "latitude": 5.28028, "longitude": 115.2475, "state": null}, {"city": "Beaufort", "latitude": 5.3473, "longitude": 115.7455, "state": "Sabah"}, {"city": "Lahad Datu", "latitude": 5.02298, "longitude": 118.32897, "state": "Sabah"}, {"city": "Sandakan", "latitude": 5.8402, "longitude": 118.1179, "state": "Sabah"}, {"city": "Keningau", "latitude": 5.3378, "longitude": 116.1602, "state": "Sabah"}, {"city": "Tawau", "latitude": 4.24482, "longitude": 117.89115, "state": "Sabah"}, {"city": "Paka", "latitude": 4.6374, "longitude": 103.4368, "state": "Terengganu"}, {"city": "Kertih", "latitude": 4.5141, "longitude": 103.4483, "state": "Terengganu"}, {"city": "Gerik", "latitude": 5.41667, "longitude": 101.13333, "state": "Perak"}, {"city": "Kulim", "latitude": 5.36499, "longitude": 100.56177, "state": "Kedah"}, {"city": "Selama", "latitude": 5.2236, "longitude": 100.69262, "state": "Perak"}, {"city": "Bandar Baharu", "latitude": 5.13428, "longitude": 100.49549, "state": "Kedah"}, {"city": "Bagan Serai", "latitude": 5.0108, "longitude": 100.54101, "state": "Perak"}, {"city": "Bedong", "latitude": 5.72743, "longitude": 100.50876, "state": "Kedah"}, {"city": "Kampung Kupang", "latitude": 5.63638, "longitude": 100.84517, "state": "Kedah"}, {"city": "Pulai", "latitude": 5.65489, "longitude": 100.89541, "state": "Kedah"}, {"city": "Siburan", "latitude": 1.36667, "longitude": 110.4, "state": "Sarawak"}, {"city": "Tebedu", "latitude": 1.02656, "longitude": 110.36331, "state": "Sarawak"}, {"city": "Bau", "latitude": 1.41667, "longitude": 110.15, "state": "Sarawak"}, {"city": "Sebuyau", "latitude": 1.51667, "longitude": 110.93333, "state": "Sarawak"}, {"city": "Simpang Empat", "latitude": 4.95, "longitude": 100.63333, "state": "Perak"}, {"city": "Kamunting", "latitude": 4.88333, "longitude": 100.73333, "state": "Perak"}, {"city": "Kampung Enggor", "latitude": 4.82577, "longitude": 100.97038, "state": "Perak"}, {"city": "Taiping", "latitude": 4.85, "longitude": 100.73333, "state": "Perak"}, {"city": "Kuala Kangsar", "latitude": 4.76667, "longitude": 100.93333, "state": "Perak"}, {"city": "Berincang", "latitude": 4.49112, "longitude": 101.38694, "state": "Pahang"}, {"city": "Ipoh", "latitude": 4.5841, "longitude": 101.0829, "state": "Perak"}, {"city": "Lahat", "latitude": 4.5388, "longitude": 101.0365, "state": "Perak"}, {"city": "Menglembu", "latitude": 4.5594, "longitude": 101.0484, "state": "Perak"}, {"city": "Gua Musang", "latitude": 4.88441, "longitude": 101.96857, "state": "Kelantan"}, {"city": "Kuala Terengganu", "latitude": 5.3302, "longitude": 103.1408, "state": "Terengganu"}, {"city": "Marang", "latitude": 5.2056, "longitude": 103.2059, "state": "Terengganu"}, {"city": "Ajil", "latitude": 5.0829, "longitude": 103.0857, "state": "Terengganu"}, {"city": "Lubok China", "latitude": 2.4536, "longitude": 102.0695, "state": "Melaka"}, {"city": "Tampin", "latitude": 2.4701, "longitude": 102.2302, "state": "Negeri Sembilan"}, {"city": "Nyalas", "latitude": 2.4338, "longitude": 102.4714, "state": "Melaka"}, {"city": "Alor Gajah", "latitude": 2.3804, "longitude": 102.2089, "state": "Melaka"}, {"city": "Durian Tunggal", "latitude": 2.3125, "longitude": 102.2805, "state": "Melaka"}, {"city": "Kampung Ayer Keroh", "latitude": 2.2654, "longitude": 102.2801, "state": "Melaka"}, {"city": "Ayer Molek", "latitude": 2.2028, "longitude": 102.3172, "state": "Melaka"}, {"city": "Sungai Udang", "latitude": 2.269, "longitude": 102.1427, "state": "Melaka"}, {"city": "Malacca", "latitude": 2.196, "longitude": 102.2405, "state": "Melaka"}, {"city": "Kampung Umbai", "latitude": 2.1586, "longitude": 102.3475, "state": "Melaka"}, {"city": "Pelabuhan Klang", "latitude": 2.99959, "longitude": 101.39287, "state": "Selangor"}, {"city": "Banting", "latitude": 2.8136, "longitude": 101.50185, "state": "Selangor"}, {"city": "Jenjarum", "latitude": 2.8724, "longitude": 101.49484, "state": "Selangor"}, {"city": "Semenyih", "latitude": 2.9516, "longitude": 101.843, "state": "Selangor"}, {"city": "Mantin", "latitude": 2.8243, "longitude": 101.8949, "state": "Negeri Sembilan"}, {"city": "Seremban", "latitude": 2.7297, "longitude": 101.9381, "state": "Negeri Sembilan"}, {"city": "Port Dickson", "latitude": 2.52462, "longitude": 101.79651, "state": "Negeri Sembilan"}, {"city": "Sepang", "latitude": 2.6931, "longitude": 101.7498, "state": "Selangor"}, {"city": "Taman Senawang Indah", "latitude": 2.691, "longitude": 101.989, "state": "Negeri Sembilan"}, {"city": "Bahau", "latitude": 2.8079, "longitude": 102.4049, "state": "Negeri Sembilan"}, {"city": "Kuala Pilah", "latitude": 2.7389, "longitude": 102.2487, "state": "Negeri Sembilan"}, {"city": "Buloh Kasap", "latitude": 2.5536, "longitude": 102.764, "state": "Johor"}, {"city": "Rompin", "latitude": 2.7083, "longitude": 102.5047, "state": "Negeri Sembilan"}, {"city": "Gemas", "latitude": 2.5832, "longitude": 102.6117, "state": "Negeri Sembilan"}, {"city": "Padang Endau", "latitude": 2.65568, "longitude": 103.61504, "state": "Johor"}, {"city": "Kampung Tekek", "latitude": 2.8147, "longitude": 104.1592, "state": "Pahang"}, {"city": "Pekan", "latitude": 3.4836, "longitude": 103.3996, "state": "Pahang"}, {"city": "Mentakab", "latitude": 3.4854, "longitude": 102.3484, "state": "Pahang"}, {"city": "Temerluh", "latitude": 3.4506, "longitude": 102.4176, "state": "Pahang"}, {"city": "Batu Feringgi", "latitude": 5.4709, "longitude": 100.24529, "state": "Penang"}, {"city": "Butterworth", "latitude": 5.3991, "longitude": 100.36382, "state": "Penang"}, {"city": "Perai", "latitude": 5.38333, "longitude": 100.38333, "state": "Penang"}, {"city": "Bukit Mertajam", "latitude": 5.36301, "longitude": 100.4667, "state": "Penang"}, {"city": "Nibong Tebal", "latitude": 5.16586, "longitude": 100.47793, "state": "Penang"}, {"city": "Parit Buntar", "latitude": 5.12671, "longitude": 100.49316, "state": "Perak"}, {"city": "Kuala Kurau", "latitude": 5.01821, "longitude": 100.42824, "state": "Perak"}, {"city": "Tasek Glugor", "latitude": 5.48032, "longitude": 100.49849, "state": "Penang"}, {"city": "Balik Pulau", "latitude": 5.34916, "longitude": 100.23938, "state": "Penang"}, {"city": "Bayan Lepas", "latitude": 5.29992, "longitude": 100.26052, "state": "Penang"}, {"city": "George Town", "latitude": 5.41123, "longitude": 100.33543, "state": "Penang"}, {"city": "Kampung Bukit Tinggi, Bentong", "latitude": 3.34944, "longitude": 101.82631, "state": "Pahang"}, {"city": "Rasa", "latitude": 3.4955, "longitude": 101.6294, "state": "Selangor"}, {"city": "Serendah", "latitude": 3.3646, "longitude": 101.6041, "state": "Selangor"}, {"city": "Rawang", "latitude": 3.3213, "longitude": 101.5767, "state": "Selangor"}, {"city": "Sungai Buloh", "latitude": 3.21, "longitude": 101.561, "state": "Selangor"}, {"city": "Petaling Jaya", "latitude": 3.10726, "longitude": 101.60671, "state": "Selangor"}, {"city": "Kuala Lumpur", "latitude": 3.1412, "longitude": 101.68653, "state": null}, {"city": "Batu Caves", "latitude": 3.238, "longitude": 101.682, "state": "Selangor"}, {"city": "Ampang", "latitude": 3.15, "longitude": 101.76667, "state": "Kuala Lumpur"}, {"city": "Hulu Langat", "latitude": 3.1137, "longitude": 101.8142, "state": "Selangor"}, {"city": "Bagan Datuk", "latitude": 3.9899, "longitude": 100.7819, "state": "Perak"}, {"city": "Hutan Melintang", "latitude": 3.8766, "longitude": 100.9328, "state": "Perak"}, {"city": "Sabak Bernam", "latitude": 3.7698, "longitude": 100.9879, "state": "Selangor"}, {"city": "Sungai Besar", "latitude": 3.6746, "longitude": 100.9867, "state": "Selangor"}, {"city": "Kuantan", "latitude": 3.8077, "longitude": 103.326, "state": "Pahang"}, {"city": "Gambang", "latitude": 3.7068, "longitude": 103.1002, "state": "Pahang"}, {"city": "Tanah Rata", "latitude": 4.46361, "longitude": 101.3763, "state": "Pahang"}, {"city": "Ringlet", "latitude": 4.4155, "longitude": 101.3836, "state": "Pahang"}, {"city": "Gopeng", "latitude": 4.4715, "longitude": 101.1663, "state": "Perak"}, {"city": "Batu Gajah", "latitude": 4.46916, "longitude": 101.04107, "state": "Perak"}, {"city": "Malim Nawar", "latitude": 4.3506, "longitude": 101.1188, "state": "Perak"}, {"city": "Kampar", "latitude": 4.3, "longitude": 101.15, "state": "Perak"}, {"city": "Tapah Road", "latitude": 4.16667, "longitude": 101.2, "state": "Perak"}, {"city": "Bidur", "latitude": 4.11667, "longitude": 101.28333, "state": "Perak"}, {"city": "Mukah", "latitude": 2.89435, "longitude": 112.09145, "state": "Sarawak"}, {"city": "Tatau", "latitude": 2.88333, "longitude": 112.85, "state": "Sarawak"}, {"city": "Balingian", "latitude": 2.93057, "longitude": 112.54135, "state": "Sarawak"}, {"city": "Pusing", "latitude": 4.4941, "longitude": 101.0079, "state": "Perak"}, {"city": "Lumut", "latitude": 4.2323, "longitude": 100.6298, "state": "Perak"}, {"city": "Sitiawan", "latitude": 4.2168, "longitude": 100.6996, "state": "Perak"}, {"city": "Teluk Intan", "latitude": 4.02219, "longitude": 101.02083, "state": "Perak"}, {"city": "Taman Kota Sarang Semut", "latitude": 5.97907, "longitude": 100.39993, "state": "Kedah"}, {"city": "Gurun", "latitude": 5.81717, "longitude": 100.47381, "state": "Kedah"}, {"city": "Yan Besar", "latitude": 5.7989, "longitude": 100.37264, "state": "Kedah"}, {"city": "Sungai Petani", "latitude": 5.647, "longitude": 100.48772, "state": "Kedah"}, {"city": "Kepala Batas", "latitude": 5.51707, "longitude": 100.4265, "state": "Penang"}, {"city": "Ketereh", "latitude": 5.95701, "longitude": 102.24817, "state": "Kelantan"}, {"city": "Pulai Chondong", "latitude": 5.87133, "longitude": 102.23177, "state": "Kelantan"}, {"city": "Tanah Merah", "latitude": 5.8, "longitude": 102.15, "state": "Kelantan"}, {"city": "Kuching", "latitude": 1.55, "longitude": 110.33333, "state": "Sarawak"}, {"city": "Simunjan", "latitude": 1.38333, "longitude": 110.75, "state": "Sarawak"}, {"city": "Pantu", "latitude": 1.13968, "longitude": 111.11771, "state": "Sarawak"}, {"city": "Lingga", "latitude": 1.35, "longitude": 111.16667, "state": "Sarawak"}, {"city": "Sri Aman", "latitude": 1.24722, "longitude": 111.45278, "state": "Sarawak"}, {"city": "Sarikei", "latitude": 2.11667, "longitude": 111.51667, "state": "Sarawak"}, {"city": "Maradong", "latitude": 2.08333, "longitude": 111.61667, "state": "Sarawak"}, {"city": "Julau", "latitude": 2.01667, "longitude": 111.91667, "state": "Sarawak"}, {"city": "Sibu", "latitude": 2.3, "longitude": 111.81667, "state": "Sarawak"}, {"city": "Pakan", "latitude": 1.88333, "longitude": 111.68333, "state": "Sarawak"}, {"city": "Kampung Oran", "latitude": 6.46529, "longitude": 100.24558, "state": "Perlis"}, {"city": "Alor Janggus", "latitude": 6.17386, "longitude": 100.31156, "state": "Kedah"}, {"city": "Kampung Asun", "latitude": 6.33333, "longitude": 100.33333, "state": "Kedah"}, {"city": "Kangar", "latitude": 6.4414, "longitude": 100.19862, "state": "Perlis"}, {"city": "Bukit Kayu Hitam", "latitude": 6.51668, "longitude": 100.41893, "state": "Kedah"}, {"city": "Changloon", "latitude": 6.43422, "longitude": 100.43133, "state": "Kedah"}, {"city": "Kodiang", "latitude": 6.39638, "longitude": 100.30755, "state": "Kedah"}, {"city": "Kuala Perlis", "latitude": 6.4, "longitude": 100.13333, "state": "Perlis"}, {"city": "Padang Sira", "latitude": 6.36211, "longitude": 100.33954, "state": "Kedah"}, {"city": "Jitra", "latitude": 6.26812, "longitude": 100.42167, "state": "Kedah"}, {"city": "Kepala Batas", "latitude": 6.20411, "longitude": 100.40754, "state": "Kedah"}, {"city": "Kuala Kedah", "latitude": 6.1, "longitude": 100.3, "state": "Kedah"}, {"city": "Langgar", "latitude": 6.14762, "longitude": 100.43238, "state": "Kedah"}, {"city": "Alor Setar", "latitude": 6.12104, "longitude": 100.36014, "state": "Kedah"}, {"city": "Kangkong", "latitude": 6.0005, "longitude": 100.34463, "state": "Kedah"}, {"city": "Sintok", "latitude": 6.44233, "longitude": 100.5235, "state": "Kedah"}, {"city": "Kuala Nerang", "latitude": 6.25844, "longitude": 100.61264, "state": "Kedah"}, {"city": "Pokok Sena", "latitude": 6.17055, "longitude": 100.51885, "state": "Kedah"}, {"city": "Tumpat", "latitude": 6.19775, "longitude": 102.17098, "state": "Kelantan"}, {"city": "Pasir Mas", "latitude": 6.04934, "longitude": 102.13987, "state": "Kelantan"}, {"city": "Kota Bharu", "latitude": 6.12361, "longitude": 102.24333, "state": "Kelantan"}, {"city": "Kuala Besut", "latitude": 5.83303, "longitude": 102.55514, "state": "Terengganu"}, {"city": "Jertih", "latitude": 5.7336, "longitude": 102.4897, "state": "Terengganu"}, {"city": "Kudat", "latitude": 6.88732, "longitude": 116.82364, "state": "Sabah"}, {"city": "Kota Belud", "latitude": 6.351, "longitude": 116.4305, "state": "Sabah"}, {"city": "Spaoh", "latitude": 1.5, "longitude": 111.5, "state": "Sarawak"}, {"city": "Roban", "latitude": 1.91667, "longitude": 111.33333, "state": "Sarawak"}, {"city": "Pusa", "latitude": 1.58333, "longitude": 111.25, "state": "Sarawak"}, {"city": "Debak", "latitude": 1.56667, "longitude": 111.41667, "state": "Sarawak"}, {"city": "Budu", "latitude": 1.76667, "longitude": 111.5, "state": "Sarawak"}, {"city": "Maludam", "latitude": 1.65, "longitude": 111.03333, "state": "Sarawak"}, {"city": "Saratok", "latitude": 1.73333, "longitude": 111.33333, "state": "Sarawak"}, {"city": "Daro", "latitude": 2.51667, "longitude": 111.43333, "state": "Sarawak"}, {"city": "Oya", "latitude": 2.86667, "longitude": 111.88333, "state": "Sarawak"}, {"city": "Igan", "latitude": 2.82281, "longitude": 111.70794, "state": "Sarawak"}, {"city": "Matu", "latitude": 2.68333, "longitude": 111.53333, "state": "Sarawak"}, {"city": "Lubok Antu", "latitude": 1.04186, "longitude": 111.83398, "state": "Sarawak"}, {"city": "Engkilili", "latitude": 1.13864, "longitude": 111.66665, "state": "Sarawak"}, {"city": "Betong", "latitude": 1.4, "longitude": 111.51667, "state": "Sarawak"}, {"city": "Dalat", "latitude": 2.66667, "longitude": 112.08333, "state": "Sarawak"}, {"city": "Kanowit", "latitude": 2.1, "longitude": 112.15, "state": "Sarawak"}, {"city": "Lundu", "latitude": 1.67439, "longitude": 109.85171, "state": "Sarawak"}, {"city": "Sematan", "latitude": 1.8, "longitude": 109.76667, "state": "Sarawak"}, {"city": "Song", "latitude": 2.01667, "longitude": 112.55, "state": "Sarawak"}, {"city": "Kapit", "latitude": 1.99546, "longitude": 112.93254, "state": "Sarawak"}, {"city": "Niah", "latitude": 3.86203, "longitude": 113.71521, "state": "Sarawak"}, {"city": "Belaga", "latitude": 2.7, "longitude": 113.78333, "state": "Sarawak"}, {"city": "Bintulu", "latitude": 3.16667, "longitude": 113.03333, "state": "Sarawak"}, {"city": "Sebauh", "latitude": 3.11667, "longitude": 113.26667, "state": "Sarawak"}, {"city": "Trusan", "latitude": 4.7849, "longitude": 115.2728, "state": "Sarawak"}, {"city": "Lawas", "latitude": 4.8604, "longitude": 115.409, "state": "Sarawak"}, {"city": "Sundar", "latitude": 4.9, "longitude": 115.2, "state": "Sarawak"}, {"city": "Nanga Medamit", "latitude": 4.46667, "longitude": 114.91667, "state": "Sarawak"}, {"city": "Limbang", "latitude": 4.75477, "longitude": 115.01011, "state": "Sarawak"}, {"city": "Long Bedian", "latitude": 3.8, "longitude": 114.73333, "state": "Sarawak"}, {"city": "Marudi", "latitude": 4.18333, "longitude": 114.31667, "state": "Sarawak"}, {"city": "Beluru", "latitude": 3.98333, "longitude": 114.1, "state": "Sarawak"}, {"city": "Long Lama", "latitude": 3.76667, "longitude": 114.4, "state": "Sarawak"}, {"city": "Miri", "latitude": 4.39928, "longitude": 113.99163, "state": "Sarawak"}, {"city": "Ulu Tiram", "latitude": 1.6, "longitude": 103.81667, "state": "Johor"}, {"city": "Ulu Kinta", "latitude": 4.66667, "longitude": 101.21667, "state": "Perak"}, {"city": "Ulu Kelang", "latitude": 3.18, "longitude": 101.773, "state": "Selangor"}, {"city": "Teluk Bahang", "latitude": 5.45834, "longitude": 100.21541, "state": "Penang"}, {"city": "Telaga Batu", "latitude": 5.46667, "longitude": 100.23333, "state": "Penang"}, {"city": "Tanjung Tokong", "latitude": 5.46061, "longitude": 100.30742, "state": "Penang"}, {"city": "Tanjung Sepat", "latitude": 2.6579, "longitude": 101.5629, "state": "Selangor"}, {"city": "Sungai Pelek New Village", "latitude": 2.65, "longitude": 101.7, "state": "Selangor"}, {"city": "Serian", "latitude": 1.16667, "longitude": 110.56667, "state": "Sarawak"}, {"city": "Seputeh", "latitude": 3.11667, "longitude": 101.68333, "state": "Kuala Lumpur"}, {"city": "Mulu", "latitude": 1.68333, "longitude": 111.38333, "state": "Sarawak"}, {"city": "Relau", "latitude": 5.33096, "longitude": 100.28296, "state": "Penang"}, {"city": "Pulau Sebang", "latitude": 2.455, "longitude": 102.2329, "state": "Melaka"}, {"city": "Permatang Pasir", "latitude": 5.41628, "longitude": 100.43864, "state": "Penang"}, {"city": "Permatang Kuching", "latitude": 5.46339, "longitude": 100.38144, "state": "Penang"}, {"city": "Peringat", "latitude": 6.03333, "longitude": 102.28333, "state": "Kelantan"}, {"city": "Ladang Seri Kundang", "latitude": 3.2856, "longitude": 101.519, "state": "Selangor"}, {"city": "Pantai Remis", "latitude": 4.4557, "longitude": 100.6288, "state": "Perak"}, {"city": "Padang Besar", "latitude": 6.38333, "longitude": 100.3, "state": "Kedah"}, {"city": "Nanga Merit", "latitude": 2.28333, "longitude": 113.13333, "state": "Sarawak"}, {"city": "Lukut", "latitude": 2.5703, "longitude": 101.833, "state": "Negeri Sembilan"}, {"city": "Lubok Buntar", "latitude": 5.14216, "longitude": 100.58971, "state": "Kedah"}, {"city": "Kuang", "latitude": 3.2594, "longitude": 101.5541, "state": "Selangor"}, {"city": "Kuala Sungai Baru", "latitude": 2.3594, "longitude": 102.0353, "state": "Melaka"}, {"city": "Kuala Pegang", "latitude": 5.63623, "longitude": 100.80913, "state": "Kedah"}, {"city": "Kuala Ketil", "latitude": 5.6, "longitude": 100.65, "state": "Kedah"}, {"city": "Klebang Besar", "latitude": 2.2186, "longitude": 102.1995, "state": "Melaka"}, {"city": "Kelapa Sawit", "latitude": 1.6698, "longitude": 103.5327, "state": "Johor"}, {"city": "Kampung Kangkar Teberau", "latitude": 1.532, "longitude": 103.7549, "state": "Johor"}, {"city": "Kampong Wang Tepus", "latitude": 6.25, "longitude": 100.48333, "state": "Kedah"}, {"city": "Titi Gajah", "latitude": 6.20189, "longitude": 100.39326, "state": "Kedah"}, {"city": "Telaga Mas", "latitude": 6.16667, "longitude": 100.46667, "state": "Kedah"}, {"city": "Tebengau", "latitude": 6.04603, "longitude": 100.33137, "state": "Kedah"}, {"city": "Kampung Tawar Besar", "latitude": 5.55658, "longitude": 100.81204, "state": "Kedah"}, {"city": "Kampung Tanjung Karang", "latitude": 3.4242, "longitude": 101.1849, "state": "Selangor"}, {"city": "Kampong Tajar", "latitude": 6.1, "longitude": 100.41667, "state": "Kedah"}, {"city": "Kampong Sungai Kechil Ulu", "latitude": 5.10962, "longitude": 100.5438, "state": "Kedah"}, {"city": "Kampung Sungai Kajang", "latitude": 3.4161, "longitude": 101.173, "state": "Selangor"}, {"city": "Kampung Sungai Glugur", "latitude": 5.36966, "longitude": 100.31353, "state": "Penang"}, {"city": "Kampong Sungai Batu", "latitude": 5.31764, "longitude": 100.70043, "state": "Kedah"}, {"city": "Sungai Baharu", "latitude": 6.16399, "longitude": 100.33392, "state": "Kedah"}, {"city": "Kampung Sungai Ara", "latitude": 5.32699, "longitude": 100.27348, "state": "Penang"}, {"city": "Kampung Siong", "latitude": 5.78863, "longitude": 100.90862, "state": "Kedah"}, {"city": "Kampung Simpang Renggam", "latitude": 1.8278, "longitude": 103.3, "state": "Johor"}, {"city": "Kampung Simpang Pulai", "latitude": 5.71057, "longitude": 100.99651, "state": "Perak"}, {"city": "Sala Kechik", "latitude": 5.98425, "longitude": 100.34923, "state": "Kedah"}, {"city": "Kampung Relau", "latitude": 5.23126, "longitude": 100.55593, "state": "Kedah"}, {"city": "Kampung Pulai", "latitude": 5.65838, "longitude": 100.89172, "state": "Kedah"}, {"city": "Lepai", "latitude": 6.08333, "longitude": 100.36667, "state": "Kedah"}, {"city": "Kampung Permatang Pasir", "latitude": 5.37237, "longitude": 100.21089, "state": "Penang"}, {"city": "Kampung Pering", "latitude": 6.37598, "longitude": 100.33644, "state": "Kedah"}, {"city": "Pengkalan Kundor", "latitude": 6.07794, "longitude": 100.36038, "state": "Kedah"}, {"city": "Kampung Pengkalan Gelong", "latitude": 6.19346, "longitude": 100.38304, "state": "Kedah"}, {"city": "Kampung Parit Panjang", "latitude": 5.70566, "longitude": 100.74618, "state": "Kedah"}, {"city": "Kampong Pangkal Kalong", "latitude": 5.91667, "longitude": 102.21667, "state": "Kelantan"}, {"city": "Kampung Padang Lalang", "latitude": 6.16368, "longitude": 100.3099, "state": "Kedah"}, {"city": "Padang Hang", "latitude": 6.20635, "longitude": 100.30177, "state": "Kedah"}, {"city": "Kampung Padang Cina", "latitude": 5.43809, "longitude": 100.57905, "state": "Kedah"}, {"city": "Kampung Naga Lilit", "latitude": 5.47646, "longitude": 100.55087, "state": "Kedah"}, {"city": "Kampung Minyak Beku", "latitude": 1.7954, "longitude": 102.8971, "state": "Johor"}, {"city": "Kampong Masjid Tanah", "latitude": 2.35, "longitude": 102.11667, "state": "Melaka"}, {"city": "Limbong", "latitude": 6.13333, "longitude": 100.41667, "state": "Kedah"}, {"city": "Lenggong", "latitude": 5.10633, "longitude": 100.96792, "state": "Perak"}, {"city": "Kampung Lalang", "latitude": 5.79179, "longitude": 100.89719, "state": "Kedah"}, {"city": "Kampung Kuala Selama", "latitude": 5.23816, "longitude": 100.68297, "state": "Kedah"}, {"city": "Kobang", "latitude": 4.44188, "longitude": 118.69287, "state": "Sabah"}, {"city": "Kampong Kadok", "latitude": 6.0, "longitude": 102.25, "state": "Kelantan"}, {"city": "Kampung Jerlun", "latitude": 6.21392, "longitude": 100.26581, "state": "Kedah"}, {"city": "Ijok", "latitude": 3.31667, "longitude": 101.4, "state": "Selangor"}, {"city": "Kampong Gunong", "latitude": 5.71667, "longitude": 101.75, "state": "Kelantan"}, {"city": "Kampong Dungun", "latitude": 3.21667, "longitude": 101.31667, "state": "Perak"}, {"city": "Derga", "latitude": 6.12092, "longitude": 100.3893, "state": "Kedah"}, {"city": "Kampong Cherang Hangus", "latitude": 6.03333, "longitude": 102.35, "state": "Kelantan"}, {"city": "Kampong Chap", "latitude": 6.05, "longitude": 102.35, "state": "Kelantan"}, {"city": "Bukit Pinang", "latitude": 5.93333, "longitude": 100.45, "state": "Kedah"}, {"city": "Kampung Bukit Baharu", "latitude": 2.2152, "longitude": 102.2851, "state": "Melaka"}, {"city": "Kampung Batu Feringgi", "latitude": 5.46948, "longitude": 100.24449, "state": "Penang"}, {"city": "Kampung Baru Subang", "latitude": 3.15, "longitude": 101.53333, "state": "Selangor"}, {"city": "Kampong Bakai", "latitude": 5.53333, "longitude": 100.73333, "state": "Kedah"}, {"city": "Kampung Baharu Nilai", "latitude": 2.8033, "longitude": 101.7972, "state": "Negeri Sembilan"}, {"city": "Kampong Baharu Cheras Batu Sebelas", "latitude": 3.05, "longitude": 101.76667, "state": "Selangor"}, {"city": "Kampung Baru Balakong", "latitude": 3.02938, "longitude": 101.74714, "state": "Selangor"}, {"city": "Kampung Bagan", "latitude": 1.8481, "longitude": 102.8588, "state": "Johor"}, {"city": "Kampung Ayer Molek", "latitude": 2.2139, "longitude": 102.3278, "state": "Melaka"}, {"city": "Anak Bukit", "latitude": 6.184, "longitude": 100.37752, "state": "Kedah"}, {"city": "Alor Merah", "latitude": 6.16667, "longitude": 100.38333, "state": "Kedah"}, {"city": "Juru", "latitude": 5.31201, "longitude": 100.44229, "state": "Penang"}, {"city": "Jelutong", "latitude": 5.38998, "longitude": 100.31885, "state": "Penang"}, {"city": "Jawi", "latitude": 5.21525, "longitude": 100.49211, "state": "Penang"}, {"city": "Guar Chempedak", "latitude": 5.85846, "longitude": 100.45928, "state": "Kedah"}, {"city": "Glenmarie Estate", "latitude": 3.08333, "longitude": 101.58333, "state": "Selangor"}, {"city": "Bukit Tambun", "latitude": 5.27179, "longitude": 100.4601, "state": "Penang"}, {"city": "Bukit Rambai", "latitude": 2.2594, "longitude": 102.1838, "state": "Melaka"}, {"city": "Bentong Town", "latitude": 3.52229, "longitude": 101.90866, "state": "Pahang"}, {"city": "Bemban", "latitude": 2.2684, "longitude": 102.3746, "state": "Melaka"}, {"city": "Batu Kawan", "latitude": 5.25822, "longitude": 100.42876, "state": "Penang"}, {"city": "Kampung Batu Empat", "latitude": 1.776, "longitude": 103.8736, "state": "Johor"}, {"city": "Batu Berendam", "latitude": 2.2487, "longitude": 102.246, "state": "Melaka"}, {"city": "Batang Kali", "latitude": 3.4684, "longitude": 101.6389, "state": "Selangor"}, {"city": "Bagan Pulau Ketam", "latitude": 3.01667, "longitude": 101.26667, "state": "Selangor"}, {"city": "Bagan Datoh", "latitude": 3.98333, "longitude": 100.78333, "state": "Perak"}, {"city": "Ayer Tawar", "latitude": 4.3055, "longitude": 100.7618, "state": "Perak"}, {"city": "Ayer Itam", "latitude": 5.40158, "longitude": 100.27815, "state": "Penang"}, {"city": "Kampung Teluk Kumbar", "latitude": 5.28769, "longitude": 100.23379, "state": "Penang"}, {"city": "Putrajaya", "latitude": 2.93527, "longitude": 101.69112, "state": null}, {"city": "Kampung Kilim", "latitude": 6.4055, "longitude": 99.8502, "state": "Kedah"}, {"city": "Kampung Kok", "latitude": 6.36759, "longitude": 99.68252, "state": "Kedah"}, {"city": "Kuala Teriang", "latitude": 6.36377, "longitude": 99.71532, "state": "Kedah"}, {"city": "Kampung Batu Lima", "latitude": 5.79345, "longitude": 100.68937, "state": "Kedah"}, {"city": "Kampung Bongor", "latitude": 5.70397, "longitude": 100.91426, "state": "Kedah"}, {"city": "Sik", "latitude": 5.83333, "longitude": 100.75, "state": "Kedah"}, {"city": "Lengkuas", "latitude": 6.02782, "longitude": 100.38185, "state": "Kedah"}, {"city": "Gunong", "latitude": 6.19011, "longitude": 100.34135, "state": "Kedah"}, {"city": "Simpang Empat", "latitude": 6.02674, "longitude": 100.39603, "state": "Kedah"}, {"city": "Kampung Hutan Arau", "latitude": 6.42942, "longitude": 100.28174, "state": "Perlis"}, {"city": "Kampung Sungai Rusa", "latitude": 5.38193, "longitude": 100.21729, "state": "Penang"}, {"city": "Batu Hitam", "latitude": 5.38961, "longitude": 100.23262, "state": "Penang"}, {"city": "Tanjung Bungah", "latitude": 5.46491, "longitude": 100.28165, "state": "Penang"}, {"city": "Glugor", "latitude": 5.37215, "longitude": 100.30708, "state": "Penang"}, {"city": "Teloi Kanan", "latitude": 5.71681, "longitude": 100.65819, "state": "Kedah"}, {"city": "Kota Kuala Muda", "latitude": 5.58822, "longitude": 100.37085, "state": "Kedah"}, {"city": "Selama Kedah", "latitude": 5.23242, "longitude": 100.68284, "state": "Kedah"}, {"city": "Bagan Samak", "latitude": 5.0895, "longitude": 100.56191, "state": "Kedah"}, {"city": "Kampung Kuala Besut", "latitude": 5.83297, "longitude": 102.55061, "state": "Terengganu"}, {"city": "Cyberjaya", "latitude": 2.92281, "longitude": 101.65718, "state": "Selangor"}, {"city": "Kampung Lemal", "latitude": 6.03021, "longitude": 102.14126, "state": "Kelantan"}, {"city": "Bandar Labuan", "latitude": 5.28319, "longitude": 115.25371, "state": "Sabah"}, {"city": "Bercham", "latitude": 4.6411, "longitude": 101.1393, "state": "Perak"}, {"city": "Taman Mount Austin", "latitude": 1.5609, "longitude": 103.782, "state": "Johor"}, {"city": "Kampung Parit Belahan Tampok", "latitude": 1.661, "longitude": 103.1936, "state": "Johor"}, {"city": "Kawasan Penempatan Ulu Sungai Benut", "latitude": 1.7541, "longitude": 103.2798, "state": "Johor"}, {"city": "Kawasan Penempatan Ulu Benut Tiga", "latitude": 1.7497, "longitude": 103.277, "state": "Johor"}, {"city": "Kawasan Penempatan Ulu Benut Lima", "latitude": 1.7439, "longitude": 103.3207, "state": "Johor"}, {"city": "Kampung Batu Sembilan Luar", "latitude": 4.3493, "longitude": 103.394, "state": "Terengganu"}, {"city": "Dengkil", "latitude": 2.86, "longitude": 101.6806, "state": "Selangor"}, {"city": "Bandar Penawar", "latitude": 1.5513, "longitude": 104.226, "state": "Johor"}, {"city": "Sri Petaling", "latitude": 3.06881, "longitude": 101.68971, "state": "Kuala Lumpur"}, {"city": "Seri Manjung", "latitude": 4.1987, "longitude": 100.67, "state": "Perak"}, {"city": "Selayang Baru Utara", "latitude": 3.2549, "longitude": 101.6668, "state": "Selangor"}, {"city": "Taman Dusun Setia", "latitude": 2.7141, "longitude": 101.9644, "state": "Negeri Sembilan"}, {"city": "Taman Seremban Jaya", "latitude": 2.6831, "longitude": 101.97, "state": "Negeri Sembilan"}, {"city": "Taman Pelangi", "latitude": 2.428, "longitude": 102.6801, "state": "Johor"}, {"city": "Kemajuan Tanah Lok Heng Barat", "latitude": 1.7225, "longitude": 104.0913, "state": "Johor"}, {"city": "Taman Universiti", "latitude": 1.5331, "longitude": 103.6155, "state": "Johor"}, {"city": "Kampung Jelutong Tengah", "latitude": 1.4714, "longitude": 103.5675, "state": "Johor"}, {"city": "Data Kakus", "latitude": 2.65465, "longitude": 113.62249, "state": "Sarawak"}, {"city": "Subang Jaya", "latitude": 3.04384, "longitude": 101.58062, "state": "Kuala Lumpur"}, {"city": "Taman Rajawali", "latitude": 5.89477, "longitude": 118.04576, "state": "Sabah"}, {"city": "Iskandar Puteri", "latitude": 1.39324, "longitude": 103.62322, "state": "Johor"}, {"city": "Lidung Jelo", "latitude": 2.64848, "longitude": 114.78653, "state": "Sarawak"}, {"city": "Long Ampan Aing or Abanang", "latitude": 2.65671, "longitude": 114.73675, "state": "Sarawak"}, {"city": "Putra Heights", "latitude": 2.99361, "longitude": 101.57255, "state": "Selangor"}, {"city": "Kajang", "latitude": 2.99424, "longitude": 101.78875, "state": "Selangor"}, {"city": "Pantai Cenang", "latitude": 6.29369, "longitude": 99.72786, "state": "Perlis"}, {"city": "Seri Iskandar", "latitude": 4.35993, "longitude": 100.98491, "state": "Perak"}, {"city": "Kota Damansara", "latitude": 3.15454, "longitude": 101.58022, "state": "Selangor"}, {"city": "Kampung Haji Kudong", "latitude": 5.58314, "longitude": 100.36238, "state": "Kedah"}, {"city": "Bandar 16 Sierra", "latitude": 2.97135, "longitude": 101.65464, "state": "Selangor"}, {"city": "Kuala Nerus", "latitude": 5.37293, "longitude": 103.02053, "state": "Terengganu"}, {"city": "Selangau", "latitude": 2.52477, "longitude": 112.32543, "state": "Sarawak"}, {"city": "Taman Petaling", "latitude": 3.19916, "longitude": 101.64983, "state": "Kuala Lumpur"}, {"city": "Elmina", "latitude": 3.18523, "longitude": 101.52461, "state": "Selangor"}, {"city": "Taman Melati", "latitude": 3.22124, "longitude": 101.72324, "state": "Kuala Lumpur"}, {"city": "Ara Damansara", "latitude": 3.11898, "longitude": 101.58656, "state": "Selangor"}, {"city": "Kampung Setia", "latitude": 3.24177, "longitude": 101.53296, "state": "Selangor"}, {"city": "Kota Sarang Samut", "latitude": 5.94554, "longitude": 100.36453, "state": "Kedah"}, {"city": "Mont Kiara", "latitude": 3.16866, "longitude": 101.65076, "state": "Kuala Lumpur"}, {"city": "Taman OUG", "latitude": 3.07292, "longitude": 101.6763, "state": "Kuala Lumpur"}, {"city": "Taman Ikan Emas", "latitude": 3.11619, "longitude": 101.7202, "state": "Kuala Lumpur"}, {"city": "Taman Tun Dr Ismail", "latitude": 3.14506, "longitude": 101.62617, "state": "Kuala Lumpur"}, {"city": "Bangsar", "latitude": 3.12945, "longitude": 101.67004, "state": "Kuala Lumpur"}, {"city": "Bukit Damansara", "latitude": 3.15045, "longitude": 101.65483, "state": "Kuala Lumpur"}, {"city": "Seremban 2", "latitude": 2.68982, "longitude": 101.90766, "state": "Negeri Sembilan"}, {"city": "Bukit Indah", "latitude": 1.47999, "longitude": 103.65959, "state": "Johor"}, {"city": "Eco Sanctuary", "latitude": 2.93703, "longitude": 101.53527, "state": "Selangor"}, {"city": "Batu Itam", "latitude": 5.39513, "longitude": 100.21659, "state": "Penang"}, {"city": "Wangsa Maju", "latitude": 3.20056, "longitude": 101.73972, "state": "Kuala Lumpur"}, {"city": "Seminyih", "latitude": 2.94761, "longitude": 101.84695, "state": "Selangor"}, {"city": "Kuchai Lama", "latitude": 3.08469, "longitude": 101.69086, "state": "Kuala Lumpur"}, {"city": "Taman Naga Emas", "latitude": 3.07775, "longitude": 101.69758, "state": "Kuala Lumpur"}, {"city": "Bukit Gemuroh", "latitude": 5.29775, "longitude": 100.21147, "state": "Penang"}, {"city": "Forest City", "latitude": 1.33884, "longitude": 103.58876, "state": "Johor"}, {"city": "Taman Melawati", "latitude": 3.21083, "longitude": 101.74825, "state": "Selangor"}, {"city": "Perling", "latitude": 1.48061, "longitude": 103.68381, "state": "Johor"}, {"city": "Chaah Bahru", "latitude": 2.09934, "longitude": 103.02219, "state": "Johor"}, {"city": "Mukim Pulai", "latitude": 1.53333, "longitude": 103.66667, "state": "Johor"}, {"city": "Penyabong", "latitude": 1.63109, "longitude": 104.1469, "state": "Johor"}, {"city": "Seremban 3", "latitude": 2.67361, "longitude": 101.93111, "state": "Negeri Sembilan"}, {"city": "Hendrop", "latitude": 4.719, "longitude": 101.5521, "state": "Kelantan"}]