[{"city": "Wormeldange", "latitude": 49.61114, "longitude": 6.40546, "state": "Grevenmacher"}, {"city": "Winseler", "latitude": 49.96778, "longitude": 5.89028, "state": "Wiltz"}, {"city": "Wincrange", "latitude": 50.05333, "longitude": 5.91917, "state": "Clervaux"}, {"city": "Wilwerwiltz", "latitude": 49.98889, "longitude": 5.99917, "state": "Wiltz"}, {"city": "Wiltz", "latitude": 49.96547, "longitude": 5.9339, "state": null}, {"city": "Weiswampach", "latitude": 50.13722, "longitude": 6.075, "state": "Clervaux"}, {"city": "Weiler-la-Tour", "latitude": 49.54083, "longitude": 6.20083, "state": "Luxembourg"}, {"city": "Wasserbillig", "latitude": 49.71534, "longitude": 6.49861, "state": "Grevenmacher"}, {"city": "Warken", "latitude": 49.85918, "longitude": 6.08415, "state": "Diekirch"}, {"city": "Walferdange", "latitude": 49.66321, "longitude": 6.13224, "state": "Luxembourg"}, {"city": "Waldbredimus", "latitude": 49.55676, "longitude": 6.28789, "state": "Remich"}, {"city": "Waldbillig", "latitude": 49.79636, "longitude": 6.28431, "state": "Echternach"}, {"city": "Wahl", "latitude": 49.83667, "longitude": 5.90639, "state": "Redange"}, {"city": "Vichten", "latitude": 49.80306, "longitude": 6.0, "state": "Redange"}, {"city": "Vianden", "latitude": 49.935, "longitude": 6.20889, "state": null}, {"city": "Useldange", "latitude": 49.76972, "longitude": 5.98222, "state": "Redange"}, {"city": "Uebersyren", "latitude": 49.6319, "longitude": 6.2771, "state": "Luxembourg"}, {"city": "Tuntange", "latitude": 49.71778, "longitude": 6.01028, "state": "Mersch"}, {"city": "Troisvierges", "latitude": 50.12111, "longitude": 6.00028, "state": "Clervaux"}, {"city": "T\u00e9tange", "latitude": 49.47583, "longitude": 6.04222, "state": "Esch-sur-Alzette"}, {"city": "Tandel", "latitude": 49.8975, "longitude": 6.18333, "state": "Vianden"}, {"city": "Strassen", "latitude": 49.62056, "longitude": 6.07333, "state": "Luxembourg"}, {"city": "Steinsel", "latitude": 49.67694, "longitude": 6.12389, "state": "Luxembourg"}, {"city": "Steinfort", "latitude": 49.66139, "longitude": 5.91917, "state": "Capellen"}, {"city": "Stadtbredimus", "latitude": 49.56278, "longitude": 6.36444, "state": "Remich"}, {"city": "Soleuvre", "latitude": 49.52148, "longitude": 5.93781, "state": "Esch-sur-Alzette"}, {"city": "Septfontaines", "latitude": 49.70111, "longitude": 5.96722, "state": "Capellen"}, {"city": "Schuttrange", "latitude": 49.62056, "longitude": 6.26861, "state": "Luxembourg"}, {"city": "Schrassig", "latitude": 49.61014, "longitude": 6.25903, "state": "Luxembourg"}, {"city": "Schouweiler", "latitude": 49.5825, "longitude": 5.95639, "state": "Capellen"}, {"city": "Schifflange", "latitude": 49.50639, "longitude": 6.01278, "state": "Esch-sur-Alzette"}, {"city": "Schieren", "latitude": 49.83056, "longitude": 6.09861, "state": "Diekirch"}, {"city": "Schengen", "latitude": 49.47, "longitude": 6.362, "state": "Remich"}, {"city": "Sanem", "latitude": 49.54806, "longitude": 5.92889, "state": "Esch-sur-Alzette"}, {"city": "Sandweiler", "latitude": 49.61471, "longitude": 6.22221, "state": "Luxembourg"}, {"city": "Saeul", "latitude": 49.72722, "longitude": 5.98639, "state": "Redange"}, {"city": "Rumelange", "latitude": 49.45964, "longitude": 6.03089, "state": "Esch-sur-Alzette"}, {"city": "Rosport", "latitude": 49.8047, "longitude": 6.50532, "state": "Echternach"}, {"city": "Rollingen", "latitude": 49.74167, "longitude": 6.11444, "state": "Mersch"}, {"city": "Roeser", "latitude": 49.53721, "longitude": 6.14629, "state": "Esch-sur-Alzette"}, {"city": "Rodange", "latitude": 49.54639, "longitude": 5.84083, "state": "Esch-sur-Alzette"}, {"city": "Remich", "latitude": 49.545, "longitude": 6.36694, "state": null}, {"city": "Reisdorf", "latitude": 49.86861, "longitude": 6.26778, "state": "Diekirch"}, {"city": "Redange-sur-Attert", "latitude": 49.76437, "longitude": 5.88997, "state": "Redange"}, {"city": "Reckange-sur-Mess", "latitude": 49.5625, "longitude": 6.00889, "state": "Esch-sur-Alzette"}, {"city": "Rambrouch", "latitude": 49.83083, "longitude": 5.845, "state": "Redange"}, {"city": "Putscheid", "latitude": 49.96083, "longitude": 6.14306, "state": "Vianden"}, {"city": "Pontpierre", "latitude": 49.53639, "longitude": 6.02944, "state": "Esch-sur-Alzette"}, {"city": "P\u00e9tange", "latitude": 49.55833, "longitude": 5.88056, "state": "Esch-sur-Alzette"}, {"city": "Olm", "latitude": 49.65722, "longitude": 6.00028, "state": "Luxembourg"}, {"city": "Obercorn", "latitude": 49.51361, "longitude": 5.89611, "state": "Esch-sur-Alzette"}, {"city": "Nommern", "latitude": 49.78694, "longitude": 6.17472, "state": "Mersch"}, {"city": "Niedercorn", "latitude": 49.53611, "longitude": 5.89306, "state": "Esch-sur-Alzette"}, {"city": "Niederanven", "latitude": 49.65196, "longitude": 6.26199, "state": "Luxembourg"}, {"city": "M\u00fcllendorf", "latitude": 49.68028, "longitude": 6.13, "state": "Luxembourg"}, {"city": "Moutfort", "latitude": 49.58528, "longitude": 6.25556, "state": "Luxembourg"}, {"city": "Mondorf-les-Bains", "latitude": 49.505, "longitude": 6.28111, "state": "Remich"}, {"city": "Mondercange", "latitude": 49.53306, "longitude": 5.98833, "state": "Esch-sur-Alzette"}, {"city": "Mompach", "latitude": 49.74611, "longitude": 6.465, "state": "Echternach"}, {"city": "Mertzig", "latitude": 49.83389, "longitude": 6.0075, "state": "Diekirch"}, {"city": "Mertert", "latitude": 49.70261, "longitude": 6.47966, "state": "Grevenmacher"}, {"city": "Mersch", "latitude": 49.74889, "longitude": 6.10611, "state": null}, {"city": "Merl", "latitude": 49.60333, "longitude": 6.09556, "state": "Luxembourg"}, {"city": "Medernach", "latitude": 49.80955, "longitude": 6.21521, "state": "Diekirch"}, {"city": "Manternach", "latitude": 49.70278, "longitude": 6.42639, "state": "Grevenmacher"}, {"city": "Mamer", "latitude": 49.6275, "longitude": 6.02333, "state": "Capellen"}, {"city": "Luxembourg", "latitude": 49.61167, "longitude": 6.13, "state": null}, {"city": "Lorentzweiler", "latitude": 49.70131, "longitude": 6.14234, "state": "Mersch"}, {"city": "Lintgen", "latitude": 49.72243, "longitude": 6.13016, "state": "Mersch"}, {"city": "Leudelange", "latitude": 49.56833, "longitude": 6.06528, "state": "Esch-sur-Alzette"}, {"city": "Lenningen", "latitude": 49.60045, "longitude": 6.36719, "state": "Remich"}, {"city": "Larochette", "latitude": 49.78362, "longitude": 6.21891, "state": "Mersch"}, {"city": "Lamadelaine", "latitude": 49.54639, "longitude": 5.85639, "state": "Esch-sur-Alzette"}, {"city": "Kopstal", "latitude": 49.66444, "longitude": 6.07306, "state": "Capellen"}, {"city": "Koerich", "latitude": 49.67, "longitude": 5.95, "state": "Capellen"}, {"city": "Kirchberg", "latitude": 49.62389, "longitude": 6.14944, "state": "Luxembourg"}, {"city": "Kehlen", "latitude": 49.66833, "longitude": 6.03583, "state": "Capellen"}, {"city": "Kayl", "latitude": 49.48917, "longitude": 6.03972, "state": "Esch-sur-Alzette"}, {"city": "Junglinster", "latitude": 49.70722, "longitude": 6.25306, "state": "Grevenmacher"}, {"city": "Itzig", "latitude": 49.58769, "longitude": 6.17065, "state": "Luxembourg"}, {"city": "Hosingen", "latitude": 50.01218, "longitude": 6.09089, "state": "Clervaux"}, {"city": "Hobscheid", "latitude": 49.68861, "longitude": 5.91472, "state": "Capellen"}, {"city": "Hesperange", "latitude": 49.56806, "longitude": 6.15139, "state": "Luxembourg"}, {"city": "Helmsange", "latitude": 49.65278, "longitude": 6.14139, "state": "Luxembourg"}, {"city": "Heisdorf", "latitude": 49.67207, "longitude": 6.14202, "state": "Luxembourg"}, {"city": "Heffingen", "latitude": 49.76907, "longitude": 6.24049, "state": "Mersch"}, {"city": "Hautcharage", "latitude": 49.57499, "longitude": 5.9097, "state": "Capellen"}, {"city": "Grosbous", "latitude": 49.82778, "longitude": 5.96722, "state": "Redange"}, {"city": "Grevenmacher", "latitude": 49.67751, "longitude": 6.44022, "state": null}, {"city": "Gonderange", "latitude": 49.69537, "longitude": 6.24577, "state": "Grevenmacher"}, {"city": "Goesdorf", "latitude": 49.92131, "longitude": 5.96601, "state": "Wiltz"}, {"city": "Garnich", "latitude": 49.61667, "longitude": 5.9525, "state": "Capellen"}, {"city": "Frisange", "latitude": 49.51616, "longitude": 6.18858, "state": "Esch-sur-Alzette"}, {"city": "Flaxweiler", "latitude": 49.66602, "longitude": 6.34321, "state": "Grevenmacher"}, {"city": "Fischbach", "latitude": 49.746, "longitude": 6.18702, "state": "Mersch"}, {"city": "Niederfeulen", "latitude": 49.85556, "longitude": 6.04722, "state": "Diekirch"}, {"city": "Fentange", "latitude": 49.56278, "longitude": 6.15389, "state": "Luxembourg"}, {"city": "Ettelbruck", "latitude": 49.8475, "longitude": 6.10417, "state": "Diekirch"}, {"city": "Esch-sur-S\u00fbre", "latitude": 49.91139, "longitude": 5.93639, "state": "Wiltz"}, {"city": "Esch-sur-Alzette", "latitude": 49.49583, "longitude": 5.98056, "state": null}, {"city": "Erpeldange", "latitude": 49.86472, "longitude": 6.11472, "state": "Diekirch"}, {"city": "Ell", "latitude": 49.76389, "longitude": 5.85722, "state": "Redange"}, {"city": "Eischen", "latitude": 49.68556, "longitude": 5.87861, "state": "Capellen"}, {"city": "Echternach", "latitude": 49.81212, "longitude": 6.41846, "state": null}, {"city": "Dudelange", "latitude": 49.48056, "longitude": 6.0875, "state": "Esch-sur-Alzette"}, {"city": "Dippach", "latitude": 49.58701, "longitude": 5.9833, "state": "Capellen"}, {"city": "Differdange", "latitude": 49.52417, "longitude": 5.89139, "state": "Esch-sur-Alzette"}, {"city": "Diekirch", "latitude": 49.86778, "longitude": 6.15583, "state": null}, {"city": "Dalheim", "latitude": 49.54083, "longitude": 6.25972, "state": "Remich"}, {"city": "Crauthem", "latitude": 49.53556, "longitude": 6.14694, "state": "Esch-sur-Alzette"}, {"city": "Contern", "latitude": 49.58194, "longitude": 6.22667, "state": "Luxembourg"}, {"city": "Consdorf", "latitude": 49.78018, "longitude": 6.3395, "state": "Echternach"}, {"city": "Colmar", "latitude": 49.81028, "longitude": 6.09722, "state": "Mersch"}, {"city": "Clervaux", "latitude": 50.05472, "longitude": 6.03139, "state": null}, {"city": "Clemency", "latitude": 49.59667, "longitude": 5.87583, "state": "Capellen"}, {"city": "Capellen", "latitude": 49.645, "longitude": 5.99083, "state": null}, {"city": "Canach", "latitude": 49.60694, "longitude": 6.32583, "state": "Remich"}, {"city": "Bridel", "latitude": 49.65579, "longitude": 6.07999, "state": "Capellen"}, {"city": "Bous", "latitude": 49.55389, "longitude": 6.32917, "state": "Remich"}, {"city": "Bourscheid", "latitude": 49.90862, "longitude": 6.0675, "state": "Diekirch"}, {"city": "Boulaide", "latitude": 49.88778, "longitude": 5.81639, "state": "Wiltz"}, {"city": "Boevange-sur-Attert", "latitude": 49.77256, "longitude": 6.01532, "state": "Mersch"}, {"city": "Biwer", "latitude": 49.70605, "longitude": 6.37201, "state": "Grevenmacher"}, {"city": "Bissen", "latitude": 49.78733, "longitude": 6.0654, "state": "Mersch"}, {"city": "Betzdorf", "latitude": 49.68333, "longitude": 6.35, "state": "Grevenmacher"}, {"city": "Bettendorf", "latitude": 49.87667, "longitude": 6.21806, "state": "Diekirch"}, {"city": "Bettembourg", "latitude": 49.51861, "longitude": 6.10278, "state": "Esch-sur-Alzette"}, {"city": "Bettborn", "latitude": 49.79528, "longitude": 5.94111, "state": "Redange"}, {"city": "Bertrange", "latitude": 49.61111, "longitude": 6.05, "state": "Luxembourg"}, {"city": "Bergem", "latitude": 49.525, "longitude": 6.04222, "state": "Esch-sur-Alzette"}, {"city": "B\u00e9reldange", "latitude": 49.65507, "longitude": 6.11874, "state": "Luxembourg"}, {"city": "Berdorf", "latitude": 49.82051, "longitude": 6.34945, "state": "Echternach"}, {"city": "Belvaux", "latitude": 49.51014, "longitude": 5.92414, "state": "Esch-sur-Alzette"}, {"city": "Beckerich", "latitude": 49.73114, "longitude": 5.88241, "state": "Redange"}, {"city": "Bech", "latitude": 49.7526, "longitude": 6.36379, "state": "Echternach"}, {"city": "Beaufort", "latitude": 49.83583, "longitude": 6.29167, "state": "Echternach"}, {"city": "Bavigne", "latitude": 49.92194, "longitude": 5.84944, "state": "Wiltz"}, {"city": "Bascharage", "latitude": 49.56727, "longitude": 5.9073, "state": "Capellen"}, {"city": "Aspelt", "latitude": 49.52278, "longitude": 6.22472, "state": "Esch-sur-Alzette"}, {"city": "Alzingen", "latitude": 49.565, "longitude": 6.16361, "state": "Luxembourg"}, {"city": "Senningerberg", "latitude": 49.64907, "longitude": 6.22607, "state": "Luxembourg"}]