[{"city": "Tutong", "latitude": 4.80278, "longitude": 114.64917, "state": null}, {"city": "Seria", "latitude": 4.60637, "longitude": 114.32476, "state": "Belait"}, {"city": "Kuala Belait", "latitude": 4.58361, "longitude": 114.2312, "state": "Belait"}, {"city": "Kampong Tunah Jambu", "latitude": 4.98333, "longitude": 114.98333, "state": null}, {"city": "Telisai", "latitude": 4.73558, "longitude": 114.56324, "state": "Tutong"}, {"city": "Kampong Tanjong Nangka", "latitude": 4.88333, "longitude": 114.81667, "state": null}, {"city": "Liang", "latitude": 4.67747, "longitude": 114.49587, "state": "Belait"}, {"city": "Sungai Hanching", "latitude": 4.96806, "longitude": 114.97753, "state": "Brunei-Muara District"}, {"city": "Serasa", "latitude": 5.01761, "longitude": 115.05798, "state": "Brunei-Muara District"}, {"city": "Sengkurong", "latitude": 4.88333, "longitude": 114.83333, "state": "Brunei-Muara District"}, {"city": "Kampong Selayun", "latitude": 4.9, "longitude": 114.85, "state": null}, {"city": "Salambigar", "latitude": 4.97877, "longitude": 114.9878, "state": "Brunei-Muara District"}, {"city": "Kampong Rimba", "latitude": 4.91667, "longitude": 114.9, "state": "Brunei-Muara District"}, {"city": "Kampong Meragang", "latitude": 4.93333, "longitude": 114.91667, "state": null}, {"city": "Kampong Peninjau", "latitude": 4.93333, "longitude": 114.83333, "state": null}, {"city": "Pengkalan Batu", "latitude": 4.78333, "longitude": 114.83333, "state": null}, {"city": "Perumahan Negara Panchor", "latitude": 4.96667, "longitude": 115.01667, "state": null}, {"city": "Kampong Mulaut", "latitude": 4.86667, "longitude": 114.83333, "state": null}, {"city": "Mentiri", "latitude": 4.97058, "longitude": 115.02078, "state": "Brunei-Muara District"}, {"city": "Kampong Mata Mata", "latitude": 4.9, "longitude": 114.9, "state": null}, {"city": "Lumapas", "latitude": 4.85, "longitude": 114.91667, "state": null}, {"city": "Kampong Lugu", "latitude": 4.88333, "longitude": 114.8, "state": null}, {"city": "Kampong Lambak A", "latitude": 4.96611, "longitude": 114.94296, "state": "Brunei-Muara District"}, {"city": "Kota Batu", "latitude": 4.88333, "longitude": 114.95, "state": null}, {"city": "Kiudang", "latitude": 4.75, "longitude": 114.73333, "state": "Tutong"}, {"city": "Kampong Kiajong", "latitude": 4.88896, "longitude": 114.91912, "state": "Brunei-Muara District"}, {"city": "Keriam", "latitude": 4.81603, "longitude": 114.6941, "state": "Tutong"}, {"city": "Katok", "latitude": 4.91619, "longitude": 114.89353, "state": "Brunei-Muara District"}, {"city": "Kapok", "latitude": 5.02447, "longitude": 115.04664, "state": "Brunei-Muara District"}, {"city": "Kampong Jerudong", "latitude": 4.95, "longitude": 114.85, "state": "Brunei-Muara District"}, {"city": "Kampong Gadong", "latitude": 4.91667, "longitude": 114.91667, "state": "Brunei-Muara District"}, {"city": "Kampong Beribi", "latitude": 4.88333, "longitude": 114.88333, "state": null}, {"city": "Bangar", "latitude": 4.70861, "longitude": 115.07167, "state": "Temburong"}, {"city": "Bandar Seri Begawan", "latitude": 4.89035, "longitude": 114.94006, "state": "Brunei-Muara District"}, {"city": "Kulapis", "latitude": 4.85045, "longitude": 114.82322, "state": "Brunei-Muara District"}, {"city": "Kampung Sungai Teraban", "latitude": 4.58445, "longitude": 114.18117, "state": "Belait"}]