[{"city": "\u017byrzyn", "latitude": 51.49918, "longitude": 22.0917, "state": "Lublin"}, {"city": "\u017byrard\u00f3w", "latitude": 52.0488, "longitude": 20.44599, "state": "Mazovia"}, {"city": "\u017byrak\u00f3w", "latitude": 50.08545, "longitude": 21.39622, "state": "Subcarpathia"}, {"city": "Zwole\u0144", "latitude": 51.35542, "longitude": 21.58768, "state": "Mazovia"}, {"city": "Zwierzyniec", "latitude": 50.614, "longitude": 22.97512, "state": "Lublin"}, {"city": "\u017burowa", "latitude": 49.82636, "longitude": 21.16894, "state": "Lesser Poland"}, {"city": "\u017burawiczki", "latitude": 50.0137, "longitude": 22.49949, "state": "Subcarpathia"}, {"city": "\u017burawica", "latitude": 49.82348, "longitude": 22.78925, "state": "Subcarpathia"}, {"city": "\u017bo\u0142ynia", "latitude": 50.162, "longitude": 22.30825, "state": "Subcarpathia"}, {"city": "\u017b\u00f3\u0142kiewka", "latitude": 50.90991, "longitude": 22.83465, "state": "Lublin"}, {"city": "\u017boliborz", "latitude": 52.26896, "longitude": 20.98644, "state": "Mazovia"}, {"city": "Zmiennica", "latitude": 49.67652, "longitude": 21.96596, "state": "Subcarpathia"}, {"city": "Z\u0142ota", "latitude": 50.3816, "longitude": 20.59361, "state": "\u015awi\u0119tokrzyskie"}, {"city": "Z\u0142ota", "latitude": 49.88059, "longitude": 20.69326, "state": "Lesser Poland"}, {"city": "Zielonka", "latitude": 52.30376, "longitude": 21.16018, "state": "Mazovia"}, {"city": "Zg\u0142obie\u0144", "latitude": 50.0127, "longitude": 21.8549, "state": "Subcarpathia"}, {"city": "\u017belech\u00f3w", "latitude": 51.81051, "longitude": 21.89721, "state": "Mazovia"}, {"city": "\u017belechlinek", "latitude": 51.71214, "longitude": 20.0346, "state": "\u0141\u00f3d\u017a Voivodeship"}, {"city": "\u017begocina", "latitude": 49.81395, "longitude": 20.41964, "state": "Lesser Poland"}, {"city": "Zbuczyn", "latitude": 52.08974, "longitude": 22.43829, "state": "Mazovia"}, {"city": "Zb\u00f3jna", "latitude": 53.24293, "longitude": 21.78812, "state": "Podlasie"}, {"city": "Zawichost", "latitude": 50.80743, "longitude": 21.85408, "state": "\u015awi\u0119tokrzyskie"}, {"city": "Zatory", "latitude": 52.59929, "longitude": 21.18258, "state": "Mazovia"}, {"city": "Zarzecze", "latitude": 50.52767, "longitude": 22.19522, "state": "Subcarpathia"}, {"city": "Zarzecze", "latitude": 49.98633, "longitude": 22.53716, "state": "Subcarpathia"}, {"city": "Zarszyn", "latitude": 49.58178, "longitude": 22.01283, "state": "Subcarpathia"}, {"city": "\u017barn\u00f3w", "latitude": 51.24607, "longitude": 20.17476, "state": "\u0141\u00f3d\u017a Voivodeship"}, {"city": "Zamo\u015b\u0107", "latitude": 50.72314, "longitude": 23.25196, "state": "Lublin"}, {"city": "Zamch", "latitude": 50.31713, "longitude": 23.02786, "state": "Lublin"}, {"city": "Zambr\u00f3w", "latitude": 52.9855, "longitude": 22.24319, "state": "Podlasie"}, {"city": "Za\u0142uski", "latitude": 52.51152, "longitude": 20.52864, "state": "Mazovia"}, {"city": "Zaleszany", "latitude": 50.64799, "longitude": 21.89069, "state": "Subcarpathia"}, {"city": "Zalesie G\u00f3rne", "latitude": 52.02768, "longitude": 21.03659, "state": "Mazovia"}, {"city": "Zalesie", "latitude": 52.03743, "longitude": 23.3636, "state": "Lublin"}, {"city": "Zakrz\u00f3wek", "latitude": 50.95124, "longitude": 22.38138, "state": "Lublin"}, {"city": "Zakrzew", "latitude": 51.44095, "longitude": 21.00105, "state": "Mazovia"}, {"city": "Zakrzew", "latitude": 50.89004, "longitude": 22.59115, "state": "Lublin"}, {"city": "Zakroczym", "latitude": 52.43351, "longitude": 20.61207, "state": "Mazovia"}, {"city": "Zaklik\u00f3w", "latitude": 50.75769, "longitude": 22.10226, "state": "Subcarpathia"}, {"city": "Zakliczyn", "latitude": 49.85589, "longitude": 20.80935, "state": "Lesser Poland"}, {"city": "Zahuty\u0144", "latitude": 49.52989, "longitude": 22.23358, "state": "Subcarpathia"}, {"city": "Zag\u00f3rzyce", "latitude": 50.0169, "longitude": 21.67517, "state": "Subcarpathia"}, {"city": "Zag\u00f3rz", "latitude": 49.51457, "longitude": 22.26706, "state": "Subcarpathia"}, {"city": "Zagna\u0144sk", "latitude": 50.98037, "longitude": 20.66314, "state": "\u015awi\u0119tokrzyskie"}, {"city": "\u017babno", "latitude": 50.13334, "longitude": 20.88615, "state": "Lesser Poland"}, {"city": "Zab\u0142ud\u00f3w", "latitude": 53.01442, "longitude": 23.33831, "state": "Podlasie"}, {"city": "Z\u0105bki", "latitude": 52.29271, "longitude": 21.10539, "state": "Mazovia"}, {"city": "Zabierz\u00f3w Boche\u0144ski", "latitude": 50.06821, "longitude": 20.31896, "state": "Lesser Poland"}, {"city": "\u017babieniec", "latitude": 52.05856, "longitude": 21.04817, "state": "Mazovia"}, {"city": "\u017babia Wola", "latitude": 52.03169, "longitude": 20.69112, "state": "Mazovia"}, {"city": "Wyszogr\u00f3d", "latitude": 52.38988, "longitude": 20.19081, "state": "Mazovia"}, {"city": "Wyszk\u00f3w", "latitude": 52.59278, "longitude": 21.4584, "state": "Mazovia"}, {"city": "Wyszki", "latitude": 52.84129, "longitude": 22.98119, "state": "Podlasie"}, {"city": "Wysokie Mazowieckie", "latitude": 52.91661, "longitude": 22.51712, "state": "Podlasie"}, {"city": "Wysokie", "latitude": 50.91093, "longitude": 22.666, "state": "Lublin"}, {"city": "Wysoka Strzy\u017cowska", "latitude": 49.83056, "longitude": 21.74074, "state": "Subcarpathia"}, {"city": "Wysoka G\u0142ogowska", "latitude": 50.16019, "longitude": 22.02124, "state": "Subcarpathia"}, {"city": "Wysoka", "latitude": 50.04474, "longitude": 22.26002, "state": "Subcarpathia"}, {"city": "Wy\u015bmierzyce", "latitude": 51.62494, "longitude": 20.81394, "state": "Mazovia"}, {"city": "Wydminy", "latitude": 53.98194, "longitude": 22.03239, "state": "Warmia-Masuria"}, {"city": "Wo\u0142omin", "latitude": 52.34006, "longitude": 21.24207, "state": "Mazovia"}, {"city": "W\u00f3lka Tanewska", "latitude": 50.50005, "longitude": 22.26113, "state": "Subcarpathia"}, {"city": "W\u00f3lka Podle\u015bna", "latitude": 50.11785, "longitude": 22.11213, "state": "Subcarpathia"}, {"city": "W\u00f3lka Pe\u0142ki\u0144ska", "latitude": 50.09553, "longitude": 22.62342, "state": "Subcarpathia"}, {"city": "W\u00f3lka Nied\u017awiedzka", "latitude": 50.24226, "longitude": 22.18826, "state": "Subcarpathia"}, {"city": "Wola \u017barczycka", "latitude": 50.2912, "longitude": 22.25023, "state": "Subcarpathia"}, {"city": "Wola Zabierzowska", "latitude": 50.07257, "longitude": 20.33217, "state": "Lesser Poland"}, {"city": "Wola Uhruska", "latitude": 51.32139, "longitude": 23.62627, "state": "Lublin"}, {"city": "Wola Sernicka", "latitude": 51.44978, "longitude": 22.68351, "state": "Lublin"}, {"city": "Wola R\u0119bkowska", "latitude": 51.90181, "longitude": 21.55818, "state": "Mazovia"}, {"city": "Wolan\u00f3w", "latitude": 51.3803, "longitude": 20.97702, "state": "Mazovia"}, {"city": "Wola Jachowa", "latitude": 50.84524, "longitude": 20.85814, "state": "\u015awi\u0119tokrzyskie"}, {"city": "Wola D\u0119bi\u0144ska", "latitude": 49.98214, "longitude": 20.68777, "state": "Lesser Poland"}, {"city": "Wola Batorska", "latitude": 50.05262, "longitude": 20.26617, "state": "Lesser Poland"}, {"city": "Wola", "latitude": 52.23477, "longitude": 20.96004, "state": "Mazovia"}, {"city": "Wojs\u0142awice", "latitude": 50.91916, "longitude": 23.54602, "state": "Lublin"}, {"city": "Wojnicz", "latitude": 49.958, "longitude": 20.83785, "state": "Lesser Poland"}, {"city": "Wojcieszk\u00f3w", "latitude": 51.76922, "longitude": 22.31589, "state": "Lublin"}, {"city": "Wojciechowice", "latitude": 50.84226, "longitude": 21.58942, "state": "\u015awi\u0119tokrzyskie"}, {"city": "Wojciech\u00f3w", "latitude": 51.23543, "longitude": 22.24551, "state": "Lublin"}, {"city": "Wojasz\u00f3wka", "latitude": 49.77777, "longitude": 21.67079, "state": "Subcarpathia"}, {"city": "Wohy\u0144", "latitude": 51.75642, "longitude": 22.78582, "state": "Lublin"}, {"city": "Wodzis\u0142aw", "latitude": 50.52047, "longitude": 20.1915, "state": "\u015awi\u0119tokrzyskie"}, {"city": "Wodynie", "latitude": 52.0404, "longitude": 21.95575, "state": "Mazovia"}, {"city": "W\u0142odawa", "latitude": 51.55, "longitude": 23.55, "state": "Lublin"}, {"city": "W\u0142ochy", "latitude": 52.17941, "longitude": 20.94612, "state": "Mazovia"}, {"city": "Wizna", "latitude": 53.19518, "longitude": 22.38241, "state": "Podlasie"}, {"city": "Wisznice", "latitude": 51.78924, "longitude": 23.20836, "state": "Lublin"}, {"city": "Wi\u015bniowa", "latitude": 49.86897, "longitude": 21.65508, "state": "Subcarpathia"}, {"city": "Wi\u015bniowa", "latitude": 49.7878, "longitude": 20.11502, "state": "Lesser Poland"}, {"city": "Wi\u015bniew", "latitude": 52.07265, "longitude": 22.29392, "state": "Mazovia"}, {"city": "Wi\u015blica", "latitude": 50.34891, "longitude": 20.67438, "state": "\u015awi\u0119tokrzyskie"}, {"city": "Wiskitki", "latitude": 52.08831, "longitude": 20.38708, "state": "Mazovia"}, {"city": "Winnica", "latitude": 52.64306, "longitude": 20.94114, "state": "Mazovia"}, {"city": "Wilk\u00f3w", "latitude": 51.26224, "longitude": 21.87756, "state": "Lublin"}, {"city": "Wilko\u0142az", "latitude": 51.01473, "longitude": 22.35014, "state": "Lublin"}, {"city": "Wilga", "latitude": 51.85211, "longitude": 21.37751, "state": "Mazovia"}, {"city": "Wilczyce", "latitude": 50.74694, "longitude": 21.65783, "state": "\u015awi\u0119tokrzyskie"}, {"city": "Wilan\u00f3w", "latitude": 52.16311, "longitude": 21.08748, "state": "Mazovia"}, {"city": "Wietrzychowice", "latitude": 50.19097, "longitude": 20.76502, "state": "Lesser Poland"}, {"city": "Wierzchos\u0142awice", "latitude": 50.02478, "longitude": 20.85677, "state": "Lesser Poland"}, {"city": "Wierzbno", "latitude": 52.31008, "longitude": 21.85902, "state": "Mazovia"}, {"city": "Wierzbna", "latitude": 50.03311, "longitude": 22.60128, "state": "Subcarpathia"}, {"city": "Wierzbica", "latitude": 51.2494, "longitude": 21.08259, "state": "Mazovia"}, {"city": "Wierzawice", "latitude": 50.23623, "longitude": 22.4509, "state": "Subcarpathia"}, {"city": "Wieniawa", "latitude": 51.36171, "longitude": 20.79489, "state": "Mazovia"}, {"city": "Wielopole Skrzy\u0144skie", "latitude": 49.94564, "longitude": 21.61491, "state": "Subcarpathia"}, {"city": "Wielkie Oczy", "latitude": 50.02357, "longitude": 23.16407, "state": "Subcarpathia"}, {"city": "Wielka Wie\u015b", "latitude": 51.07107, "longitude": 20.96655, "state": "\u015awi\u0119tokrzyskie"}, {"city": "Wielka Wie\u015b", "latitude": 49.93631, "longitude": 20.82304, "state": "Lesser Poland"}, {"city": "Wieliszew", "latitude": 52.4513, "longitude": 20.96827, "state": "Mazovia"}, {"city": "Wieliczka", "latitude": 49.98738, "longitude": 20.06473, "state": "Lesser Poland"}, {"city": "Wielbark", "latitude": 53.39858, "longitude": 20.94629, "state": "Warmia-Masuria"}, {"city": "Wieczfnia Ko\u015bcielna", "latitude": 53.19534, "longitude": 20.47637, "state": "Mazovia"}, {"city": "Wi\u0105zownica", "latitude": 50.08066, "longitude": 22.70668, "state": "Subcarpathia"}, {"city": "Weso\u0142a", "latitude": 52.25451, "longitude": 21.22407, "state": "Mazovia"}, {"city": "Weso\u0142a", "latitude": 49.79977, "longitude": 22.10029, "state": "Subcarpathia"}, {"city": "Werbkowice", "latitude": 50.75373, "longitude": 23.76411, "state": "Lublin"}, {"city": "W\u0119grzce Wielkie", "latitude": 50.01491, "longitude": 20.11082, "state": "Lesser Poland"}, {"city": "W\u0119gr\u00f3w", "latitude": 52.39954, "longitude": 22.01634, "state": "Mazovia"}, {"city": "W\u0119gorzewo", "latitude": 54.21567, "longitude": 21.7372, "state": "Warmia-Masuria"}, {"city": "W\u0119gl\u00f3wka", "latitude": 49.73424, "longitude": 20.08575, "state": "Lesser Poland"}, {"city": "Wawrze\u0144czyce", "latitude": 50.11012, "longitude": 20.31612, "state": "Lesser Poland"}, {"city": "W\u0105wolnica", "latitude": 51.29467, "longitude": 22.14681, "state": "Lublin"}, {"city": "Wawer", "latitude": 52.19656, "longitude": 21.17752, "state": "Mazovia"}, {"city": "W\u0105sosz", "latitude": 53.52209, "longitude": 22.31915, "state": "Podlasie"}, {"city": "Wa\u015bni\u00f3w", "latitude": 50.89914, "longitude": 21.22301, "state": "\u015awi\u0119tokrzyskie"}, {"city": "Wasilk\u00f3w", "latitude": 53.19909, "longitude": 23.20776, "state": "Podlasie"}, {"city": "Warsaw", "latitude": 52.22977, "longitude": 21.01178, "state": "Mazovia"}, {"city": "Warka", "latitude": 51.7843, "longitude": 21.19091, "state": "Mazovia"}, {"city": "Jod\u0142\u00f3wka-Wa\u0142ki", "latitude": 50.04992, "longitude": 21.13332, "state": "Lesser Poland"}, {"city": "Waksmund", "latitude": 49.48207, "longitude": 20.07563, "state": "Lesser Poland"}, {"city": "Wadowice G\u00f3rne", "latitude": 50.26312, "longitude": 21.30215, "state": "Subcarpathia"}, {"city": "W\u0105chock", "latitude": 51.07391, "longitude": 21.01243, "state": "\u015awi\u0119tokrzyskie"}, {"city": "Ustrzyki Dolne", "latitude": 49.4304, "longitude": 22.59381, "state": "Subcarpathia"}, {"city": "U\u015bcim\u00f3w Stary", "latitude": 51.46962, "longitude": 22.95516, "state": "Lublin"}, {"city": "U\u015bcie Gorlickie", "latitude": 49.52192, "longitude": 21.13821, "state": "Lesser Poland"}, {"city": "Urzejowice", "latitude": 50.01182, "longitude": 22.46189, "state": "Subcarpathia"}, {"city": "Urz\u0119d\u00f3w", "latitude": 50.99323, "longitude": 22.1426, "state": "Lublin"}, {"city": "Urszulin", "latitude": 51.3939, "longitude": 23.1948, "state": "Lublin"}, {"city": "Ursus", "latitude": 52.19517, "longitude": 20.88419, "state": "Mazovia"}, {"city": "Ulh\u00f3wek", "latitude": 50.44969, "longitude": 23.79956, "state": "Lublin"}, {"city": "U\u0142\u0119\u017c", "latitude": 51.59195, "longitude": 22.10741, "state": "Lublin"}, {"city": "Ulan\u00f3w", "latitude": 50.49031, "longitude": 22.26362, "state": "Subcarpathia"}, {"city": "Uherce Mineralne", "latitude": 49.46455, "longitude": 22.39829, "state": "Subcarpathia"}, {"city": "Tyszowce", "latitude": 50.61699, "longitude": 23.69927, "state": "Lublin"}, {"city": "Tyrawa Wo\u0142oska", "latitude": 49.57744, "longitude": 22.36988, "state": "Subcarpathia"}, {"city": "Tymbark", "latitude": 49.72859, "longitude": 20.32539, "state": "Lesser Poland"}, {"city": "Tylicz", "latitude": 49.39598, "longitude": 21.02368, "state": "Lesser Poland"}, {"city": "Tykocin", "latitude": 53.20567, "longitude": 22.77457, "state": "Podlasie"}, {"city": "Tyczyn", "latitude": 49.96384, "longitude": 22.03398, "state": "Subcarpathia"}, {"city": "Turze Pole", "latitude": 49.66329, "longitude": 22.00476, "state": "Subcarpathia"}, {"city": "Turo\u015b\u0144 Ko\u015bcielna", "latitude": 53.01463, "longitude": 23.05532, "state": "Podlasie"}, {"city": "Turobin", "latitude": 50.82367, "longitude": 22.74273, "state": "Lublin"}, {"city": "Tuczna", "latitude": 51.88029, "longitude": 23.4252, "state": "Lublin"}, {"city": "Tucz\u0119py", "latitude": 50.51676, "longitude": 20.99187, "state": "\u015awi\u0119tokrzyskie"}, {"city": "Tuch\u00f3w", "latitude": 49.89485, "longitude": 21.05407, "state": "Lesser Poland"}, {"city": "Trzydnik Du\u017cy", "latitude": 50.84887, "longitude": 22.13359, "state": "Lublin"}, {"city": "Trzeme\u015bnia", "latitude": 49.82752, "longitude": 20.02207, "state": "Lesser Poland"}, {"city": "Trzebownisko", "latitude": 50.07829, "longitude": 22.03712, "state": "Subcarpathia"}, {"city": "Trzebiesz\u00f3w", "latitude": 51.99006, "longitude": 22.55502, "state": "Lublin"}, {"city": "Trzcinica", "latitude": 49.74301, "longitude": 21.4175, "state": "Subcarpathia"}, {"city": "Trzciana", "latitude": 50.30771, "longitude": 21.33725, "state": "Subcarpathia"}, {"city": "Trzciana", "latitude": 50.0719, "longitude": 21.8385, "state": "Subcarpathia"}, {"city": "Trzciana", "latitude": 49.84485, "longitude": 20.37415, "state": "Lesser Poland"}, {"city": "Try\u0144cza", "latitude": 50.16087, "longitude": 22.55008, "state": "Subcarpathia"}, {"city": "Truskaw", "latitude": 52.30124, "longitude": 20.78244, "state": "Mazovia"}, {"city": "Troszyn", "latitude": 53.03115, "longitude": 21.73083, "state": "Mazovia"}, {"city": "Trojan\u00f3w", "latitude": 51.69225, "longitude": 21.81112, "state": "Mazovia"}, {"city": "Trawniki", "latitude": 51.13633, "longitude": 22.99816, "state": "Lublin"}, {"city": "Trablice", "latitude": 51.35249, "longitude": 21.12877, "state": "Mazovia"}, {"city": "Tr\u0105bki", "latitude": 51.94792, "longitude": 21.59929, "state": "Mazovia"}, {"city": "Tr\u0105bki", "latitude": 49.96226, "longitude": 20.1424, "state": "Lesser Poland"}, {"city": "Tomasz\u00f3w Mazowiecki", "latitude": 51.53131, "longitude": 20.00855, "state": "\u0141\u00f3d\u017a Voivodeship"}, {"city": "Tomasz\u00f3w Lubelski", "latitude": 50.44767, "longitude": 23.41616, "state": "Lublin"}, {"city": "T\u0142uszcz", "latitude": 52.43058, "longitude": 21.43561, "state": "Mazovia"}, {"city": "Tereszpol", "latitude": 50.58373, "longitude": 22.8798, "state": "Lublin"}, {"city": "Terespol", "latitude": 52.0755, "longitude": 23.61614, "state": "Lublin"}, {"city": "Teresin", "latitude": 52.19887, "longitude": 20.41672, "state": "Mazovia"}, {"city": "Telatyn", "latitude": 50.52712, "longitude": 23.83956, "state": "Lublin"}, {"city": "Tcz\u00f3w", "latitude": 51.326, "longitude": 21.44677, "state": "Mazovia"}, {"city": "Tarnowiec", "latitude": 49.98164, "longitude": 20.98655, "state": "Lesser Poland"}, {"city": "Tarnowiec", "latitude": 49.73108, "longitude": 21.57663, "state": "Subcarpathia"}, {"city": "Tarn\u00f3w", "latitude": 50.01381, "longitude": 20.98698, "state": "Lesser Poland"}, {"city": "Tarnogr\u00f3d", "latitude": 50.3609, "longitude": 22.74174, "state": "Lublin"}, {"city": "Tarnobrzeg", "latitude": 50.57304, "longitude": 21.67937, "state": "Subcarpathia"}, {"city": "Tarnawatka", "latitude": 50.53154, "longitude": 23.3959, "state": "Lublin"}, {"city": "Tar\u0142\u00f3w", "latitude": 51.0016, "longitude": 21.71474, "state": "\u015awi\u0119tokrzyskie"}, {"city": "Targowisko", "latitude": 49.98473, "longitude": 20.29346, "state": "Lesser Poland"}, {"city": "Targ\u00f3wek", "latitude": 52.29185, "longitude": 21.04845, "state": "Mazovia"}, {"city": "Tarczyn", "latitude": 51.98197, "longitude": 20.83394, "state": "Mazovia"}, {"city": "Szynwa\u0142d", "latitude": 49.96767, "longitude": 21.12293, "state": "Lesser Poland"}, {"city": "Szyd\u0142owo", "latitude": 53.08062, "longitude": 20.45071, "state": "Mazovia"}, {"city": "Szyd\u0142owiec", "latitude": 51.22823, "longitude": 20.86106, "state": "Mazovia"}, {"city": "Szyd\u0142\u00f3w", "latitude": 50.59114, "longitude": 21.0068, "state": "\u015awi\u0119tokrzyskie"}, {"city": "Szumowo", "latitude": 52.91884, "longitude": 22.08449, "state": "Podlasie"}, {"city": "Szre\u0144sk", "latitude": 53.01277, "longitude": 20.12009, "state": "Mazovia"}, {"city": "Szerzyny", "latitude": 49.80919, "longitude": 21.2467, "state": "Lesser Poland"}, {"city": "Szepietowo", "latitude": 52.87032, "longitude": 22.54392, "state": "Podlasie"}, {"city": "Szelk\u00f3w", "latitude": 52.83487, "longitude": 21.21769, "state": "Mazovia"}, {"city": "Szczytno", "latitude": 53.56259, "longitude": 20.98747, "state": "Warmia-Masuria"}, {"city": "Szczurowa", "latitude": 50.11915, "longitude": 20.6361, "state": "Lesser Poland"}, {"city": "Szczuczyn", "latitude": 53.5633, "longitude": 22.28534, "state": "Podlasie"}, {"city": "Szczucin", "latitude": 50.30957, "longitude": 21.07444, "state": "Lesser Poland"}, {"city": "Szczebrzeszyn", "latitude": 50.69499, "longitude": 22.97954, "state": "Lublin"}, {"city": "Szczawnica", "latitude": 49.42437, "longitude": 20.48487, "state": "Lesser Poland"}, {"city": "Szastarka", "latitude": 50.85527, "longitude": 22.31971, "state": "Lublin"}, {"city": "Szar\u00f3w", "latitude": 49.99505, "longitude": 20.2696, "state": "Lesser Poland"}, {"city": "Szaflary", "latitude": 49.42655, "longitude": 20.02713, "state": "Lesser Poland"}, {"city": "Sypniewo", "latitude": 53.0058, "longitude": 21.3073, "state": "Mazovia"}, {"city": "\u015awilcza", "latitude": 50.07179, "longitude": 21.89798, "state": "Subcarpathia"}, {"city": "Swi\u0119tajno", "latitude": 54.00151, "longitude": 22.3183, "state": "Warmia-Masuria"}, {"city": "\u015awi\u0119tajno", "latitude": 53.56692, "longitude": 21.21546, "state": "Warmia-Masuria"}, {"city": "\u015awidnik", "latitude": 51.21898, "longitude": 22.69621, "state": "Lublin"}, {"city": "Suwa\u0142ki", "latitude": 54.11175, "longitude": 22.93087, "state": "Podlasie"}, {"city": "Susiec", "latitude": 50.41973, "longitude": 23.19626, "state": "Lublin"}, {"city": "Sura\u017c", "latitude": 52.94908, "longitude": 22.95653, "state": "Podlasie"}, {"city": "Supra\u015bl", "latitude": 53.20526, "longitude": 23.33934, "state": "Podlasie"}, {"city": "Su\u0142\u00f3w", "latitude": 50.90661, "longitude": 22.36061, "state": "Lublin"}, {"city": "Su\u0142\u00f3w", "latitude": 50.77099, "longitude": 22.95593, "state": "Lublin"}, {"city": "Su\u0142kowice", "latitude": 51.9231, "longitude": 21.08929, "state": "Mazovia"}, {"city": "Sulej\u00f3wek", "latitude": 52.25221, "longitude": 21.26902, "state": "Mazovia"}, {"city": "Sucho\u017cebry", "latitude": 52.25948, "longitude": 22.25289, "state": "Mazovia"}, {"city": "Suchowola", "latitude": 53.57753, "longitude": 23.10596, "state": "Podlasie"}, {"city": "Suchedni\u00f3w", "latitude": 51.04776, "longitude": 20.82922, "state": "\u015awi\u0119tokrzyskie"}, {"city": "Sucha", "latitude": 51.61999, "longitude": 20.94887, "state": "Mazovia"}, {"city": "Stupsk", "latitude": 53.02258, "longitude": 20.4368, "state": "Mazovia"}, {"city": "Stubno", "latitude": 49.89806, "longitude": 22.95602, "state": "Subcarpathia"}, {"city": "Strzy\u017cowice", "latitude": 51.0483, "longitude": 22.44018, "state": "Lublin"}, {"city": "Strzy\u017c\u00f3w", "latitude": 49.87074, "longitude": 21.79413, "state": "Subcarpathia"}, {"city": "Strzegowo", "latitude": 52.89394, "longitude": 20.28548, "state": "Mazovia"}, {"city": "Stromiec", "latitude": 51.647, "longitude": 21.09229, "state": "Mazovia"}, {"city": "Strawczyn", "latitude": 50.94177, "longitude": 20.42135, "state": "\u015awi\u0119tokrzyskie"}, {"city": "Straszydle", "latitude": 49.90038, "longitude": 21.98124, "state": "Subcarpathia"}, {"city": "Strach\u00f3wka", "latitude": 52.42692, "longitude": 21.635, "state": "Mazovia"}, {"city": "Strachocina", "latitude": 49.60815, "longitude": 22.08836, "state": "Subcarpathia"}, {"city": "Stopnica", "latitude": 50.44018, "longitude": 20.9378, "state": "\u015awi\u0119tokrzyskie"}, {"city": "Stoczek \u0141ukowski", "latitude": 51.96135, "longitude": 21.97137, "state": "Lublin"}, {"city": "Stoczek", "latitude": 52.54332, "longitude": 21.90013, "state": "Mazovia"}, {"city": "St\u0119\u017cyca", "latitude": 51.58187, "longitude": 21.77087, "state": "Lublin"}, {"city": "Sterdy\u0144", "latitude": 52.58026, "longitude": 22.29358, "state": "Mazovia"}, {"city": "Stawiski", "latitude": 53.37987, "longitude": 22.15462, "state": "Podlasie"}, {"city": "Stawiguda", "latitude": 53.6572, "longitude": 20.40041, "state": "Warmia-Masuria"}, {"city": "Stasz\u00f3w", "latitude": 50.56307, "longitude": 21.16593, "state": "\u015awi\u0119tokrzyskie"}, {"city": "Stary Zamo\u015b\u0107", "latitude": 50.82004, "longitude": 23.17154, "state": "Lublin"}, {"city": "Stary Wi\u015bnicz", "latitude": 49.92548, "longitude": 20.48641, "state": "Lesser Poland"}, {"city": "Stary S\u0105cz", "latitude": 49.56364, "longitude": 20.63496, "state": "Lesser Poland"}, {"city": "Stare Miasto", "latitude": 50.28879, "longitude": 22.42928, "state": "Subcarpathia"}, {"city": "Stare Juchy", "latitude": 53.92198, "longitude": 22.17367, "state": "Warmia-Masuria"}, {"city": "Stare Babice", "latitude": 52.26028, "longitude": 20.83403, "state": "Mazovia"}, {"city": "Stara Wie\u015b", "latitude": 49.71505, "longitude": 22.00441, "state": "Subcarpathia"}, {"city": "Starachowice", "latitude": 51.0374, "longitude": 21.07126, "state": "\u015awi\u0119tokrzyskie"}, {"city": "St\u0105pork\u00f3w", "latitude": 51.13762, "longitude": 20.57173, "state": "\u015awi\u0119tokrzyskie"}, {"city": "Stanis\u0142aw\u00f3w Pierwszy", "latitude": 52.37485, "longitude": 21.05184, "state": "Mazovia"}, {"city": "Stanis\u0142aw\u00f3w", "latitude": 52.28937, "longitude": 21.54848, "state": "Mazovia"}, {"city": "Stanis\u0142awice", "latitude": 49.9855, "longitude": 20.35123, "state": "Lesser Poland"}, {"city": "Stalowa Wola", "latitude": 50.58286, "longitude": 22.05334, "state": "Subcarpathia"}, {"city": "Srokowo", "latitude": 54.21416, "longitude": 21.52282, "state": "Warmia-Masuria"}, {"city": "\u015ar\u00f3dmie\u015bcie", "latitude": 52.22904, "longitude": 21.01644, "state": "Mazovia"}, {"city": "Spiczyn", "latitude": 51.34128, "longitude": 22.75354, "state": "Lublin"}, {"city": "Sosn\u00f3wka", "latitude": 51.75084, "longitude": 23.33814, "state": "Lublin"}, {"city": "Sosnowica", "latitude": 51.52065, "longitude": 23.09215, "state": "Lublin"}, {"city": "So\u015bnica", "latitude": 49.90083, "longitude": 22.87469, "state": "Subcarpathia"}, {"city": "So\u0144sk", "latitude": 52.78164, "longitude": 20.69901, "state": "Mazovia"}, {"city": "Sonina", "latitude": 50.06089, "longitude": 22.26551, "state": "Subcarpathia"}, {"city": "Solec-Zdr\u00f3j", "latitude": 50.36594, "longitude": 20.88956, "state": "\u015awi\u0119tokrzyskie"}, {"city": "Solec Nad Wis\u0142\u0105", "latitude": 51.13633, "longitude": 21.76563, "state": "Mazovia"}, {"city": "Soko\u0142y", "latitude": 52.99314, "longitude": 22.7005, "state": "Podlasie"}, {"city": "Soko\u0142\u00f3w Podlaski", "latitude": 52.40677, "longitude": 22.25307, "state": "Mazovia"}, {"city": "Soko\u0142\u00f3w Ma\u0142opolski", "latitude": 50.22909, "longitude": 22.11968, "state": "Subcarpathia"}, {"city": "Sokolniki", "latitude": 50.63803, "longitude": 21.80649, "state": "Subcarpathia"}, {"city": "Sok\u00f3\u0142ka", "latitude": 53.40715, "longitude": 23.50228, "state": "Podlasie"}, {"city": "Sochocin", "latitude": 52.68715, "longitude": 20.47259, "state": "Mazovia"}, {"city": "Sochaczew", "latitude": 52.22944, "longitude": 20.23838, "state": "Mazovia"}, {"city": "Sobolew", "latitude": 51.7366, "longitude": 21.66349, "state": "Mazovia"}, {"city": "Sobk\u00f3w", "latitude": 50.69999, "longitude": 20.45062, "state": "\u015awi\u0119tokrzyskie"}, {"city": "Sobienie Jeziory", "latitude": 51.93273, "longitude": 21.30335, "state": "Mazovia"}, {"city": "\u015aniadowo", "latitude": 53.03874, "longitude": 21.99077, "state": "Podlasie"}, {"city": "Smyk\u00f3w", "latitude": 51.04442, "longitude": 20.40032, "state": "\u015awi\u0119tokrzyskie"}, {"city": "Sm\u0119gorz\u00f3w", "latitude": 50.22843, "longitude": 21.00414, "state": "Lesser Poland"}, {"city": "S\u0142upno", "latitude": 52.38409, "longitude": 21.15572, "state": "Mazovia"}, {"city": "S\u0142upiec", "latitude": 50.32787, "longitude": 21.19374, "state": "Lesser Poland"}, {"city": "S\u0142upia", "latitude": 51.0137, "longitude": 20.1406, "state": "\u015awi\u0119tokrzyskie"}, {"city": "S\u0142otowa", "latitude": 49.94603, "longitude": 21.29425, "state": "Subcarpathia"}, {"city": "S\u0142opnice", "latitude": 49.68496, "longitude": 20.34325, "state": "Lesser Poland"}, {"city": "S\u0142omniki", "latitude": 50.24012, "longitude": 20.08224, "state": "Lesser Poland"}, {"city": "S\u0142awno", "latitude": 51.39273, "longitude": 20.14043, "state": "\u0141\u00f3d\u017a Voivodeship"}, {"city": "S\u0142awatycze", "latitude": 51.76338, "longitude": 23.5546, "state": "Lublin"}, {"city": "Skrzysz\u00f3w", "latitude": 49.99373, "longitude": 21.06139, "state": "Lesser Poland"}, {"city": "Skrzydlna", "latitude": 49.75343, "longitude": 20.18618, "state": "Lesser Poland"}, {"city": "Sk\u00f3rzec", "latitude": 52.10727, "longitude": 22.13052, "state": "Mazovia"}, {"city": "Sko\u0142yszyn", "latitude": 49.74955, "longitude": 21.33665, "state": "Subcarpathia"}, {"city": "Skierniewice", "latitude": 51.95485, "longitude": 20.15837, "state": "\u0141\u00f3d\u017a Voivodeship"}, {"city": "Skierbiesz\u00f3w", "latitude": 50.85158, "longitude": 23.35917, "state": "Lublin"}, {"city": "Skar\u017cysko Ko\u015bcielne", "latitude": 51.13822, "longitude": 20.91196, "state": "\u015awi\u0119tokrzyskie"}, {"city": "Skar\u017cysko-Kamienna", "latitude": 51.11311, "longitude": 20.87162, "state": "\u015awi\u0119tokrzyskie"}, {"city": "Skaryszew", "latitude": 51.31075, "longitude": 21.25233, "state": "Mazovia"}, {"city": "Skalbmierz", "latitude": 50.31993, "longitude": 20.39929, "state": "\u015awi\u0119tokrzyskie"}, {"city": "Sitno", "latitude": 50.74944, "longitude": 23.3626, "state": "Lublin"}, {"city": "Osiedle-Nowiny", "latitude": 50.8177, "longitude": 20.54117, "state": "\u015awi\u0119tokrzyskie"}, {"city": "Sietesz", "latitude": 49.98622, "longitude": 22.34671, "state": "Subcarpathia"}, {"city": "Sieradza", "latitude": 50.13499, "longitude": 20.92947, "state": "Lesser Poland"}, {"city": "Sienno", "latitude": 51.08773, "longitude": 21.48325, "state": "Mazovia"}, {"city": "Siennica", "latitude": 52.09164, "longitude": 21.61921, "state": "Mazovia"}, {"city": "Sieniawa", "latitude": 50.1779, "longitude": 22.60954, "state": "Subcarpathia"}, {"city": "Sieniawa", "latitude": 49.56508, "longitude": 21.92785, "state": "Subcarpathia"}, {"city": "Siemie\u0144", "latitude": 51.62883, "longitude": 22.77243, "state": "Lublin"}, {"city": "Siemiech\u00f3w", "latitude": 49.85359, "longitude": 20.90595, "state": "Lesser Poland"}, {"city": "Siemiatycze", "latitude": 52.42719, "longitude": 22.86231, "state": "Podlasie"}, {"city": "Siemi\u0105tkowo", "latitude": 52.8811, "longitude": 20.02893, "state": "Mazovia"}, {"city": "Siedliska", "latitude": 49.95409, "longitude": 21.94742, "state": "Subcarpathia"}, {"city": "Siedliska", "latitude": 49.87163, "longitude": 20.99625, "state": "Lesser Poland"}, {"city": "Siedleczka", "latitude": 49.96061, "longitude": 22.37949, "state": "Subcarpathia"}, {"city": "Siedlce", "latitude": 52.16772, "longitude": 22.29006, "state": "Mazovia"}, {"city": "Serokomla", "latitude": 51.7007, "longitude": 22.33237, "state": "Lublin"}, {"city": "Serock", "latitude": 52.51036, "longitude": 21.0691, "state": "Mazovia"}, {"city": "Serniki", "latitude": 51.43716, "longitude": 22.65853, "state": "Lublin"}, {"city": "S\u0119popol", "latitude": 54.26903, "longitude": 21.01453, "state": "Warmia-Masuria"}, {"city": "S\u0119kowa", "latitude": 49.62217, "longitude": 21.19769, "state": "Lesser Poland"}, {"city": "Sejny", "latitude": 54.10802, "longitude": 23.34698, "state": "Podlasie"}, {"city": "S\u0119dzisz\u00f3w Ma\u0142opolski", "latitude": 50.07069, "longitude": 21.70062, "state": "Subcarpathia"}, {"city": "S\u0119dzisz\u00f3w", "latitude": 50.5659, "longitude": 20.05563, "state": "\u015awi\u0119tokrzyskie"}, {"city": "Sawin", "latitude": 51.27443, "longitude": 23.43375, "state": "Lublin"}, {"city": "Sarnaki", "latitude": 52.31504, "longitude": 22.89044, "state": "Mazovia"}, {"city": "Sanok", "latitude": 49.55573, "longitude": 22.2056, "state": "Subcarpathia"}, {"city": "Sandomierz", "latitude": 50.68265, "longitude": 21.74898, "state": "\u015awi\u0119tokrzyskie"}, {"city": "Samborzec", "latitude": 50.64663, "longitude": 21.64822, "state": "\u015awi\u0119tokrzyskie"}, {"city": "Sadowne", "latitude": 52.64124, "longitude": 21.84563, "state": "Mazovia"}, {"city": "Sadowie", "latitude": 50.85261, "longitude": 21.36884, "state": "\u015awi\u0119tokrzyskie"}, {"city": "Sadkowice", "latitude": 51.72517, "longitude": 20.51465, "state": "\u0141\u00f3d\u017a Voivodeship"}, {"city": "Sabnie", "latitude": 52.50097, "longitude": 22.30697, "state": "Mazovia"}, {"city": "Rzezawa", "latitude": 49.98997, "longitude": 20.51508, "state": "Lesser Poland"}, {"city": "Rzewnie", "latitude": 52.83508, "longitude": 21.33682, "state": "Mazovia"}, {"city": "Rzesz\u00f3w", "latitude": 50.04132, "longitude": 21.99901, "state": "Subcarpathia"}, {"city": "Rzepiennik Strzy\u017cewski", "latitude": 49.80542, "longitude": 21.03599, "state": "Lesser Poland"}, {"city": "Rzeped\u017a", "latitude": 49.36997, "longitude": 22.11174, "state": "Subcarpathia"}, {"city": "Rzeku\u0144", "latitude": 53.04756, "longitude": 21.62069, "state": "Mazovia"}, {"city": "Rzeczyca", "latitude": 51.96225, "longitude": 22.74942, "state": "Lublin"}, {"city": "Rzeczyca", "latitude": 51.59824, "longitude": 20.29484, "state": "\u0141\u00f3d\u017a Voivodeship"}, {"city": "Rzeczni\u00f3w", "latitude": 51.12804, "longitude": 21.44008, "state": "Mazovia"}, {"city": "Rz\u0105\u015bnik", "latitude": 52.71332, "longitude": 21.36772, "state": "Mazovia"}, {"city": "Rytwiany", "latitude": 50.5292, "longitude": 21.20636, "state": "\u015awi\u0119tokrzyskie"}, {"city": "Rytro", "latitude": 49.48904, "longitude": 20.66631, "state": "Lesser Poland"}, {"city": "Ryn", "latitude": 53.9377, "longitude": 21.54642, "state": "Warmia-Masuria"}, {"city": "Ryman\u00f3w", "latitude": 49.57649, "longitude": 21.86811, "state": "Subcarpathia"}, {"city": "Ryki", "latitude": 51.62574, "longitude": 21.93274, "state": "Lublin"}, {"city": "Ryglice", "latitude": 49.87887, "longitude": 21.13748, "state": "Lesser Poland"}, {"city": "Ryczyw\u00f3\u0142", "latitude": 51.69118, "longitude": 21.42197, "state": "Mazovia"}, {"city": "Rybno", "latitude": 52.24278, "longitude": 20.10301, "state": "Mazovia"}, {"city": "Rybie", "latitude": 52.15229, "longitude": 20.93655, "state": "Mazovia"}, {"city": "Rybczewice", "latitude": 51.02876, "longitude": 22.85053, "state": "Lublin"}, {"city": "Rutki", "latitude": 53.09119, "longitude": 22.43539, "state": "Podlasie"}, {"city": "Rusin\u00f3w", "latitude": 51.43678, "longitude": 20.58701, "state": "Mazovia"}, {"city": "Rudnik", "latitude": 50.88035, "longitude": 22.97293, "state": "Lublin"}, {"city": "Rudnik nad Sanem", "latitude": 50.44152, "longitude": 22.24856, "state": "Subcarpathia"}, {"city": "Rudna Wielka", "latitude": 50.08799, "longitude": 21.94759, "state": "Subcarpathia"}, {"city": "Rudna Ma\u0142a", "latitude": 50.09889, "longitude": 21.96021, "state": "Subcarpathia"}, {"city": "Rudka", "latitude": 52.72439, "longitude": 22.72676, "state": "Podlasie"}, {"city": "Ruda Maleniecka", "latitude": 51.14592, "longitude": 20.22377, "state": "\u015awi\u0119tokrzyskie"}, {"city": "Ruciane-Nida", "latitude": 53.64161, "longitude": 21.53964, "state": "Warmia-Masuria"}, {"city": "Rozogi", "latitude": 53.48549, "longitude": 21.36223, "state": "Warmia-Masuria"}, {"city": "Rozb\u00f3rz", "latitude": 50.05615, "longitude": 22.54686, "state": "Subcarpathia"}, {"city": "Siennica R\u00f3\u017cana", "latitude": 51.00123, "longitude": 23.3226, "state": "Lublin"}, {"city": "R\u00f3\u017can", "latitude": 52.88757, "longitude": 21.39105, "state": "Mazovia"}, {"city": "Rossosz", "latitude": 51.85836, "longitude": 23.1374, "state": "Lublin"}, {"city": "Ropczyce", "latitude": 50.05229, "longitude": 21.60891, "state": "Subcarpathia"}, {"city": "Ropa", "latitude": 49.59146, "longitude": 21.04431, "state": "Lesser Poland"}, {"city": "Rokitno", "latitude": 52.12142, "longitude": 23.29514, "state": "Lublin"}, {"city": "Rokietnica", "latitude": 49.89983, "longitude": 22.64171, "state": "Subcarpathia"}, {"city": "Rog\u00f3\u017ano", "latitude": 50.46417, "longitude": 23.39041, "state": "Lublin"}, {"city": "Rog\u00f3\u017ano", "latitude": 50.07367, "longitude": 22.37486, "state": "Subcarpathia"}, {"city": "Rog\u00f3w", "latitude": 51.20414, "longitude": 20.43483, "state": "\u015awi\u0119tokrzyskie"}, {"city": "Reszel", "latitude": 54.05042, "longitude": 21.14585, "state": "Warmia-Masuria"}, {"city": "Repki", "latitude": 52.38555, "longitude": 22.39117, "state": "Mazovia"}, {"city": "Rembert\u00f3w", "latitude": 52.26059, "longitude": 21.16355, "state": "Mazovia"}, {"city": "Rejowiec Fabryczny", "latitude": 51.11414, "longitude": 23.24724, "state": "Lublin"}, {"city": "Rejowiec", "latitude": 51.09134, "longitude": 23.28192, "state": "Lublin"}, {"city": "Regn\u00f3w", "latitude": 51.7485, "longitude": 20.38711, "state": "\u0141\u00f3d\u017a Voivodeship"}, {"city": "Regimin", "latitude": 52.94166, "longitude": 20.55319, "state": "Mazovia"}, {"city": "Rawa Mazowiecka", "latitude": 51.76437, "longitude": 20.25493, "state": "\u0141\u00f3d\u017a Voivodeship"}, {"city": "Raszyn", "latitude": 52.15603, "longitude": 20.9226, "state": "Mazovia"}, {"city": "Rani\u017c\u00f3w", "latitude": 50.25873, "longitude": 21.97137, "state": "Subcarpathia"}, {"city": "Rakszawa", "latitude": 50.16051, "longitude": 22.23907, "state": "Subcarpathia"}, {"city": "Rak\u00f3w", "latitude": 50.67427, "longitude": 21.04517, "state": "\u015awi\u0119tokrzyskie"}, {"city": "Rajgr\u00f3d", "latitude": 53.73102, "longitude": 22.70515, "state": "Podlasie"}, {"city": "Radzy\u0144 Podlaski", "latitude": 51.78333, "longitude": 22.61667, "state": "Lublin"}, {"city": "Radzymin", "latitude": 52.41592, "longitude": 21.18415, "state": "Mazovia"}, {"city": "Radzi\u0142\u00f3w", "latitude": 53.40994, "longitude": 22.40988, "state": "Podlasie"}, {"city": "Radziejowice", "latitude": 52.00834, "longitude": 20.5477, "state": "Mazovia"}, {"city": "Radzan\u00f3w", "latitude": 52.94238, "longitude": 20.09219, "state": "Mazovia"}, {"city": "Radzan\u00f3w", "latitude": 51.55786, "longitude": 20.86398, "state": "Mazovia"}, {"city": "Radymno", "latitude": 49.9472, "longitude": 22.82375, "state": "Subcarpathia"}, {"city": "Radoszyce", "latitude": 51.07392, "longitude": 20.25836, "state": "\u015awi\u0119tokrzyskie"}, {"city": "Radomy\u015bl Wielki", "latitude": 50.19693, "longitude": 21.27693, "state": "Subcarpathia"}, {"city": "Radomy\u015bl", "latitude": 50.68101, "longitude": 21.94365, "state": "Subcarpathia"}, {"city": "Radom", "latitude": 51.40253, "longitude": 21.14714, "state": "Mazovia"}, {"city": "Rad\u0142\u00f3w", "latitude": 50.08419, "longitude": 20.84967, "state": "Lesser Poland"}, {"city": "Radgoszcz", "latitude": 50.2058, "longitude": 21.11315, "state": "Lesser Poland"}, {"city": "Radecznica", "latitude": 50.75155, "longitude": 22.82976, "state": "Lublin"}, {"city": "Raczki", "latitude": 53.98749, "longitude": 22.78487, "state": "Podlasie"}, {"city": "Rac\u0142awice", "latitude": 50.5137, "longitude": 22.16552, "state": "Subcarpathia"}, {"city": "Raci\u0105\u017c", "latitude": 52.78152, "longitude": 20.1177, "state": "Mazovia"}, {"city": "Rachanie", "latitude": 50.53842, "longitude": 23.54688, "state": "Lublin"}, {"city": "Pysznica", "latitude": 50.56999, "longitude": 22.12913, "state": "Subcarpathia"}, {"city": "Puszcza Maria\u0144ska", "latitude": 51.97901, "longitude": 20.35037, "state": "Mazovia"}, {"city": "Purda", "latitude": 53.70844, "longitude": 20.70683, "state": "Warmia-Masuria"}, {"city": "Pu\u0144sk", "latitude": 54.25114, "longitude": 23.18124, "state": "Podlasie"}, {"city": "Pu\u0142tusk", "latitude": 52.7025, "longitude": 21.08276, "state": "Mazovia"}, {"city": "Pu\u0142awy", "latitude": 51.41655, "longitude": 21.96939, "state": "Lublin"}, {"city": "Puchacz\u00f3w", "latitude": 51.3105, "longitude": 22.9737, "state": "Lublin"}, {"city": "Przytyk", "latitude": 51.46567, "longitude": 20.90587, "state": "Mazovia"}, {"city": "Przytoczno", "latitude": 51.61951, "longitude": 22.27135, "state": "Lublin"}, {"city": "Przysucha", "latitude": 51.35858, "longitude": 20.62889, "state": "Mazovia"}, {"city": "Przysietnica", "latitude": 49.73019, "longitude": 22.05257, "state": "Subcarpathia"}, {"city": "Przy\u0142\u0119k", "latitude": 51.30856, "longitude": 21.74744, "state": "Mazovia"}, {"city": "Przybysz\u00f3wka", "latitude": 50.04788, "longitude": 21.92579, "state": "Subcarpathia"}, {"city": "Przybor\u00f3w", "latitude": 50.03035, "longitude": 20.66279, "state": "Lesser Poland"}, {"city": "Przeworsk", "latitude": 50.05912, "longitude": 22.49408, "state": "Subcarpathia"}, {"city": "Przesmyki", "latitude": 52.26816, "longitude": 22.58394, "state": "Mazovia"}, {"city": "Przemy\u015bl", "latitude": 49.78498, "longitude": 22.76728, "state": "Subcarpathia"}, {"city": "Prz\u0119dzel", "latitude": 50.49465, "longitude": 22.21925, "state": "Subcarpathia"}, {"city": "Przedmie\u015bcie Dubieckie", "latitude": 49.8371, "longitude": 22.37177, "state": "Subcarpathia"}, {"city": "Przec\u0142aw", "latitude": 50.19339, "longitude": 21.48007, "state": "Subcarpathia"}, {"city": "Przasnysz", "latitude": 53.01907, "longitude": 20.88029, "state": "Mazovia"}, {"city": "Pruszk\u00f3w", "latitude": 52.17072, "longitude": 20.81214, "state": "Mazovia"}, {"city": "Pruchnik", "latitude": 49.9062, "longitude": 22.51554, "state": "Subcarpathia"}, {"city": "Proszowice", "latitude": 50.19275, "longitude": 20.28909, "state": "Lesser Poland"}, {"city": "Prostki", "latitude": 53.69901, "longitude": 22.43183, "state": "Warmia-Masuria"}, {"city": "Promna", "latitude": 51.68006, "longitude": 20.95917, "state": "Mazovia"}, {"city": "Pra\u017cm\u00f3w", "latitude": 51.9404, "longitude": 20.95479, "state": "Mazovia"}, {"city": "Pozezdrze", "latitude": 54.14147, "longitude": 21.8597, "state": "Warmia-Masuria"}, {"city": "Potwor\u00f3w", "latitude": 51.50874, "longitude": 20.72176, "state": "Mazovia"}, {"city": "Potok Wielki", "latitude": 50.7915, "longitude": 22.21642, "state": "Lublin"}, {"city": "Potok G\u00f3rny", "latitude": 50.38477, "longitude": 22.56188, "state": "Lublin"}, {"city": "Po\u015bwi\u0119tne", "latitude": 52.32967, "longitude": 21.42137, "state": "Mazovia"}, {"city": "Po\u015bwi\u0119tne", "latitude": 51.53203, "longitude": 20.36453, "state": "\u0141\u00f3d\u017a Voivodeship"}, {"city": "Poronin", "latitude": 49.33781, "longitude": 20.00291, "state": "Lesser Poland"}, {"city": "Por\u0119ba Spytkowska", "latitude": 49.93995, "longitude": 20.55405, "state": "Lesser Poland"}, {"city": "Por\u0119ba", "latitude": 49.79645, "longitude": 20.01718, "state": "Lesser Poland"}, {"city": "Pora\u017c", "latitude": 49.48597, "longitude": 22.225, "state": "Subcarpathia"}, {"city": "Por\u0105bka Uszewska", "latitude": 49.9426, "longitude": 20.69052, "state": "Lesser Poland"}, {"city": "Poniatowa", "latitude": 51.17983, "longitude": 22.13093, "state": "Lublin"}, {"city": "Pomiech\u00f3wek", "latitude": 52.47138, "longitude": 20.72923, "state": "Mazovia"}, {"city": "Po\u0142omia", "latitude": 49.90475, "longitude": 21.89198, "state": "Subcarpathia"}, {"city": "Policzna", "latitude": 51.45545, "longitude": 21.62684, "state": "Mazovia"}, {"city": "Po\u0142aniec", "latitude": 50.43324, "longitude": 21.2812, "state": "\u015awi\u0119tokrzyskie"}, {"city": "Pola\u0144czyk", "latitude": 49.36969, "longitude": 22.42112, "state": "Subcarpathia"}, {"city": "Pokrzywnica", "latitude": 52.62072, "longitude": 21.01925, "state": "Mazovia"}, {"city": "Pokr\u00f3wka", "latitude": 51.09479, "longitude": 23.46345, "state": "Lublin"}, {"city": "Pog\u00f3rska Wola", "latitude": 50.01855, "longitude": 21.15795, "state": "Lesser Poland"}, {"city": "Pod\u0142\u0119\u017ce", "latitude": 50.01458, "longitude": 20.16781, "state": "Lesser Poland"}, {"city": "Podkowa Le\u015bna", "latitude": 52.12237, "longitude": 20.72665, "state": "Mazovia"}, {"city": "Podegrodzie", "latitude": 49.57688, "longitude": 20.58855, "state": "Lesser Poland"}, {"city": "Podedw\u00f3rze", "latitude": 51.68815, "longitude": 23.19961, "state": "Lublin"}, {"city": "Pniewy", "latitude": 51.91468, "longitude": 20.74578, "state": "Mazovia"}, {"city": "P\u0142o\u0144sk", "latitude": 52.62348, "longitude": 20.37552, "state": "Mazovia"}, {"city": "P\u0142oniawy-Bramura", "latitude": 52.9778, "longitude": 21.07178, "state": "Mazovia"}, {"city": "Ple\u015bna", "latitude": 49.92642, "longitude": 20.94526, "state": "Lesser Poland"}, {"city": "Piwniczna-Zdr\u00f3j", "latitude": 49.44056, "longitude": 20.71423, "state": "Lesser Poland"}, {"city": "Piszczac", "latitude": 51.98118, "longitude": 23.37719, "state": "Lublin"}, {"city": "Pisz", "latitude": 53.62744, "longitude": 21.81253, "state": "Warmia-Masuria"}, {"city": "Piskorowice", "latitude": 50.23579, "longitude": 22.52867, "state": "Subcarpathia"}, {"city": "Pionki", "latitude": 51.47604, "longitude": 21.44995, "state": "Mazovia"}, {"city": "Pi\u0144cz\u00f3w", "latitude": 50.52052, "longitude": 20.52649, "state": "\u015awi\u0119tokrzyskie"}, {"city": "Pilzno", "latitude": 49.97883, "longitude": 21.29228, "state": "Subcarpathia"}, {"city": "Pilawa", "latitude": 51.95945, "longitude": 21.53089, "state": "Mazovia"}, {"city": "Pierzchnica", "latitude": 50.69754, "longitude": 20.75489, "state": "\u015awi\u0119tokrzyskie"}, {"city": "Pieni\u0119\u017cno", "latitude": 54.23649, "longitude": 20.12833, "state": "Warmia-Masuria"}, {"city": "Piekosz\u00f3w", "latitude": 50.88035, "longitude": 20.46418, "state": "\u015awi\u0119tokrzyskie"}, {"city": "Piecki", "latitude": 53.75759, "longitude": 21.33914, "state": "Warmia-Masuria"}, {"city": "Pi\u0105tnica", "latitude": 53.19657, "longitude": 22.09591, "state": "Podlasie"}, {"city": "Piast\u00f3w", "latitude": 52.18435, "longitude": 20.83952, "state": "Mazovia"}, {"city": "Piaski", "latitude": 51.13892, "longitude": 22.84856, "state": "Lublin"}, {"city": "Piaseczno", "latitude": 52.0814, "longitude": 21.02397, "state": "Mazovia"}, {"city": "Perlejewo", "latitude": 52.56676, "longitude": 22.56457, "state": "Podlasie"}, {"city": "Paw\u0142\u00f3w", "latitude": 50.96216, "longitude": 21.12062, "state": "\u015awi\u0119tokrzyskie"}, {"city": "Paw\u0142osi\u00f3w", "latitude": 49.99533, "longitude": 22.64763, "state": "Subcarpathia"}, {"city": "Pawlikowice", "latitude": 49.9531, "longitude": 20.05486, "state": "Lesser Poland"}, {"city": "Pasym", "latitude": 53.65069, "longitude": 20.79188, "state": "Warmia-Masuria"}, {"city": "Parys\u00f3w", "latitude": 51.97584, "longitude": 21.68006, "state": "Mazovia"}, {"city": "Parczew", "latitude": 51.64021, "longitude": 22.90057, "state": "Lublin"}, {"city": "Parady\u017c", "latitude": 51.30604, "longitude": 20.11374, "state": "\u0141\u00f3d\u017a Voivodeship"}, {"city": "Paprotnia", "latitude": 52.30071, "longitude": 22.46756, "state": "Mazovia"}, {"city": "Paprotnia", "latitude": 52.20513, "longitude": 20.4232, "state": "Mazovia"}, {"city": "Pantalowice", "latitude": 49.9521, "longitude": 22.43563, "state": "Subcarpathia"}, {"city": "Padew Narodowa", "latitude": 50.43947, "longitude": 21.50059, "state": "Subcarpathia"}, {"city": "Pacan\u00f3w", "latitude": 50.40031, "longitude": 21.04148, "state": "\u015awi\u0119tokrzyskie"}, {"city": "O\u017car\u00f3w Mazowiecki", "latitude": 52.21039, "longitude": 20.79716, "state": "Mazovia"}, {"city": "O\u017car\u00f3w", "latitude": 50.88798, "longitude": 21.66658, "state": "\u015awi\u0119tokrzyskie"}, {"city": "Owczarnia", "latitude": 52.11114, "longitude": 20.70468, "state": "Mazovia"}, {"city": "Otwock", "latitude": 52.10577, "longitude": 21.26129, "state": "Mazovia"}, {"city": "Otr\u0119busy", "latitude": 52.12843, "longitude": 20.76073, "state": "Mazovia"}, {"city": "Ostrowsko", "latitude": 49.47616, "longitude": 20.10052, "state": "Lesser Poland"}, {"city": "Ostr\u00f3w Mazowiecka", "latitude": 52.80245, "longitude": 21.89507, "state": "Mazovia"}, {"city": "Ostr\u00f3w Lubelski", "latitude": 51.49416, "longitude": 22.85287, "state": "Lublin"}, {"city": "Ostrowiec \u015awi\u0119tokrzyski", "latitude": 50.92936, "longitude": 21.38525, "state": "\u015awi\u0119tokrzyskie"}, {"city": "Ostr\u00f3wek", "latitude": 52.5535, "longitude": 21.76014, "state": "Mazovia"}, {"city": "Ostr\u00f3wek", "latitude": 51.5815, "longitude": 22.61227, "state": "Lublin"}, {"city": "Ostr\u00f3w", "latitude": 50.09779, "longitude": 21.5932, "state": "Subcarpathia"}, {"city": "Ostr\u00f3w", "latitude": 49.96812, "longitude": 22.7871, "state": "Subcarpathia"}, {"city": "Ostro\u0142\u0119ka", "latitude": 53.08621, "longitude": 21.57566, "state": "Mazovia"}, {"city": "Osiek Jasielski", "latitude": 49.63784, "longitude": 21.4884, "state": "Subcarpathia"}, {"city": "Osiek", "latitude": 50.51996, "longitude": 21.44192, "state": "\u015awi\u0119tokrzyskie"}, {"city": "Osieczany", "latitude": 49.84252, "longitude": 19.98207, "state": "Lesser Poland"}, {"city": "Osieck", "latitude": 51.96653, "longitude": 21.41913, "state": "Mazovia"}, {"city": "Orzysz", "latitude": 53.80967, "longitude": 21.94811, "state": "Warmia-Masuria"}, {"city": "Orzech\u00f3wka", "latitude": 49.7308, "longitude": 21.94519, "state": "Subcarpathia"}, {"city": "Oro\u0144sko", "latitude": 51.31339, "longitude": 20.99067, "state": "Mazovia"}, {"city": "Orneta", "latitude": 54.11483, "longitude": 20.13328, "state": "Warmia-Masuria"}, {"city": "Or\u0142y", "latitude": 49.87107, "longitude": 22.80298, "state": "Subcarpathia"}, {"city": "Orla", "latitude": 52.70546, "longitude": 23.33213, "state": "Podlasie"}, {"city": "Opole Lubelskie", "latitude": 51.14775, "longitude": 21.96897, "state": "Lublin"}, {"city": "Opoczno", "latitude": 51.37569, "longitude": 20.27827, "state": "\u0141\u00f3d\u017a Voivodeship"}, {"city": "Opinog\u00f3ra G\u00f3rna", "latitude": 52.90554, "longitude": 20.71781, "state": "Mazovia"}, {"city": "Opatowiec", "latitude": 50.24314, "longitude": 20.72348, "state": "\u015awi\u0119tokrzyskie"}, {"city": "Opat\u00f3w", "latitude": 50.80058, "longitude": 21.42538, "state": "\u015awi\u0119tokrzyskie"}, {"city": "Olsztynek", "latitude": 53.58374, "longitude": 20.28471, "state": "Warmia-Masuria"}, {"city": "Olsztyn", "latitude": 53.77995, "longitude": 20.49416, "state": "Warmia-Masuria"}, {"city": "Olsz\u00f3wka", "latitude": 49.61455, "longitude": 20.02885, "state": "Lesser Poland"}, {"city": "Olszanica", "latitude": 49.47741, "longitude": 22.44382, "state": "Subcarpathia"}, {"city": "Olszana", "latitude": 49.56748, "longitude": 20.52126, "state": "Lesser Poland"}, {"city": "O\u0142piny", "latitude": 49.80686, "longitude": 21.20464, "state": "Lesser Poland"}, {"city": "Oleszyce", "latitude": 50.1675, "longitude": 23.03481, "state": "Subcarpathia"}, {"city": "Olesno", "latitude": 50.20152, "longitude": 20.92578, "state": "Lesser Poland"}, {"city": "Ole\u015bnica", "latitude": 50.45357, "longitude": 21.06457, "state": "\u015awi\u0119tokrzyskie"}, {"city": "Olecko", "latitude": 54.03374, "longitude": 22.50704, "state": "Warmia-Masuria"}, {"city": "Oksa", "latitude": 50.72874, "longitude": 20.10086, "state": "\u015awi\u0119tokrzyskie"}, {"city": "Okocim", "latitude": 49.9489, "longitude": 20.6016, "state": "Lesser Poland"}, {"city": "Ojrze\u0144", "latitude": 52.7657, "longitude": 20.54315, "state": "Mazovia"}, {"city": "Odrzyw\u00f3\u0142", "latitude": 51.51953, "longitude": 20.55559, "state": "Mazovia"}, {"city": "Odrzyko\u0144", "latitude": 49.74057, "longitude": 21.74074, "state": "Subcarpathia"}, {"city": "Ochotnica Dolna", "latitude": 49.52682, "longitude": 20.34265, "state": "Lesser Poland"}, {"city": "Ochota", "latitude": 52.22096, "longitude": 20.98526, "state": "Mazovia"}, {"city": "Obsza", "latitude": 50.3152, "longitude": 22.95688, "state": "Lublin"}, {"city": "Obryte", "latitude": 52.71633, "longitude": 21.24945, "state": "Mazovia"}, {"city": "Obraz\u00f3w", "latitude": 50.69276, "longitude": 21.65045, "state": "\u015awi\u0119tokrzyskie"}, {"city": "Nurzec-Stacja", "latitude": 52.46249, "longitude": 23.08571, "state": "Podlasie"}, {"city": "Nur", "latitude": 52.66826, "longitude": 22.32207, "state": "Mazovia"}, {"city": "Nozdrzec", "latitude": 49.77323, "longitude": 22.19865, "state": "Subcarpathia"}, {"city": "Nowy \u017bmigr\u00f3d", "latitude": 49.60353, "longitude": 21.52376, "state": "Subcarpathia"}, {"city": "Nowy Wi\u015bnicz", "latitude": 49.91465, "longitude": 20.46109, "state": "Lesser Poland"}, {"city": "Nowy Targ", "latitude": 49.47783, "longitude": 20.03228, "state": "Lesser Poland"}, {"city": "Nowy S\u0105cz", "latitude": 49.62177, "longitude": 20.69705, "state": "Lesser Poland"}, {"city": "Nowy Korczyn", "latitude": 50.30124, "longitude": 20.80759, "state": "\u015awi\u0119tokrzyskie"}, {"city": "Nowy Dw\u00f3r Mazowiecki", "latitude": 52.43022, "longitude": 20.71652, "state": "Mazovia"}, {"city": "Nowosielce-Gniewosz", "latitude": 49.56842, "longitude": 22.06947, "state": "Subcarpathia"}, {"city": "Nowosielce", "latitude": 50.05747, "longitude": 22.41056, "state": "Subcarpathia"}, {"city": "Nowogr\u00f3d", "latitude": 53.22698, "longitude": 21.8821, "state": "Podlasie"}, {"city": "Nowodw\u00f3r", "latitude": 51.63901, "longitude": 22.10183, "state": "Lublin"}, {"city": "Nowe Sio\u0142o", "latitude": 50.23194, "longitude": 23.15884, "state": "Subcarpathia"}, {"city": "Nowe Miasto nad Pilic\u0105", "latitude": 51.61812, "longitude": 20.57619, "state": "Mazovia"}, {"city": "Nowe Miasto", "latitude": 52.65691, "longitude": 20.62838, "state": "Mazovia"}, {"city": "Nowe Brzesko", "latitude": 50.13222, "longitude": 20.37663, "state": "Lesser Poland"}, {"city": "Nowa S\u0142upia", "latitude": 50.86432, "longitude": 21.09049, "state": "\u015awi\u0119tokrzyskie"}, {"city": "Nowa Sarzyna", "latitude": 50.32086, "longitude": 22.34456, "state": "Subcarpathia"}, {"city": "Nowa D\u0119ba", "latitude": 50.42974, "longitude": 21.75078, "state": "Subcarpathia"}, {"city": "Niwiska", "latitude": 50.22492, "longitude": 21.63036, "state": "Subcarpathia"}, {"city": "Nisko", "latitude": 50.51987, "longitude": 22.13968, "state": "Subcarpathia"}, {"city": "Niepor\u0119t", "latitude": 52.43152, "longitude": 21.03212, "state": "Mazovia"}, {"city": "Niepo\u0142omice", "latitude": 50.04066, "longitude": 20.22257, "state": "Lesser Poland"}, {"city": "Nienadowa", "latitude": 49.82901, "longitude": 22.42704, "state": "Subcarpathia"}, {"city": "Niemce", "latitude": 51.36155, "longitude": 22.63939, "state": "Lublin"}, {"city": "Nielisz", "latitude": 50.80067, "longitude": 23.04451, "state": "Lublin"}, {"city": "Nied\u017awied\u017a", "latitude": 49.621, "longitude": 20.07794, "state": "Lesser Poland"}, {"city": "Nied\u017awiada", "latitude": 51.54409, "longitude": 22.6914, "state": "Lublin"}, {"city": "Nied\u017awiada", "latitude": 49.98937, "longitude": 21.52162, "state": "Subcarpathia"}, {"city": "Niedzica", "latitude": 49.41008, "longitude": 20.30273, "state": "Lesser Poland"}, {"city": "Niedrzwica Du\u017ca", "latitude": 51.11462, "longitude": 22.38911, "state": "Lublin"}, {"city": "Niedomice", "latitude": 50.10737, "longitude": 20.89548, "state": "Lesser Poland"}, {"city": "Niechobrz", "latitude": 49.99472, "longitude": 21.87824, "state": "Subcarpathia"}, {"city": "Niebylec", "latitude": 49.85669, "longitude": 21.90348, "state": "Subcarpathia"}, {"city": "Niebor\u00f3w", "latitude": 52.07771, "longitude": 20.06902, "state": "\u0141\u00f3d\u017a Voivodeship"}, {"city": "Niebocko", "latitude": 49.67774, "longitude": 22.10484, "state": "Subcarpathia"}, {"city": "Niebieszczany", "latitude": 49.50348, "longitude": 22.15651, "state": "Subcarpathia"}, {"city": "Nidzica", "latitude": 53.36052, "longitude": 20.42749, "state": "Warmia-Masuria"}, {"city": "Nawojowa", "latitude": 49.56686, "longitude": 20.73927, "state": "Lesser Poland"}, {"city": "Nasielsk", "latitude": 52.58887, "longitude": 20.80553, "state": "Mazovia"}, {"city": "Naruszewo", "latitude": 52.52687, "longitude": 20.35157, "state": "Mazovia"}, {"city": "Narol", "latitude": 50.34925, "longitude": 23.32679, "state": "Subcarpathia"}, {"city": "Narew", "latitude": 52.91418, "longitude": 23.51984, "state": "Podlasie"}, {"city": "Na\u0142\u0119cz\u00f3w", "latitude": 51.28581, "longitude": 22.21539, "state": "Lublin"}, {"city": "Nag\u0142owice", "latitude": 50.67835, "longitude": 20.10661, "state": "\u015awi\u0119tokrzyskie"}, {"city": "Nadarzyn", "latitude": 52.09438, "longitude": 20.80776, "state": "Mazovia"}, {"city": "Myszyniec", "latitude": 53.38055, "longitude": 21.34961, "state": "Mazovia"}, {"city": "Mysiad\u0142o", "latitude": 52.10216, "longitude": 21.01856, "state": "Mazovia"}, {"city": "Muszyna", "latitude": 49.35661, "longitude": 20.89718, "state": "Lesser Poland"}, {"city": "Mszczon\u00f3w", "latitude": 51.97415, "longitude": 20.52083, "state": "Mazovia"}, {"city": "Mszana G\u00f3rna", "latitude": 49.66202, "longitude": 20.09734, "state": "Lesser Poland"}, {"city": "Mszana Dolna", "latitude": 49.67432, "longitude": 20.07992, "state": "Lesser Poland"}, {"city": "Mrozy", "latitude": 52.16609, "longitude": 21.80263, "state": "Mazovia"}, {"city": "Mrozy", "latitude": 52.01975, "longitude": 20.36702, "state": "Mazovia"}, {"city": "Mr\u0105gowo", "latitude": 53.86437, "longitude": 21.30507, "state": "Warmia-Masuria"}, {"city": "Moszczenica", "latitude": 49.73668, "longitude": 21.09238, "state": "Lesser Poland"}, {"city": "Mordy", "latitude": 52.2116, "longitude": 22.51725, "state": "Mazovia"}, {"city": "Morawica", "latitude": 50.74678, "longitude": 20.61756, "state": "\u015awi\u0119tokrzyskie"}, {"city": "Mo\u0144ki", "latitude": 53.40496, "longitude": 22.79791, "state": "Podlasie"}, {"city": "Mokot\u00f3w", "latitude": 52.1934, "longitude": 21.03487, "state": "Mazovia"}, {"city": "Mokobody", "latitude": 52.26523, "longitude": 22.11182, "state": "Mazovia"}, {"city": "Mogielnica", "latitude": 51.69432, "longitude": 20.72227, "state": "Mazovia"}, {"city": "Modliborzyce", "latitude": 50.75416, "longitude": 22.32945, "state": "Lublin"}, {"city": "Mniszk\u00f3w", "latitude": 51.37017, "longitude": 20.03915, "state": "\u0141\u00f3d\u017a Voivodeship"}, {"city": "Mni\u00f3w", "latitude": 51.01224, "longitude": 20.48427, "state": "\u015awi\u0119tokrzyskie"}, {"city": "M\u0142ynarze", "latitude": 52.95417, "longitude": 21.41141, "state": "Mazovia"}, {"city": "M\u0142odzieszyn", "latitude": 52.29945, "longitude": 20.20017, "state": "Mazovia"}, {"city": "M\u0142awa", "latitude": 53.11278, "longitude": 20.3841, "state": "Mazovia"}, {"city": "Mirzec", "latitude": 51.13466, "longitude": 21.0571, "state": "\u015awi\u0119tokrzyskie"}, {"city": "Mir\u00f3w", "latitude": 51.1972, "longitude": 21.0329, "state": "Mazovia"}, {"city": "Mirocin", "latitude": 50.04237, "longitude": 22.55596, "state": "Subcarpathia"}, {"city": "Mircze", "latitude": 50.65164, "longitude": 23.89604, "state": "Lublin"}, {"city": "Mi\u0144sk Mazowiecki", "latitude": 52.17935, "longitude": 21.57251, "state": "Mazovia"}, {"city": "Milej\u00f3w", "latitude": 51.23226, "longitude": 22.92443, "state": "Lublin"}, {"city": "Milejczyce", "latitude": 52.51967, "longitude": 23.13206, "state": "Podlasie"}, {"city": "Milan\u00f3wek", "latitude": 52.11879, "longitude": 20.67155, "state": "Mazovia"}, {"city": "Milan\u00f3w", "latitude": 51.70374, "longitude": 22.8883, "state": "Lublin"}, {"city": "Mi\u0142akowo", "latitude": 54.00923, "longitude": 20.07125, "state": "Warmia-Masuria"}, {"city": "Miko\u0142ajki", "latitude": 53.80288, "longitude": 21.57011, "state": "Warmia-Masuria"}, {"city": "Mi\u0119tne", "latitude": 51.92135, "longitude": 21.57457, "state": "Mazovia"}, {"city": "Mielec", "latitude": 50.28709, "longitude": 21.4239, "state": "Subcarpathia"}, {"city": "Miejsce Piastowe", "latitude": 49.6344, "longitude": 21.78735, "state": "Subcarpathia"}, {"city": "Mi\u0119dzyrzec Podlaski", "latitude": 51.9864, "longitude": 22.78248, "state": "Lublin"}, {"city": "Miedzna", "latitude": 52.46778, "longitude": 22.08947, "state": "Mazovia"}, {"city": "Miedziana G\u00f3ra", "latitude": 50.9368, "longitude": 20.55096, "state": "\u015awi\u0119tokrzyskie"}, {"city": "Miech\u00f3w", "latitude": 50.35648, "longitude": 20.02788, "state": "Lesser Poland"}, {"city": "Mich\u00f3w", "latitude": 51.52573, "longitude": 22.31435, "state": "Lublin"}, {"city": "Micha\u0142owo", "latitude": 53.03492, "longitude": 23.60996, "state": "Podlasie"}, {"city": "Micha\u0142owice", "latitude": 52.17435, "longitude": 20.88089, "state": "Mazovia"}, {"city": "Micha\u0142\u00f3w-Regin\u00f3w", "latitude": 52.41711, "longitude": 20.96595, "state": "Mazovia"}, {"city": "Micha\u0142\u00f3w", "latitude": 50.73727, "longitude": 23.02297, "state": "Lublin"}, {"city": "Micha\u0142\u00f3w", "latitude": 50.54709, "longitude": 23.60361, "state": "Lublin"}, {"city": "Micha\u0142\u00f3w", "latitude": 50.49541, "longitude": 20.46178, "state": "\u015awi\u0119tokrzyskie"}, {"city": "Miastk\u00f3w Ko\u015bcielny", "latitude": 51.88407, "longitude": 21.82528, "state": "Mazovia"}, {"city": "Mi\u0105czyn", "latitude": 50.73825, "longitude": 23.5013, "state": "Lublin"}, {"city": "Me\u0142giew", "latitude": 51.22519, "longitude": 22.78414, "state": "Lublin"}, {"city": "Medyka", "latitude": 49.80526, "longitude": 22.92229, "state": "Subcarpathia"}, {"city": "M\u0119drzech\u00f3w", "latitude": 50.28221, "longitude": 20.94749, "state": "Lesser Poland"}, {"city": "Maszkienice", "latitude": 49.9892, "longitude": 20.68657, "state": "Lesser Poland"}, {"city": "Mas\u0142\u00f3w", "latitude": 50.90065, "longitude": 20.72322, "state": "\u015awi\u0119tokrzyskie"}, {"city": "Markusz\u00f3w", "latitude": 51.37457, "longitude": 22.25804, "state": "Lublin"}, {"city": "Markowa", "latitude": 50.02633, "longitude": 22.3316, "state": "Subcarpathia"}, {"city": "Marki", "latitude": 52.32065, "longitude": 21.10474, "state": "Mazovia"}, {"city": "Maniowy", "latitude": 49.45976, "longitude": 20.26454, "state": "Lesser Poland"}, {"city": "Manasterz", "latitude": 49.9352, "longitude": 22.34602, "state": "Subcarpathia"}, {"city": "Ma\u0142y P\u0142ock", "latitude": 53.30385, "longitude": 22.02836, "state": "Podlasie"}, {"city": "Ma\u0142ogoszcz", "latitude": 50.81214, "longitude": 20.26407, "state": "\u015awi\u0119tokrzyskie"}, {"city": "Ma\u0142kinia G\u00f3rna", "latitude": 52.6922, "longitude": 22.02836, "state": "Mazovia"}, {"city": "Mak\u00f3w Mazowiecki", "latitude": 52.86493, "longitude": 21.10053, "state": "Mazovia"}, {"city": "Mak\u00f3w", "latitude": 51.94696, "longitude": 20.05211, "state": "\u0141\u00f3d\u017a Voivodeship"}, {"city": "Majdan Kr\u00f3lewski", "latitude": 50.37935, "longitude": 21.74615, "state": "Subcarpathia"}, {"city": "Maciejowice", "latitude": 51.69222, "longitude": 21.55342, "state": "Mazovia"}, {"city": "Jeziorzany", "latitude": 51.60245, "longitude": 22.27667, "state": "Lublin"}, {"city": "\u0141yse", "latitude": 53.36443, "longitude": 21.56487, "state": "Mazovia"}, {"city": "\u0141u\u017cna", "latitude": 49.71288, "longitude": 21.04637, "state": "Lesser Poland"}, {"city": "Lutowiska", "latitude": 49.25318, "longitude": 22.69252, "state": "Subcarpathia"}, {"city": "Lutory\u017c", "latitude": 49.96712, "longitude": 21.9124, "state": "Subcarpathia"}, {"city": "\u0141ukowica", "latitude": 49.6111, "longitude": 20.48289, "state": "Lesser Poland"}, {"city": "\u0141ukowa", "latitude": 50.37426, "longitude": 22.94349, "state": "Lublin"}, {"city": "\u0141ukowa", "latitude": 50.093, "longitude": 20.97548, "state": "Lesser Poland"}, {"city": "\u0141uk\u00f3w", "latitude": 51.929, "longitude": 22.37956, "state": "Lublin"}, {"city": "Ludwin", "latitude": 51.34605, "longitude": 22.90581, "state": "Lublin"}, {"city": "Lubycza Kr\u00f3lewska", "latitude": 50.34102, "longitude": 23.51941, "state": "Lublin"}, {"city": "Lubomino", "latitude": 54.06684, "longitude": 20.23956, "state": "Warmia-Masuria"}, {"city": "Lubomierz", "latitude": 49.60854, "longitude": 20.20214, "state": "Lesser Poland"}, {"city": "Lubochnia", "latitude": 51.60794, "longitude": 20.05391, "state": "\u0141\u00f3d\u017a Voivodeship"}, {"city": "\u0141ubnice", "latitude": 50.41164, "longitude": 21.15014, "state": "\u015awi\u0119tokrzyskie"}, {"city": "Lublin", "latitude": 51.25, "longitude": 22.56667, "state": null}, {"city": "Lubenia", "latitude": 49.93078, "longitude": 21.92665, "state": "Subcarpathia"}, {"city": "Lubart\u00f3w", "latitude": 51.46026, "longitude": 22.60952, "state": "Lublin"}, {"city": "Lubacz\u00f3w", "latitude": 50.157, "longitude": 23.12339, "state": "Subcarpathia"}, {"city": "\u0141ososina Dolna", "latitude": 49.74977, "longitude": 20.63129, "state": "Lesser Poland"}, {"city": "\u0141osice", "latitude": 52.21129, "longitude": 22.71801, "state": "Mazovia"}, {"city": "\u0141opuszno", "latitude": 50.94864, "longitude": 20.25081, "state": "\u015awi\u0119tokrzyskie"}, {"city": "\u0141opuszna", "latitude": 49.47281, "longitude": 20.13021, "state": "Lesser Poland"}, {"city": "\u0141opuszka Wielka", "latitude": 49.93454, "longitude": 22.39305, "state": "Subcarpathia"}, {"city": "\u0141opiennik G\u00f3rny", "latitude": 51.0408, "longitude": 23.01833, "state": "Lublin"}, {"city": "\u0141oni\u00f3w", "latitude": 50.56443, "longitude": 21.52599, "state": "\u015awi\u0119tokrzyskie"}, {"city": "\u0141om\u017ca", "latitude": 53.17806, "longitude": 22.05935, "state": "Podlasie"}, {"city": "\u0141omianki", "latitude": 52.33413, "longitude": 20.88602, "state": "Mazovia"}, {"city": "\u0141omazy", "latitude": 51.90435, "longitude": 23.17656, "state": "Lublin"}, {"city": "\u0141och\u00f3w", "latitude": 52.53076, "longitude": 21.68158, "state": "Mazovia"}, {"city": "Liw", "latitude": 52.37515, "longitude": 21.96768, "state": "Mazovia"}, {"city": "Lisia G\u00f3ra", "latitude": 50.08039, "longitude": 21.04397, "state": "Lesser Poland"}, {"city": "Lipsko", "latitude": 51.15954, "longitude": 21.64933, "state": "Mazovia"}, {"city": "Lipsk", "latitude": 53.73312, "longitude": 23.40225, "state": "Podlasie"}, {"city": "Lipowiec Ko\u015bcielny", "latitude": 53.10459, "longitude": 20.17639, "state": "Mazovia"}, {"city": "Lipinki", "latitude": 49.67296, "longitude": 21.29288, "state": "Lesser Poland"}, {"city": "Lipnik", "latitude": 50.72977, "longitude": 21.49389, "state": "\u015awi\u0119tokrzyskie"}, {"city": "Lipnik", "latitude": 49.78902, "longitude": 20.08455, "state": "Lesser Poland"}, {"city": "Lipnica Wielka", "latitude": 49.70489, "longitude": 20.86844, "state": "Lesser Poland"}, {"city": "Lipnica", "latitude": 50.28939, "longitude": 21.88811, "state": "Subcarpathia"}, {"city": "Nowe Lipiny", "latitude": 52.35789, "longitude": 21.27125, "state": "Mazovia"}, {"city": "Limanowa", "latitude": 49.70594, "longitude": 20.42204, "state": "Lesser Poland"}, {"city": "Lidzbark Warmi\u0144ski", "latitude": 54.12588, "longitude": 20.57954, "state": "Warmia-Masuria"}, {"city": "Le\u017cajsk", "latitude": 50.26257, "longitude": 22.41932, "state": "Subcarpathia"}, {"city": "\u0141\u0119townia", "latitude": 50.32481, "longitude": 22.23401, "state": "Subcarpathia"}, {"city": "Lesznowola", "latitude": 52.09095, "longitude": 20.93479, "state": "Mazovia"}, {"city": "Leszno", "latitude": 52.25799, "longitude": 20.59121, "state": "Mazovia"}, {"city": "Le\u015bnica", "latitude": 49.40092, "longitude": 20.06001, "state": "Lesser Poland"}, {"city": "Le\u015bna Podlaska", "latitude": 52.13317, "longitude": 23.02786, "state": "Lublin"}, {"city": "Lesko", "latitude": 49.4701, "longitude": 22.33042, "state": "Subcarpathia"}, {"city": "Lelkowo", "latitude": 54.32458, "longitude": 20.2248, "state": "Warmia-Masuria"}, {"city": "\u0141\u0119ki G\u00f3rne", "latitude": 49.97386, "longitude": 21.17426, "state": "Subcarpathia"}, {"city": "\u0141\u0119ki Dolne", "latitude": 49.97386, "longitude": 21.24739, "state": "Subcarpathia"}, {"city": "\u0141\u0119ki", "latitude": 49.80996, "longitude": 21.66023, "state": "Subcarpathia"}, {"city": "Legionowo", "latitude": 52.40149, "longitude": 20.92664, "state": "Mazovia"}, {"city": "\u0141\u0119czna", "latitude": 51.30121, "longitude": 22.88135, "state": "Lublin"}, {"city": "Lecka", "latitude": 49.8786, "longitude": 22.01368, "state": "Subcarpathia"}, {"city": "\u0141aziska", "latitude": 51.14226, "longitude": 21.87919, "state": "Lublin"}, {"city": "Latowicz", "latitude": 52.02636, "longitude": 21.80829, "state": "Mazovia"}, {"city": "Laszki", "latitude": 50.0202, "longitude": 22.89997, "state": "Subcarpathia"}, {"city": "\u0141aszcz\u00f3w", "latitude": 50.53332, "longitude": 23.72562, "state": "Lublin"}, {"city": "Laskowa", "latitude": 49.76147, "longitude": 20.45045, "state": "Lesser Poland"}, {"city": "\u0141askarzew", "latitude": 51.78993, "longitude": 21.59122, "state": "Mazovia"}, {"city": "\u0141apy", "latitude": 52.9911, "longitude": 22.88422, "state": "Podlasie"}, {"city": "\u0141apsze Ni\u017cne", "latitude": 49.39807, "longitude": 20.24343, "state": "Lesser Poland"}, {"city": "\u0141apczyca", "latitude": 49.95994, "longitude": 20.38445, "state": "Lesser Poland"}, {"city": "\u0141apan\u00f3w", "latitude": 49.86538, "longitude": 20.29149, "state": "Lesser Poland"}, {"city": "\u0141a\u0144cut", "latitude": 50.06871, "longitude": 22.22912, "state": "Subcarpathia"}, {"city": "\u0141ajski", "latitude": 52.42873, "longitude": 20.94946, "state": "Mazovia"}, {"city": "\u0141ag\u00f3w", "latitude": 50.77517, "longitude": 21.08431, "state": "\u015awi\u0119tokrzyskie"}, {"city": "\u0141\u0105czna", "latitude": 51.00231, "longitude": 20.79712, "state": "\u015awi\u0119tokrzyskie"}, {"city": "\u0141\u0105cko", "latitude": 49.55757, "longitude": 20.43586, "state": "Lesser Poland"}, {"city": "\u0141abunie", "latitude": 50.65517, "longitude": 23.3662, "state": "Lublin"}, {"city": "\u0141abowa", "latitude": 49.52766, "longitude": 20.85497, "state": "Lesser Poland"}, {"city": "Ku\u017anica", "latitude": 53.51094, "longitude": 23.64953, "state": "Podlasie"}, {"city": "Kury\u0142\u00f3wka", "latitude": 50.29976, "longitude": 22.46601, "state": "Subcarpathia"}, {"city": "Kur\u00f3w", "latitude": 51.38941, "longitude": 22.18637, "state": "Lublin"}, {"city": "Kun\u00f3w", "latitude": 50.96156, "longitude": 21.28058, "state": "\u015awi\u0119tokrzyskie"}, {"city": "Kuczbork-Osada", "latitude": 53.08619, "longitude": 20.04782, "state": "Mazovia"}, {"city": "Ksi\u0119\u017cpol", "latitude": 50.42323, "longitude": 22.73526, "state": "Lublin"}, {"city": "Ksi\u0119\u017comierz", "latitude": 50.90855, "longitude": 21.98965, "state": "Lublin"}, {"city": "Krzywda", "latitude": 51.79519, "longitude": 22.19994, "state": "Lublin"}, {"city": "Krzywcza", "latitude": 49.79894, "longitude": 22.54549, "state": "Subcarpathia"}, {"city": "Krzynow\u0142oga Ma\u0142a", "latitude": 53.15773, "longitude": 20.78579, "state": "Mazovia"}, {"city": "Krzesz\u00f3w", "latitude": 50.40381, "longitude": 22.34241, "state": "Subcarpathia"}, {"city": "Krzemienica", "latitude": 50.0621, "longitude": 22.18054, "state": "Subcarpathia"}, {"city": "Krzeczowice", "latitude": 49.9892, "longitude": 22.46378, "state": "Subcarpathia"}, {"city": "Krzecz\u00f3w", "latitude": 49.98876, "longitude": 20.48779, "state": "Lesser Poland"}, {"city": "Krynki", "latitude": 53.26444, "longitude": 23.77304, "state": "Podlasie"}, {"city": "Krynice", "latitude": 50.5876, "longitude": 23.38157, "state": "Lublin"}, {"city": "Krynica-Zdr\u00f3j", "latitude": 49.42225, "longitude": 20.95942, "state": "Lesser Poland"}, {"city": "Kruklanki", "latitude": 54.08855, "longitude": 21.92227, "state": "Warmia-Masuria"}, {"city": "Krosno", "latitude": 49.68866, "longitude": 21.77058, "state": "Subcarpathia"}, {"city": "Kro\u015bnica", "latitude": 49.44787, "longitude": 20.33956, "state": "Lesser Poland"}, {"city": "Kro\u015bcienko Wy\u017cne", "latitude": 49.67946, "longitude": 21.82898, "state": "Subcarpathia"}, {"city": "Krempna", "latitude": 49.51128, "longitude": 21.50042, "state": "Subcarpathia"}, {"city": "Krasocin", "latitude": 50.88874, "longitude": 20.11863, "state": "\u015awi\u0119tokrzyskie"}, {"city": "Krasnystaw", "latitude": 50.98464, "longitude": 23.1742, "state": "Lublin"}, {"city": "Krasnosielc", "latitude": 53.03378, "longitude": 21.15735, "state": "Mazovia"}, {"city": "Krasnopol", "latitude": 54.11613, "longitude": 23.20476, "state": "Podlasie"}, {"city": "Krasnobr\u00f3d", "latitude": 50.54551, "longitude": 23.21308, "state": "Lublin"}, {"city": "Kra\u015bnik", "latitude": 50.9236, "longitude": 22.22706, "state": "Lublin"}, {"city": "Kra\u015bniczyn", "latitude": 50.93171, "longitude": 23.34929, "state": "Lublin"}, {"city": "Krasne", "latitude": 52.92401, "longitude": 20.96732, "state": "Mazovia"}, {"city": "Krasne", "latitude": 50.05626, "longitude": 22.08638, "state": "Subcarpathia"}, {"city": "Krasiczyn", "latitude": 49.77644, "longitude": 22.65252, "state": "Subcarpathia"}, {"city": "Kramarz\u00f3wka", "latitude": 49.86034, "longitude": 22.50137, "state": "Subcarpathia"}, {"city": "Kraczkowa", "latitude": 50.03796, "longitude": 22.16801, "state": "Subcarpathia"}, {"city": "Kozubszczyzna", "latitude": 51.22323, "longitude": 22.42747, "state": "Lublin"}, {"city": "Koz\u0142owo", "latitude": 53.30652, "longitude": 20.29098, "state": "Warmia-Masuria"}, {"city": "Koz\u0142\u00f3w", "latitude": 50.48394, "longitude": 20.02456, "state": "Lesser Poland"}, {"city": "Kozienice", "latitude": 51.58294, "longitude": 21.54779, "state": "Mazovia"}, {"city": "Kowiesy", "latitude": 51.88942, "longitude": 20.41929, "state": "\u0141\u00f3d\u017a Voivodeship"}, {"city": "Kowale Oleckie", "latitude": 54.16354, "longitude": 22.41666, "state": "Warmia-Masuria"}, {"city": "Kowala", "latitude": 51.32503, "longitude": 21.06972, "state": "Mazovia"}, {"city": "Kotu\u0144", "latitude": 52.17643, "longitude": 22.06819, "state": "Mazovia"}, {"city": "Koszyce", "latitude": 49.97226, "longitude": 20.94166, "state": "Lesser Poland"}, {"city": "Kostom\u0142oty Pierwsze", "latitude": 50.92322, "longitude": 20.5949, "state": "\u015awi\u0119tokrzyskie"}, {"city": "Kostom\u0142oty Drugie", "latitude": 50.92684, "longitude": 20.56529, "state": "\u015awi\u0119tokrzyskie"}, {"city": "Kos\u00f3w Lacki", "latitude": 52.59541, "longitude": 22.14707, "state": "Mazovia"}, {"city": "Kosina", "latitude": 50.07213, "longitude": 22.32903, "state": "Subcarpathia"}, {"city": "Korzenna", "latitude": 49.68635, "longitude": 20.84355, "state": "Lesser Poland"}, {"city": "Korytnica", "latitude": 52.41441, "longitude": 21.84949, "state": "Mazovia"}, {"city": "Kortowo", "latitude": 53.75731, "longitude": 20.4562, "state": "Warmia-Masuria"}, {"city": "Korsze", "latitude": 54.17002, "longitude": 21.13915, "state": "Warmia-Masuria"}, {"city": "Stara Kornica", "latitude": 52.18183, "longitude": 22.93752, "state": "Mazovia"}, {"city": "Korczyna", "latitude": 49.71555, "longitude": 21.80941, "state": "Subcarpathia"}, {"city": "Korczew", "latitude": 52.35327, "longitude": 22.61338, "state": "Mazovia"}, {"city": "Koprzywnica", "latitude": 50.5934, "longitude": 21.5838, "state": "\u015awi\u0119tokrzyskie"}, {"city": "Konstantyn\u00f3w", "latitude": 52.20746, "longitude": 23.0853, "state": "Lublin"}, {"city": "Konstancin-Jeziorna", "latitude": 52.0938, "longitude": 21.11761, "state": "Mazovia"}, {"city": "Ko\u0144skowola", "latitude": 51.40922, "longitude": 22.05175, "state": "Lublin"}, {"city": "Ko\u0144skie", "latitude": 51.19166, "longitude": 20.40607, "state": "\u015awi\u0119tokrzyskie"}, {"city": "Konieczkowa", "latitude": 49.84208, "longitude": 21.9282, "state": "Subcarpathia"}, {"city": "Ko\u0144czyce", "latitude": 50.42575, "longitude": 22.15376, "state": "Subcarpathia"}, {"city": "Komor\u00f3w", "latitude": 52.1456, "longitude": 20.81566, "state": "Mazovia"}, {"city": "Komar\u00f3wka Podlaska", "latitude": 51.80315, "longitude": 22.94392, "state": "Lublin"}, {"city": "Komar\u00f3w-Osada", "latitude": 50.62888, "longitude": 23.4774, "state": "Lublin"}, {"city": "Koma\u0144cza", "latitude": 49.33922, "longitude": 22.06166, "state": "Subcarpathia"}, {"city": "Kolno", "latitude": 53.41148, "longitude": 21.92905, "state": "Podlasie"}, {"city": "Kolbuszowa", "latitude": 50.2441, "longitude": 21.7761, "state": "Subcarpathia"}, {"city": "Ko\u0142biel", "latitude": 52.06431, "longitude": 21.48153, "state": "Mazovia"}, {"city": "Ko\u0142aczyce", "latitude": 49.80743, "longitude": 21.43407, "state": "Subcarpathia"}, {"city": "Kokot\u00f3w", "latitude": 50.01254, "longitude": 20.07829, "state": "Lesser Poland"}, {"city": "Kode\u0144", "latitude": 51.91171, "longitude": 23.60301, "state": "Lublin"}, {"city": "Kock", "latitude": 51.63997, "longitude": 22.44391, "state": "Lublin"}, {"city": "Koby\u0142ka", "latitude": 52.33953, "longitude": 21.19589, "state": "Mazovia"}, {"city": "Kobylanka", "latitude": 49.66891, "longitude": 21.22293, "state": "Lesser Poland"}, {"city": "Knyszyn", "latitude": 53.31406, "longitude": 22.91963, "state": "Podlasie"}, {"city": "Klw\u00f3w", "latitude": 51.53448, "longitude": 20.63644, "state": "Mazovia"}, {"city": "Kluszkowce", "latitude": 49.451, "longitude": 20.30179, "state": "Lesser Poland"}, {"city": "K\u0142oczew", "latitude": 51.72134, "longitude": 21.96493, "state": "Lublin"}, {"city": "Klimont\u00f3w", "latitude": 50.65588, "longitude": 21.45587, "state": "\u015awi\u0119tokrzyskie"}, {"city": "Klimont\u00f3w", "latitude": 50.22843, "longitude": 20.3199, "state": "Lesser Poland"}, {"city": "Kleszczele", "latitude": 52.57314, "longitude": 23.32539, "state": "Podlasie"}, {"city": "Klemb\u00f3w", "latitude": 52.4065, "longitude": 21.33176, "state": "Mazovia"}, {"city": "K\u0142aj", "latitude": 49.99246, "longitude": 20.29904, "state": "Lesser Poland"}, {"city": "Kije", "latitude": 50.60721, "longitude": 20.57121, "state": "\u015awi\u0119tokrzyskie"}, {"city": "Kie\u0142pin", "latitude": 52.35796, "longitude": 20.86214, "state": "Mazovia"}, {"city": "Kielce", "latitude": 50.87033, "longitude": 20.62752, "state": "\u015awi\u0119tokrzyskie"}, {"city": "Kielan\u00f3wka", "latitude": 50.02616, "longitude": 21.92905, "state": "Subcarpathia"}, {"city": "K\u0119trzyn", "latitude": 54.07676, "longitude": 21.37527, "state": "Warmia-Masuria"}, {"city": "K\u0119pie \u017balesza\u0144skie", "latitude": 50.63983, "longitude": 21.88133, "state": "Subcarpathia"}, {"city": "Kazimierz Dolny", "latitude": 51.31911, "longitude": 21.95502, "state": "Lublin"}, {"city": "Kazimierza Wielka", "latitude": 50.26564, "longitude": 20.49358, "state": "\u015awi\u0119tokrzyskie"}, {"city": "Kazan\u00f3w", "latitude": 51.27593, "longitude": 21.46737, "state": "Mazovia"}, {"city": "Kaw\u0119czyn Nowy", "latitude": 51.88597, "longitude": 20.24703, "state": "\u0141\u00f3d\u017a Voivodeship"}, {"city": "Kasina Wielka", "latitude": 49.72969, "longitude": 20.13554, "state": "Lesser Poland"}, {"city": "Karniewo", "latitude": 52.837, "longitude": 20.98886, "state": "Mazovia"}, {"city": "Karczmiska", "latitude": 51.22952, "longitude": 21.98158, "state": "Lublin"}, {"city": "Karczew", "latitude": 52.07655, "longitude": 21.24962, "state": "Mazovia"}, {"city": "Kani\u00f3w", "latitude": 50.98577, "longitude": 20.66391, "state": "\u015awi\u0119tokrzyskie"}, {"city": "Ka\u0144czuga", "latitude": 49.98346, "longitude": 22.41168, "state": "Subcarpathia"}, {"city": "Kampinos", "latitude": 52.26837, "longitude": 20.46307, "state": "Mazovia"}, {"city": "Kamionka Wielka", "latitude": 49.56848, "longitude": 20.82364, "state": "Lesser Poland"}, {"city": "Kamionka", "latitude": 51.47165, "longitude": 22.46275, "state": "Lublin"}, {"city": "Kamienica", "latitude": 49.57533, "longitude": 20.34505, "state": "Lesser Poland"}, {"city": "Kamie\u0144", "latitude": 50.34064, "longitude": 22.13539, "state": "Subcarpathia"}, {"city": "Ka\u0142uszyn", "latitude": 52.20669, "longitude": 21.80838, "state": "Mazovia"}, {"city": "Kadzid\u0142o", "latitude": 53.23435, "longitude": 21.46454, "state": "Mazovia"}, {"city": "Kabaty", "latitude": 52.13012, "longitude": 21.08148, "state": "Mazovia"}, {"city": "J\u00f3zef\u00f3w", "latitude": 52.19446, "longitude": 20.69592, "state": "Mazovia"}, {"city": "J\u00f3zef\u00f3w", "latitude": 52.13707, "longitude": 21.23589, "state": "Mazovia"}, {"city": "J\u00f3zef\u00f3w nad Wis\u0142\u0105", "latitude": 51.04183, "longitude": 21.83018, "state": "Lublin"}, {"city": "J\u00f3zef\u00f3w", "latitude": 50.48119, "longitude": 23.05404, "state": "Lublin"}, {"city": "J\u00f3zefos\u0142aw", "latitude": 52.1005, "longitude": 21.04629, "state": "Mazovia"}, {"city": "Jonkowo", "latitude": 53.82817, "longitude": 20.31054, "state": "Warmia-Masuria"}, {"city": "Joniec", "latitude": 52.60128, "longitude": 20.58177, "state": "Mazovia"}, {"city": "Jod\u0142\u00f3wka", "latitude": 49.99295, "longitude": 20.54821, "state": "Lesser Poland"}, {"city": "Jod\u0142\u00f3wka", "latitude": 49.8943, "longitude": 22.46653, "state": "Subcarpathia"}, {"city": "Jod\u0142owa", "latitude": 49.87229, "longitude": 21.27897, "state": "Subcarpathia"}, {"city": "Je\u017cowe", "latitude": 50.37486, "longitude": 22.12749, "state": "Subcarpathia"}, {"city": "Jeziorany", "latitude": 53.97578, "longitude": 20.74639, "state": "Warmia-Masuria"}, {"city": "Jedwabno", "latitude": 53.5299, "longitude": 20.72657, "state": "Warmia-Masuria"}, {"city": "Jedwabne", "latitude": 53.28554, "longitude": 22.30353, "state": "Podlasie"}, {"city": "J\u0119drzej\u00f3w", "latitude": 50.63945, "longitude": 20.30454, "state": "\u015awi\u0119tokrzyskie"}, {"city": "Jednoro\u017cec", "latitude": 53.14116, "longitude": 21.05161, "state": "Mazovia"}, {"city": "Jedlnia-Letnisko", "latitude": 51.43074, "longitude": 21.33536, "state": "Mazovia"}, {"city": "Jedli\u0144sk", "latitude": 51.514, "longitude": 21.11577, "state": "Mazovia"}, {"city": "Jedlicze", "latitude": 49.71749, "longitude": 21.64886, "state": "Subcarpathia"}, {"city": "Jawornik Polski", "latitude": 49.89082, "longitude": 22.28868, "state": "Subcarpathia"}, {"city": "Jawornik", "latitude": 49.8464, "longitude": 21.89404, "state": "Subcarpathia"}, {"city": "Jastrz\u0119bia", "latitude": 51.49742, "longitude": 21.23709, "state": "Mazovia"}, {"city": "Jastrz\u0119bia", "latitude": 49.79733, "longitude": 20.88089, "state": "Lesser Poland"}, {"city": "Jastrz\u0105b", "latitude": 51.24725, "longitude": 20.94758, "state": "Mazovia"}, {"city": "Jastk\u00f3w", "latitude": 51.30411, "longitude": 22.43546, "state": "Lublin"}, {"city": "Jas\u0142o", "latitude": 49.74506, "longitude": 21.47252, "state": "Subcarpathia"}, {"city": "Ja\u015bliska", "latitude": 49.44229, "longitude": 21.80795, "state": "Subcarpathia"}, {"city": "Jasion\u00f3w", "latitude": 49.65841, "longitude": 21.97678, "state": "Subcarpathia"}, {"city": "Jasieniec", "latitude": 51.82104, "longitude": 20.94099, "state": "Mazovia"}, {"city": "Jasienica Rosielna", "latitude": 49.75144, "longitude": 21.94176, "state": "Subcarpathia"}, {"city": "Jasienica", "latitude": 52.41415, "longitude": 21.4115, "state": "Mazovia"}, {"city": "Jasie\u0144", "latitude": 49.96988, "longitude": 20.5719, "state": "Lesser Poland"}, {"city": "Jaros\u0142aw", "latitude": 50.01623, "longitude": 22.67776, "state": "Subcarpathia"}, {"city": "Jarocin", "latitude": 50.56459, "longitude": 22.32121, "state": "Subcarpathia"}, {"city": "Jarcz\u00f3w", "latitude": 50.42438, "longitude": 23.58576, "state": "Lublin"}, {"city": "Jan\u00f3w Podlaski", "latitude": 52.19398, "longitude": 23.21218, "state": "Lublin"}, {"city": "Jan\u00f3w Lubelski", "latitude": 50.70695, "longitude": 22.41039, "state": "Lublin"}, {"city": "Janowiec", "latitude": 51.32359, "longitude": 21.8894, "state": "Lublin"}, {"city": "Janowice", "latitude": 49.89154, "longitude": 20.86081, "state": "Lesser Poland"}, {"city": "Jan\u00f3w", "latitude": 53.46747, "longitude": 23.23052, "state": "Podlasie"}, {"city": "Jakubowice Murowane", "latitude": 51.26992, "longitude": 22.63415, "state": "Lublin"}, {"city": "Jakub\u00f3w", "latitude": 52.21965, "longitude": 21.68032, "state": "Mazovia"}, {"city": "Jagie\u0142\u0142a", "latitude": 50.0946, "longitude": 22.57261, "state": "Subcarpathia"}, {"city": "Jadowniki Mokre", "latitude": 50.16546, "longitude": 20.72845, "state": "Lesser Poland"}, {"city": "Jadowniki", "latitude": 49.95884, "longitude": 20.64434, "state": "Lesser Poland"}, {"city": "Jad\u00f3w", "latitude": 52.47849, "longitude": 21.63199, "state": "Mazovia"}, {"city": "Jab\u0142onna Lacka", "latitude": 52.47664, "longitude": 22.44228, "state": "Mazovia"}, {"city": "Jab\u0142onna", "latitude": 52.37885, "longitude": 20.91745, "state": "Mazovia"}, {"city": "Jab\u0142onna", "latitude": 51.08875, "longitude": 22.59364, "state": "Lublin"}, {"city": "Jab\u0142onka", "latitude": 49.69417, "longitude": 22.11565, "state": "Subcarpathia"}, {"city": "Jab\u0142onica Polska", "latitude": 49.69784, "longitude": 21.89961, "state": "Subcarpathia"}, {"city": "Jab\u0142o\u0144", "latitude": 51.72501, "longitude": 23.08743, "state": "Lublin"}, {"city": "Izbica", "latitude": 50.88728, "longitude": 23.15248, "state": "Lublin"}, {"city": "Iwonicz-Zdr\u00f3j", "latitude": 49.56319, "longitude": 21.78992, "state": "Subcarpathia"}, {"city": "Iwkowa", "latitude": 49.81716, "longitude": 20.59018, "state": "Lesser Poland"}, {"city": "Iwierzyce", "latitude": 50.02958, "longitude": 21.75396, "state": "Subcarpathia"}, {"city": "Iwaniska", "latitude": 50.73146, "longitude": 21.2806, "state": "\u015awi\u0119tokrzyskie"}, {"city": "Inow\u0142\u00f3dz", "latitude": 51.52717, "longitude": 20.223, "state": "\u0141\u00f3d\u017a Voivodeship"}, {"city": "Imielno", "latitude": 50.58569, "longitude": 20.44813, "state": "\u015awi\u0119tokrzyskie"}, {"city": "I\u0142\u017ca", "latitude": 51.16313, "longitude": 21.23979, "state": "Mazovia"}, {"city": "I\u0142\u00f3w", "latitude": 52.33953, "longitude": 20.0273, "state": "Mazovia"}, {"city": "Hy\u017cne", "latitude": 49.91769, "longitude": 22.18131, "state": "Subcarpathia"}, {"city": "Hus\u00f3w", "latitude": 49.97971, "longitude": 22.28645, "state": "Subcarpathia"}, {"city": "Humniska", "latitude": 49.67507, "longitude": 22.05368, "state": "Subcarpathia"}, {"city": "Hrubiesz\u00f3w", "latitude": 50.80502, "longitude": 23.89251, "state": "Lublin"}, {"city": "Horyniec-Zdr\u00f3j", "latitude": 50.19152, "longitude": 23.36277, "state": "Subcarpathia"}, {"city": "Horod\u0142o", "latitude": 50.89459, "longitude": 24.03723, "state": "Lublin"}, {"city": "Horn\u00f3wek", "latitude": 52.28638, "longitude": 20.80793, "state": "Mazovia"}, {"city": "Harasiuki", "latitude": 50.47515, "longitude": 22.47288, "state": "Subcarpathia"}, {"city": "Ha\u0144sk", "latitude": 51.41286, "longitude": 23.39942, "state": "Lublin"}, {"city": "Handzl\u00f3wka", "latitude": 49.99527, "longitude": 22.22311, "state": "Subcarpathia"}, {"city": "Halin\u00f3w", "latitude": 52.2288, "longitude": 21.3551, "state": "Mazovia"}, {"city": "Hajn\u00f3wka", "latitude": 52.74328, "longitude": 23.58122, "state": "Podlasie"}, {"city": "Hacz\u00f3w", "latitude": 49.66152, "longitude": 21.8979, "state": "Subcarpathia"}, {"city": "Gzy", "latitude": 52.74045, "longitude": 20.94372, "state": "Mazovia"}, {"city": "Gwo\u017anica G\u00f3rna", "latitude": 49.82791, "longitude": 21.99772, "state": "Subcarpathia"}, {"city": "Guz\u00f3w", "latitude": 52.11626, "longitude": 20.33672, "state": "Mazovia"}, {"city": "Grzybowa G\u00f3ra", "latitude": 51.13326, "longitude": 20.96174, "state": "\u015awi\u0119tokrzyskie"}, {"city": "Grz\u0119ska", "latitude": 50.08303, "longitude": 22.45399, "state": "Subcarpathia"}, {"city": "Gryb\u00f3w", "latitude": 49.62439, "longitude": 20.94797, "state": "Lesser Poland"}, {"city": "Grusz\u00f3w Wielki", "latitude": 50.19163, "longitude": 21.03144, "state": "Lesser Poland"}, {"city": "Grudusk", "latitude": 53.05845, "longitude": 20.62494, "state": "Mazovia"}, {"city": "Grudki", "latitude": 53.09488, "longitude": 23.66848, "state": "Podlasie"}, {"city": "Gromnik", "latitude": 49.83843, "longitude": 20.96123, "state": "Lesser Poland"}, {"city": "Gr\u00f3jec", "latitude": 51.86252, "longitude": 20.86757, "state": "Mazovia"}, {"city": "Grodzisko G\u00f3rne", "latitude": 50.1869, "longitude": 22.43786, "state": "Subcarpathia"}, {"city": "Grodzisko Dolne", "latitude": 50.16238, "longitude": 22.46292, "state": "Subcarpathia"}, {"city": "Grodzisk Mazowiecki", "latitude": 52.10387, "longitude": 20.6337, "state": "Mazovia"}, {"city": "Gr\u0119b\u00f3w", "latitude": 50.56536, "longitude": 21.87404, "state": "Subcarpathia"}, {"city": "Gr\u0119bosz\u00f3w", "latitude": 50.24501, "longitude": 20.77669, "state": "Lesser Poland"}, {"city": "Gr\u0119bk\u00f3w", "latitude": 52.26931, "longitude": 21.90974, "state": "Mazovia"}, {"city": "Granica", "latitude": 52.13359, "longitude": 20.80313, "state": "Mazovia"}, {"city": "Grajewo", "latitude": 53.64728, "longitude": 22.45537, "state": "Podlasie"}, {"city": "Grabownica Starze\u0144ska", "latitude": 49.65896, "longitude": 22.07754, "state": "Subcarpathia"}, {"city": "Grabowiec", "latitude": 50.8209, "longitude": 23.55057, "state": "Lublin"}, {"city": "G\u00f3zd", "latitude": 51.37832, "longitude": 21.37914, "state": "Mazovia"}, {"city": "Goworowo", "latitude": 52.90083, "longitude": 21.55578, "state": "Mazovia"}, {"city": "Gowarcz\u00f3w", "latitude": 51.27845, "longitude": 20.43835, "state": "\u015awi\u0119tokrzyskie"}, {"city": "Goszczyn", "latitude": 51.73187, "longitude": 20.85154, "state": "Mazovia"}, {"city": "Go\u015bcierad\u00f3w", "latitude": 50.86859, "longitude": 22.00536, "state": "Lublin"}, {"city": "Gorzyce", "latitude": 50.6672, "longitude": 21.84013, "state": "Subcarpathia"}, {"city": "Gorzyce", "latitude": 50.12841, "longitude": 22.57926, "state": "Subcarpathia"}, {"city": "G\u00f3rzno", "latitude": 51.84681, "longitude": 21.70933, "state": "Mazovia"}, {"city": "Gorzk\u00f3w", "latitude": 50.94778, "longitude": 23.01267, "state": "Lublin"}, {"city": "G\u00f3rowo I\u0142aweckie", "latitude": 54.28559, "longitude": 20.48886, "state": "Warmia-Masuria"}, {"city": "G\u00f3rno", "latitude": 50.84774, "longitude": 20.82501, "state": "\u015awi\u0119tokrzyskie"}, {"city": "G\u00f3rno", "latitude": 50.28243, "longitude": 22.145, "state": "Subcarpathia"}, {"city": "Gorliczyna", "latitude": 50.09217, "longitude": 22.48764, "state": "Subcarpathia"}, {"city": "Gorlice", "latitude": 49.65563, "longitude": 21.16035, "state": "Lesser Poland"}, {"city": "G\u00f3rki", "latitude": 49.64385, "longitude": 22.04304, "state": "Subcarpathia"}, {"city": "G\u00f3ra Kalwaria", "latitude": 51.97653, "longitude": 21.21537, "state": "Mazovia"}, {"city": "Goraj", "latitude": 50.72184, "longitude": 22.66651, "state": "Lublin"}, {"city": "Goniadz", "latitude": 53.48953, "longitude": 22.73578, "state": "Podlasie"}, {"city": "Go\u0142ymin-O\u015brodek", "latitude": 52.808, "longitude": 20.87325, "state": "Mazovia"}, {"city": "Go\u0142dap", "latitude": 54.30631, "longitude": 22.30362, "state": "Warmia-Masuria"}, {"city": "Golcowa", "latitude": 49.77162, "longitude": 22.02501, "state": "Subcarpathia"}, {"city": "Godzisz\u00f3w", "latitude": 50.74889, "longitude": 22.49794, "state": "Lublin"}, {"city": "Godzian\u00f3w", "latitude": 51.89694, "longitude": 20.03589, "state": "\u0141\u00f3d\u017a Voivodeship"}, {"city": "Gnojno", "latitude": 50.60263, "longitude": 20.84913, "state": "\u015awi\u0119tokrzyskie"}, {"city": "Gnojnik", "latitude": 49.89397, "longitude": 20.60863, "state": "Lesser Poland"}, {"city": "G\u0142uch\u00f3w", "latitude": 51.77947, "longitude": 20.07666, "state": "\u0141\u00f3d\u017a Voivodeship"}, {"city": "G\u0142uch\u00f3w", "latitude": 50.08171, "longitude": 22.27135, "state": "Subcarpathia"}, {"city": "G\u0142og\u00f3w Ma\u0142opolski", "latitude": 50.15122, "longitude": 21.96287, "state": "Subcarpathia"}, {"city": "Glinojeck", "latitude": 52.81983, "longitude": 20.29198, "state": "Mazovia"}, {"city": "Gi\u017cycko", "latitude": 54.03811, "longitude": 21.76441, "state": "Warmia-Masuria"}, {"city": "Gietrzwa\u0142d", "latitude": 53.74617, "longitude": 20.23742, "state": "Warmia-Masuria"}, {"city": "Gierzwa\u0142d", "latitude": 53.54128, "longitude": 20.08867, "state": "Warmia-Masuria"}, {"city": "Gier\u0142o\u017c", "latitude": 54.08134, "longitude": 21.49551, "state": "Warmia-Masuria"}, {"city": "Gielni\u00f3w", "latitude": 51.40076, "longitude": 20.48126, "state": "Mazovia"}, {"city": "Giedlarowa", "latitude": 50.22689, "longitude": 22.40593, "state": "Subcarpathia"}, {"city": "Gd\u00f3w", "latitude": 49.90818, "longitude": 20.19879, "state": "Lesser Poland"}, {"city": "G\u0105socin", "latitude": 52.73754, "longitude": 20.7118, "state": "Mazovia"}, {"city": "Garwolin", "latitude": 51.89747, "longitude": 21.61466, "state": "Mazovia"}, {"city": "Garb\u00f3w", "latitude": 51.35517, "longitude": 22.32937, "state": "Lublin"}, {"city": "Garbatka-Letnisko", "latitude": 51.4832, "longitude": 21.61079, "state": "Mazovia"}, {"city": "Ga\u0107", "latitude": 50.02693, "longitude": 22.35898, "state": "Subcarpathia"}, {"city": "Frysztak", "latitude": 49.84164, "longitude": 21.60942, "state": "Subcarpathia"}, {"city": "Frydman", "latitude": 49.44927, "longitude": 20.22961, "state": "Lesser Poland"}, {"city": "Fredropol", "latitude": 49.69578, "longitude": 22.74625, "state": "Subcarpathia"}, {"city": "Frampol", "latitude": 50.67159, "longitude": 22.67061, "state": "Lublin"}, {"city": "Firlej", "latitude": 51.55882, "longitude": 22.50841, "state": "Lublin"}, {"city": "Filip\u00f3w", "latitude": 54.18037, "longitude": 22.62076, "state": "Podlasie"}, {"city": "Fa\u0142k\u00f3w", "latitude": 51.13606, "longitude": 20.1061, "state": "\u015awi\u0119tokrzyskie"}, {"city": "Fajs\u0142awice", "latitude": 51.09592, "longitude": 22.96323, "state": "Lublin"}, {"city": "E\u0142k", "latitude": 53.82824, "longitude": 22.36469, "state": "Warmia-Masuria"}, {"city": "Dzwola", "latitude": 50.69657, "longitude": 22.56729, "state": "Lublin"}, {"city": "D\u017awierzuty", "latitude": 53.70494, "longitude": 20.96037, "state": "Warmia-Masuria"}, {"city": "Dzik\u00f3w Stary", "latitude": 50.24699, "longitude": 22.92984, "state": "Subcarpathia"}, {"city": "Dzikowiec", "latitude": 50.27288, "longitude": 21.84365, "state": "Subcarpathia"}, {"city": "Dziewin", "latitude": 50.07554, "longitude": 20.45491, "state": "Lesser Poland"}, {"city": "Dzierzkowice", "latitude": 50.96019, "longitude": 22.06639, "state": "Lublin"}, {"city": "Dzierzgowo", "latitude": 53.15279, "longitude": 20.66322, "state": "Mazovia"}, {"city": "Dzierz\u0105\u017cnia", "latitude": 52.62811, "longitude": 20.23364, "state": "Mazovia"}, {"city": "Dziekan\u00f3w Le\u015bny", "latitude": 52.35243, "longitude": 20.85124, "state": "Mazovia"}, {"city": "Dzia\u0142oszyce", "latitude": 50.36534, "longitude": 20.35226, "state": "\u015awi\u0119tokrzyskie"}, {"city": "Dzia\u0142dowo", "latitude": 53.23958, "longitude": 20.17004, "state": "Warmia-Masuria"}, {"city": "Dziadkowice", "latitude": 52.5638, "longitude": 22.91689, "state": "Podlasie"}, {"city": "Dywity", "latitude": 53.83759, "longitude": 20.47817, "state": "Warmia-Masuria"}, {"city": "Dyn\u00f3w", "latitude": 49.81506, "longitude": 22.23388, "state": "Subcarpathia"}, {"city": "Dydnia", "latitude": 49.6864, "longitude": 22.17196, "state": "Subcarpathia"}, {"city": "Dwikozy", "latitude": 50.73613, "longitude": 21.78864, "state": "\u015awi\u0119tokrzyskie"}, {"city": "Dukla", "latitude": 49.55554, "longitude": 21.68317, "state": "Subcarpathia"}, {"city": "Duczki", "latitude": 52.36271, "longitude": 21.29047, "state": "Mazovia"}, {"city": "Dubienka", "latitude": 51.04862, "longitude": 23.89252, "state": "Lublin"}, {"city": "Dubiecko", "latitude": 49.82608, "longitude": 22.39117, "state": "Subcarpathia"}, {"city": "Drzewica", "latitude": 51.45085, "longitude": 20.47701, "state": "\u0141\u00f3d\u017a Voivodeship"}, {"city": "Drohiczyn", "latitude": 52.40011, "longitude": 22.65853, "state": "Podlasie"}, {"city": "Drel\u00f3w", "latitude": 51.91219, "longitude": 22.87165, "state": "Lublin"}, {"city": "Dorohusk", "latitude": 51.15475, "longitude": 23.80325, "state": "Lublin"}, {"city": "Domaszowice", "latitude": 50.87488, "longitude": 20.68288, "state": "\u015awi\u0119tokrzyskie"}, {"city": "Domaradz", "latitude": 49.78675, "longitude": 21.94571, "state": "Subcarpathia"}, {"city": "Domanice", "latitude": 52.03739, "longitude": 22.17642, "state": "Mazovia"}, {"city": "Do\u0142hobycz\u00f3w", "latitude": 50.58591, "longitude": 24.03594, "state": "Lublin"}, {"city": "Dobrzyniewo Du\u017ce", "latitude": 53.20022, "longitude": 23.01129, "state": "Podlasie"}, {"city": "Dobre Miasto", "latitude": 53.98668, "longitude": 20.39749, "state": "Warmia-Masuria"}, {"city": "Dobre", "latitude": 52.32097, "longitude": 21.67881, "state": "Mazovia"}, {"city": "Dobra", "latitude": 49.71793, "longitude": 20.25347, "state": "Lesser Poland"}, {"city": "Dobczyce", "latitude": 49.88109, "longitude": 20.08936, "state": "Lesser Poland"}, {"city": "D\u0142ugosiod\u0142o", "latitude": 52.75998, "longitude": 21.59183, "state": "Mazovia"}, {"city": "D\u0142ugie", "latitude": 49.57866, "longitude": 22.04338, "state": "Subcarpathia"}, {"city": "D\u0119bowiec", "latitude": 49.68374, "longitude": 21.46068, "state": "Subcarpathia"}, {"city": "D\u0119bowa K\u0142oda", "latitude": 51.59446, "longitude": 23.0064, "state": "Lublin"}, {"city": "D\u0119b\u00f3w", "latitude": 50.0449, "longitude": 22.43614, "state": "Subcarpathia"}, {"city": "D\u0119bno", "latitude": 50.19811, "longitude": 22.51837, "state": "Subcarpathia"}, {"city": "D\u0119bno", "latitude": 49.96701, "longitude": 20.71979, "state": "Lesser Poland"}, {"city": "D\u0119blin", "latitude": 51.55912, "longitude": 21.84829, "state": "Lublin"}, {"city": "D\u0119bica", "latitude": 50.05146, "longitude": 21.41141, "state": "Subcarpathia"}, {"city": "D\u0119be Wielkie", "latitude": 52.19961, "longitude": 21.44334, "state": "Mazovia"}, {"city": "Daleszyce", "latitude": 50.80229, "longitude": 20.80791, "state": "\u015awi\u0119tokrzyskie"}, {"city": "D\u0105br\u00f3wno", "latitude": 53.43408, "longitude": 20.03529, "state": "Warmia-Masuria"}, {"city": "D\u0105br\u00f3wka", "latitude": 52.48388, "longitude": 21.29794, "state": "Mazovia"}, {"city": "D\u0105browa Tarnowska", "latitude": 50.17462, "longitude": 20.98633, "state": "Lesser Poland"}, {"city": "D\u0105browa Bia\u0142ostocka", "latitude": 53.65364, "longitude": 23.34792, "state": "Podlasie"}, {"city": "Czy\u017cew", "latitude": 52.79768, "longitude": 22.31237, "state": "Podlasie"}, {"city": "Czudec", "latitude": 49.94487, "longitude": 21.84134, "state": "Subcarpathia"}, {"city": "Czerwonka", "latitude": 53.91627, "longitude": 20.89685, "state": "Warmia-Masuria"}, {"city": "Czerwonka", "latitude": 52.89254, "longitude": 21.21494, "state": "Mazovia"}, {"city": "Czerwi\u0144sk Nad Wis\u0142\u0105", "latitude": 52.39828, "longitude": 20.3096, "state": "Mazovia"}, {"city": "Czerwin", "latitude": 52.94905, "longitude": 21.75842, "state": "Mazovia"}, {"city": "Czerniewice", "latitude": 51.65419, "longitude": 20.15553, "state": "\u0141\u00f3d\u017a Voivodeship"}, {"city": "Czernice Borowe", "latitude": 53.03197, "longitude": 20.71944, "state": "Mazovia"}, {"city": "Czermin", "latitude": 50.33911, "longitude": 21.33356, "state": "Subcarpathia"}, {"city": "Czeremcha", "latitude": 52.51667, "longitude": 23.35, "state": "Podlasie"}, {"city": "Czemierniki", "latitude": 51.67298, "longitude": 22.63887, "state": "Lublin"}, {"city": "Czch\u00f3w", "latitude": 49.83726, "longitude": 20.68056, "state": "Lesser Poland"}, {"city": "Czaszyn", "latitude": 49.44854, "longitude": 22.2165, "state": "Subcarpathia"}, {"city": "Czarnocin", "latitude": 50.3408, "longitude": 20.5162, "state": "\u015awi\u0119tokrzyskie"}, {"city": "Czarnochowice", "latitude": 50.00471, "longitude": 20.0679, "state": "Lesser Poland"}, {"city": "Czarnia", "latitude": 53.35614, "longitude": 21.1952, "state": "Mazovia"}, {"city": "Czarna G\u00f3ra", "latitude": 49.37662, "longitude": 20.13047, "state": "Lesser Poland"}, {"city": "Czarna Bia\u0142ostocka", "latitude": 53.30509, "longitude": 23.28146, "state": "Podlasie"}, {"city": "Czarna", "latitude": 50.10979, "longitude": 22.18165, "state": "Subcarpathia"}, {"city": "Czarna", "latitude": 50.06717, "longitude": 21.25614, "state": "Subcarpathia"}, {"city": "Czarna", "latitude": 49.33116, "longitude": 22.65896, "state": "Subcarpathia"}, {"city": "Cyc\u00f3w", "latitude": 51.29928, "longitude": 23.14124, "state": "Lublin"}, {"city": "Cmolas", "latitude": 50.29526, "longitude": 21.74417, "state": "Subcarpathia"}, {"city": "\u0106miel\u00f3w", "latitude": 50.89028, "longitude": 21.51426, "state": "\u015awi\u0119tokrzyskie"}, {"city": "Cisna", "latitude": 49.21328, "longitude": 22.32795, "state": "Subcarpathia"}, {"city": "Ci\u0119\u017ckowice", "latitude": 49.78575, "longitude": 20.97324, "state": "Lesser Poland"},