[{"city": "Verdun", "latitude": -20.23417, "longitude": 57.55476, "state": "Moka"}, {"city": "Vacoas", "latitude": -20.29806, "longitude": 57.47833, "state": "Plaines Wilhems"}, {"city": "Triolet", "latitude": -20.0576, "longitude": 57.55025, "state": "Pamplemousses"}, {"city": "The Vale", "latitude": -20.03018, "longitude": 57.60219, "state": "Rivi\u00e8re du Rempart"}, {"city": "Terre Rouge", "latitude": -20.1283, "longitude": 57.53116, "state": "Pamplemousses"}, {"city": "Tamarin", "latitude": -20.32556, "longitude": 57.37056, "state": "Black River"}, {"city": "Surinam", "latitude": -20.50972, "longitude": 57.50528, "state": "Savanne"}, {"city": "Souillac", "latitude": -20.51667, "longitude": 57.51667, "state": "Savanne"}, {"city": "Sebastopol", "latitude": -20.2907, "longitude": 57.68779, "state": "Flacq"}, {"city": "Saint Pierre", "latitude": -20.2215, "longitude": 57.53431, "state": "Moka"}, {"city": "Saint Julien", "latitude": -20.22639, "longitude": 57.63639, "state": "Flacq"}, {"city": "Saint Hubert", "latitude": -20.36417, "longitude": 57.63833, "state": "Grand Port"}, {"city": "Saint Aubin", "latitude": -20.496, "longitude": 57.55, "state": "Savanne"}, {"city": "Morcellement Saint Andr\u00e9", "latitude": -20.07199, "longitude": 57.56833, "state": "Pamplemousses"}, {"city": "Rose Belle", "latitude": -20.40028, "longitude": 57.59667, "state": "Grand Port"}, {"city": "Roche Terre", "latitude": -20.01861, "longitude": 57.64472, "state": "Rivi\u00e8re du Rempart"}, {"city": "Roches Noire", "latitude": -20.11111, "longitude": 57.71222, "state": "Rivi\u00e8re du Rempart"}, {"city": "Grande Rivi\u00e8re Noire", "latitude": -20.36028, "longitude": 57.36611, "state": "Black River"}, {"city": "Rivi\u00e8re du Rempart", "latitude": -20.10306, "longitude": 57.68472, "state": null}, {"city": "Rivi\u00e8re des Anguilles", "latitude": -20.493, "longitude": 57.563, "state": "Savanne"}, {"city": "Queen Victoria", "latitude": -20.22, "longitude": 57.7075, "state": "Flacq"}, {"city": "Quatre Soeurs", "latitude": -20.29917, "longitude": 57.77056, "state": "Flacq"}, {"city": "Quatre Bornes", "latitude": -20.26381, "longitude": 57.4791, "state": "Plaines Wilhems"}, {"city": "Quartier Militaire", "latitude": -20.2479, "longitude": 57.59737, "state": "Moka"}, {"city": "Providence", "latitude": -20.24472, "longitude": 57.61222, "state": "Moka"}, {"city": "Poudre d\u2019Or", "latitude": -20.06, "longitude": 57.67667, "state": "Rivi\u00e8re du Rempart"}, {"city": "Poste de Flacq", "latitude": -20.16306, "longitude": 57.73056, "state": "Flacq"}, {"city": "Port Louis", "latitude": -20.16194, "longitude": 57.49889, "state": null}, {"city": "Plaine Magnien", "latitude": -20.42967, "longitude": 57.66968, "state": "Grand Port"}, {"city": "Plaine des Papayes", "latitude": -20.065, "longitude": 57.5725, "state": "Pamplemousses"}, {"city": "Petit Raffray", "latitude": -20.02022, "longitude": 57.62296, "state": "Rivi\u00e8re du Rempart"}, {"city": "Petite Rivi\u00e8re", "latitude": -20.19551, "longitude": 57.44592, "state": "Black River"}, {"city": "Petite Case Noyale", "latitude": -20.404, "longitude": 57.371, "state": "Black River"}, {"city": "Pamplemousses", "latitude": -20.10389, "longitude": 57.57028, "state": null}, {"city": "Pailles", "latitude": -20.19271, "longitude": 57.48826, "state": "Moka"}, {"city": "Olivia", "latitude": -20.28778, "longitude": 57.73097, "state": "Flacq"}, {"city": "Nouvelle France", "latitude": -20.37056, "longitude": 57.56111, "state": "Grand Port"}, {"city": "Notre Dame", "latitude": -20.14298, "longitude": 57.55969, "state": "Pamplemousses"}, {"city": "New Grove", "latitude": -20.40861, "longitude": 57.61361, "state": "Grand Port"}, {"city": "Piton", "latitude": -20.09028, "longitude": 57.63028, "state": "Rivi\u00e8re du Rempart"}, {"city": "Montagne Blanche", "latitude": -20.28538, "longitude": 57.65865, "state": null}, {"city": "Moka", "latitude": -20.21904, "longitude": 57.51083, "state": null}, {"city": "Midlands", "latitude": -20.338, "longitude": 57.567, "state": "Plaines Wilhems"}, {"city": "Melrose", "latitude": -20.26972, "longitude": 57.63194, "state": "Moka"}, {"city": "Mah\u00e9bourg", "latitude": -20.40806, "longitude": 57.7, "state": "Grand Port"}, {"city": "Long Mountain", "latitude": -20.14306, "longitude": 57.56222, "state": "Pamplemousses"}, {"city": "L\u2019Escalier", "latitude": -20.47, "longitude": 57.61222, "state": "Grand Port"}, {"city": "Lalmatie", "latitude": -20.18972, "longitude": 57.66111, "state": "Flacq"}, {"city": "Dagoti\u00e8re", "latitude": -20.24476, "longitude": 57.56188, "state": "Moka"}, {"city": "Grand Sable", "latitude": -20.31417, "longitude": 57.76444, "state": "Grand Port"}, {"city": "Grande Rivi\u00e8re Sud Est", "latitude": -20.28611, "longitude": 57.77583, "state": "Flacq"}, {"city": "Grand Gaube", "latitude": -20.00639, "longitude": 57.66083, "state": "Rivi\u00e8re du Rempart"}, {"city": "Grand Baie", "latitude": -20.01816, "longitude": 57.58015, "state": "Rivi\u00e8re du Rempart"}, {"city": "Grand Bois", "latitude": -20.41889, "longitude": 57.54417, "state": "Savanne"}, {"city": "Goodlands", "latitude": -20.03841, "longitude": 57.65055, "state": "Rivi\u00e8re du Rempart"}, {"city": "Fond du Sac", "latitude": -20.04732, "longitude": 57.584, "state": "Pamplemousses"}, {"city": "Flic en Flac", "latitude": -20.278, "longitude": 57.372, "state": "Black River"}, {"city": "Esp\u00e9rance Tr\u00e9buchet", "latitude": -20.06972, "longitude": 57.64194, "state": "Rivi\u00e8re du Rempart"}, {"city": "Curepipe", "latitude": -20.31628, "longitude": 57.52594, "state": "Plaines Wilhems"}, {"city": "Cr\u00e8ve Coeur", "latitude": -20.19346, "longitude": 57.56328, "state": "Pamplemousses"}, {"city": "Cl\u00e9mencia", "latitude": -20.26389, "longitude": 57.70611, "state": "Flacq"}, {"city": "Chemin Grenier", "latitude": -20.48722, "longitude": 57.46556, "state": "Savanne"}, {"city": "Chamouny", "latitude": -20.48222, "longitude": 57.46611, "state": "Savanne"}, {"city": "Centre de Flacq", "latitude": -20.18972, "longitude": 57.71444, "state": "Flacq"}, {"city": "Cascavelle", "latitude": -20.28694, "longitude": 57.40722, "state": "Black River"}, {"city": "Cap Malheureux", "latitude": -19.98417, "longitude": 57.61417, "state": "Rivi\u00e8re du Rempart"}, {"city": "Camp Thorel", "latitude": -20.21472, "longitude": 57.61611, "state": "Moka"}, {"city": "Camp Diable", "latitude": -20.46278, "longitude": 57.57889, "state": "Savanne"}, {"city": "Camp de Masque", "latitude": -20.23694, "longitude": 57.66333, "state": "Flacq"}, {"city": "Bris\u00e9e Verdi\u00e8re", "latitude": -20.16389, "longitude": 57.64667, "state": "Flacq"}, {"city": "Bon Accueil", "latitude": -20.17083, "longitude": 57.65639, "state": "Flacq"}, {"city": "Bois des Amourettes", "latitude": -20.36306, "longitude": 57.73111, "state": "Grand Port"}, {"city": "Bel Air Rivi\u00e8re S\u00e8che", "latitude": -20.25777, "longitude": 57.74976, "state": "Flacq"}, {"city": "Beau Vallon", "latitude": -20.41889, "longitude": 57.69528, "state": "Grand Port"}, {"city": "Beau Bassin-Rose Hill", "latitude": -20.23325, "longitude": 57.46609, "state": "Plaines Wilhems"}, {"city": "Bambous", "latitude": -20.25667, "longitude": 57.40611, "state": "Black River"}, {"city": "Albion", "latitude": -20.20814, "longitude": 57.40766, "state": "Black River"}, {"city": "Laventure", "latitude": -20.14583, "longitude": 57.67667, "state": "Flacq"}, {"city": "Cluny", "latitude": -20.36694, "longitude": 57.60389, "state": "Grand Port"}, {"city": "Cottage", "latitude": -20.05972, "longitude": 57.62917, "state": "Rivi\u00e8re du Rempart"}, {"city": "Pointe aux Piments", "latitude": -20.06494, "longitude": 57.52347, "state": "Pamplemousses"}, {"city": "Baie du Tombeau", "latitude": -20.11944, "longitude": 57.49139, "state": "Pamplemousses"}, {"city": "Congomah", "latitude": -20.14889, "longitude": 57.59083, "state": "Pamplemousses"}, {"city": "Amaury", "latitude": -20.13083, "longitude": 57.65917, "state": "Rivi\u00e8re du Rempart"}, {"city": "Plaines des Roches", "latitude": -20.11167, "longitude": 57.69083, "state": "Rivi\u00e8re du Rempart"}, {"city": "Mare La Chaux", "latitude": -20.19806, "longitude": 57.74944, "state": "Flacq"}, {"city": "Quatre Cocos", "latitude": -20.20151, "longitude": 57.77448, "state": "Flacq"}, {"city": "Camp Ithier", "latitude": -20.21583, "longitude": 57.74556, "state": "Flacq"}, {"city": "Ecroignard", "latitude": -20.22611, "longitude": 57.73611, "state": "Flacq"}, {"city": "Bambous Virieux", "latitude": -20.34278, "longitude": 57.7575, "state": "Grand Port"}, {"city": "Ebene", "latitude": -20.24494, "longitude": 57.49163, "state": "Plaines Wilhems"}, {"city": "Gros Cailloux", "latitude": -20.20722, "longitude": 57.43, "state": "Black River"}, {"city": "Mapou", "latitude": -20.07583, "longitude": 57.60139, "state": "Rivi\u00e8re du Rempart"}, {"city": "Dubreuil", "latitude": -20.30132, "longitude": 57.59861, "state": "Moka"}, {"city": "Le Hochet", "latitude": -20.13859, "longitude": 57.53013, "state": "Pamplemousses"}, {"city": "Calebasses", "latitude": -20.11167, "longitude": 57.55389, "state": "Pamplemousses"}, {"city": "Arsenal", "latitude": -20.10556, "longitude": 57.53528, "state": "Pamplemousses"}, {"city": "Port Mathurin", "latitude": -19.68333, "longitude": 63.41667, "state": "Rodrigues"}, {"city": "Baie aux Hu\u00eetres", "latitude": -19.69444, "longitude": 63.40833, "state": "Rodrigues"}, {"city": "Cargados Carajos", "latitude": -16.60329, "longitude": 59.65851, "state": null}, {"city": "Vingt Cinq", "latitude": -10.38803, "longitude": 56.61795, "state": "Agalega Islands"}, {"city": "Richelieu", "latitude": -20.19324, "longitude": 57.45952, "state": "Black River"}]