[{"city": "\u017dehra", "latitude": 48.9796, "longitude": 20.7917, "state": "Ko\u0161ice Region"}, {"city": "\u017ddiar", "latitude": 49.271, "longitude": 20.26239, "state": "Pre\u0161ov Region"}, {"city": "Vysok\u00e9 Tatry", "latitude": 49.13637, "longitude": 20.24386, "state": "Pre\u0161ov Region"}, {"city": "Vy\u0161n\u00e9 Ru\u017ebachy", "latitude": 49.30387, "longitude": 20.56558, "state": "Pre\u0161ov Region"}, {"city": "Vrbov", "latitude": 49.08764, "longitude": 20.4253, "state": "Pre\u0161ov Region"}, {"city": "Vranov nad Top\u013eou", "latitude": 48.88836, "longitude": 21.68479, "state": "Pre\u0161ov Region"}, {"city": "Vinn\u00e9", "latitude": 48.80965, "longitude": 21.96757, "state": "Ko\u0161ice Region"}, {"city": "Ve\u013ek\u00e9 Kapu\u0161any", "latitude": 48.55197, "longitude": 22.08036, "state": "Ko\u0161ice Region"}, {"city": "Tur\u0148a nad Bodvou", "latitude": 48.59999, "longitude": 20.88093, "state": "Ko\u0161ice Region"}, {"city": "Trebi\u0161ov", "latitude": 48.62858, "longitude": 21.71954, "state": "Ko\u0161ice Region"}, {"city": "Torna\u013ea", "latitude": 48.41915, "longitude": 20.32566, "state": "Bansk\u00e1 Bystrica Region"}, {"city": "Svit", "latitude": 49.06014, "longitude": 20.20695, "state": "Pre\u0161ov Region"}, {"city": "Svidn\u00edk", "latitude": 49.30819, "longitude": 21.5703, "state": "Pre\u0161ov Region"}, {"city": "Stropkov", "latitude": 49.20211, "longitude": 21.65216, "state": "Pre\u0161ov Region"}, {"city": "\u0160trba", "latitude": 49.05913, "longitude": 20.07975, "state": "Pre\u0161ov Region"}, {"city": "Str\u00e1\u017eske", "latitude": 48.8735, "longitude": 21.83668, "state": "Ko\u0161ice Region"}, {"city": "Star\u00e1 \u013dubov\u0148a", "latitude": 49.29859, "longitude": 20.6862, "state": "Pre\u0161ov Region"}, {"city": "Spi\u0161sk\u00e9 Podhradie", "latitude": 49.00088, "longitude": 20.75307, "state": "Pre\u0161ov Region"}, {"city": "Spi\u0161sk\u00e1 Nov\u00e1 Ves", "latitude": 48.94464, "longitude": 20.56153, "state": "Ko\u0161ice Region"}, {"city": "Spi\u0161sk\u00e1 Bel\u00e1", "latitude": 49.18725, "longitude": 20.45948, "state": "Pre\u0161ov Region"}, {"city": "Sobrance", "latitude": 48.74455, "longitude": 22.18136, "state": "Ko\u0161ice Region"}, {"city": "Snina", "latitude": 48.98857, "longitude": 22.15099, "state": "Pre\u0161ov Region"}, {"city": "Se\u010dovce", "latitude": 48.70074, "longitude": 21.66104, "state": "Ko\u0161ice Region"}, {"city": "Sabinov", "latitude": 49.10309, "longitude": 21.0988, "state": "Pre\u0161ov Region"}, {"city": "Ro\u017e\u0148ava", "latitude": 48.66009, "longitude": 20.53758, "state": "Ko\u0161ice Region"}, {"city": "Rimavsk\u00e1 Sobota", "latitude": 48.38284, "longitude": 20.02239, "state": "Bansk\u00e1 Bystrica Region"}, {"city": "Rev\u00faca", "latitude": 48.68346, "longitude": 20.11734, "state": "Bansk\u00e1 Bystrica Region"}, {"city": "Pre\u0161ov", "latitude": 48.99839, "longitude": 21.23393, "state": "Pre\u0161ov Region"}, {"city": "Poprad", "latitude": 49.06144, "longitude": 20.29798, "state": "Pre\u0161ov Region"}, {"city": "Podol\u00ednec", "latitude": 49.25869, "longitude": 20.536, "state": "Pre\u0161ov Region"}, {"city": "Nov\u00e1 Lesn\u00e1", "latitude": 49.12253, "longitude": 20.26737, "state": "Pre\u0161ov Region"}, {"city": "Moldava nad Bodvou", "latitude": 48.61428, "longitude": 20.99957, "state": "Ko\u0161ice Region"}, {"city": "Michalovce", "latitude": 48.75434, "longitude": 21.9195, "state": "Ko\u0161ice Region"}, {"city": "Medzilaborce", "latitude": 49.27195, "longitude": 21.90073, "state": "Pre\u0161ov Region"}, {"city": "Medzev", "latitude": 48.70041, "longitude": 20.89367, "state": "Ko\u0161ice Region"}, {"city": "\u013dubica", "latitude": 49.11667, "longitude": 20.45, "state": "Pre\u0161ov Region"}, {"city": "Lipany", "latitude": 49.15376, "longitude": 20.96382, "state": "Pre\u0161ov Region"}, {"city": "Levo\u010da", "latitude": 49.02173, "longitude": 20.59212, "state": "Pre\u0161ov Region"}, {"city": "Krompachy", "latitude": 48.91447, "longitude": 20.87514, "state": "Ko\u0161ice Region"}, {"city": "Ko\u0161ice", "latitude": 48.71395, "longitude": 21.25808, "state": "Ko\u0161ice Region"}, {"city": "Kloko\u010dov", "latitude": 48.81358, "longitude": 22.02985, "state": "Ko\u0161ice Region"}, {"city": "Ke\u017emarok", "latitude": 49.13571, "longitude": 20.43352, "state": "Pre\u0161ov Region"}, {"city": "Kave\u010dany", "latitude": 48.77592, "longitude": 21.20587, "state": "Ko\u0161ice Region"}, {"city": "Jel\u0161ava", "latitude": 48.62908, "longitude": 20.24141, "state": "Bansk\u00e1 Bystrica Region"}, {"city": "Humenn\u00e9", "latitude": 48.93707, "longitude": 21.91625, "state": "Pre\u0161ov Region"}, {"city": "Giraltovce", "latitude": 49.11398, "longitude": 21.51731, "state": "Pre\u0161ov Region"}, {"city": "Gelnica", "latitude": 48.85584, "longitude": 20.93713, "state": "Ko\u0161ice Region"}, {"city": "Dob\u0161in\u00e1", "latitude": 48.82073, "longitude": 20.36988, "state": "Ko\u0161ice Region"}, {"city": "\u010cierna nad Tisou", "latitude": 48.41704, "longitude": 22.08865, "state": "Ko\u0161ice Region"}, {"city": "Chlmec", "latitude": 48.88628, "longitude": 21.9393, "state": "Pre\u0161ov Region"}, {"city": "Bardejov", "latitude": 49.29175, "longitude": 21.27271, "state": "Pre\u0161ov Region"}, {"city": "Zvolen", "latitude": 48.57442, "longitude": 19.15324, "state": "Bansk\u00e1 Bystrica Region"}, {"city": "Zlat\u00e9 Moravce", "latitude": 48.38553, "longitude": 18.40063, "state": "Nitra Region"}, {"city": "\u017dilina", "latitude": 49.22315, "longitude": 18.73941, "state": "\u017dilina Region"}, {"city": "\u017diar nad Hronom", "latitude": 48.59184, "longitude": 18.84958, "state": "Bansk\u00e1 Bystrica Region"}, {"city": "\u017deliezovce", "latitude": 48.05075, "longitude": 18.65421, "state": "Nitra Region"}, {"city": "Zborov nad Bystricou", "latitude": 49.37967, "longitude": 18.88661, "state": "\u017dilina Region"}, {"city": "\u017darnovica", "latitude": 48.48123, "longitude": 18.71565, "state": "Bansk\u00e1 Bystrica Region"}, {"city": "Z\u00e1kop\u010die", "latitude": 49.40728, "longitude": 18.73178, "state": "\u017dilina Region"}, {"city": "Vysok\u00e1 nad Kysucou", "latitude": 49.37852, "longitude": 18.54408, "state": "\u017dilina Region"}, {"city": "Vr\u00fatky", "latitude": 49.11328, "longitude": 18.91714, "state": "\u017dilina Region"}, {"city": "Vrbov\u00e9", "latitude": 48.61973, "longitude": 17.7226, "state": "Trnava Region"}, {"city": "Vr\u00e1ble", "latitude": 48.24371, "longitude": 18.30846, "state": "Nitra Region"}, {"city": "Ve\u013ek\u00fd Meder", "latitude": 47.85798, "longitude": 17.76884, "state": "Trnava Region"}, {"city": "Ve\u013ek\u00fd Krt\u00ed\u0161", "latitude": 48.21059, "longitude": 19.35043, "state": "Bansk\u00e1 Bystrica Region"}, {"city": "Lehota pod Vt\u00e1\u010dnikom", "latitude": 48.69138, "longitude": 18.59944, "state": "Tren\u010d\u00edn Region"}, {"city": "Tvrdo\u0161\u00edn", "latitude": 49.337, "longitude": 19.556, "state": "\u017dilina Region"}, {"city": "Tu\u017eina", "latitude": 48.89491, "longitude": 18.61566, "state": "Tren\u010d\u00edn Region"}, {"city": "Turzovka", "latitude": 49.40429, "longitude": 18.62258, "state": "\u017dilina Region"}, {"city": "Tur\u010dianske Teplice", "latitude": 48.86225, "longitude": 18.86048, "state": "\u017dilina Region"}, {"city": "Trsten\u00e1", "latitude": 49.36101, "longitude": 19.61249, "state": "\u017dilina Region"}, {"city": "Trnava", "latitude": 48.37741, "longitude": 17.58723, "state": "Trnava Region"}, {"city": "Tren\u010d\u00edn", "latitude": 48.89452, "longitude": 18.04436, "state": "Tren\u010d\u00edn Region"}, {"city": "Tren\u010dianske Teplice", "latitude": 48.91063, "longitude": 18.16691, "state": "Tren\u010d\u00edn Region"}, {"city": "Topo\u013e\u010dany", "latitude": 48.56361, "longitude": 18.16712, "state": "Nitra Region"}, {"city": "Tlma\u010de", "latitude": 48.28926, "longitude": 18.53152, "state": "Nitra Region"}, {"city": "Tisovec", "latitude": 48.67738, "longitude": 19.94364, "state": "Bansk\u00e1 Bystrica Region"}, {"city": "Terchov\u00e1", "latitude": 49.25895, "longitude": 19.02935, "state": "\u017dilina Region"}, {"city": "Svr\u010dinovec", "latitude": 49.48091, "longitude": 18.79623, "state": "\u017dilina Region"}, {"city": "Svod\u00edn", "latitude": 47.91054, "longitude": 18.49967, "state": "Nitra Region"}, {"city": "Sv\u00e4t\u00fd Jur", "latitude": 48.25216, "longitude": 17.21539, "state": "Bratislava Region"}, {"city": "Sv\u00e4t\u00fd Anton", "latitude": 48.41923, "longitude": 18.9401, "state": "Bansk\u00e1 Bystrica Region"}, {"city": "\u0160urany", "latitude": 48.08613, "longitude": 18.18447, "state": "Nitra Region"}, {"city": "\u0160t\u00farovo", "latitude": 47.79495, "longitude": 18.7175, "state": "Nitra Region"}, {"city": "Stupava", "latitude": 48.27474, "longitude": 17.03173, "state": "Bratislava Region"}, {"city": "Sta\u0161kov", "latitude": 49.421, "longitude": 18.68694, "state": "\u017dilina Region"}, {"city": "Star\u00e9 Mesto", "latitude": 48.15039, "longitude": 17.09002, "state": "Bratislava Region"}, {"city": "Star\u00e1 Tur\u00e1", "latitude": 48.77721, "longitude": 17.69433, "state": "Tren\u010d\u00edn Region"}, {"city": "Star\u00e1 Bystrica", "latitude": 49.3474, "longitude": 18.94906, "state": "\u017dilina Region"}, {"city": "Smolenice", "latitude": 48.50478, "longitude": 17.43067, "state": "Trnava Region"}, {"city": "Slia\u010d", "latitude": 48.61668, "longitude": 19.13715, "state": "Bansk\u00e1 Bystrica Region"}, {"city": "Sl\u00e1dkovi\u010dovo", "latitude": 48.20137, "longitude": 17.63852, "state": "Trnava Region"}, {"city": "Skalit\u00e9", "latitude": 49.49664, "longitude": 18.89706, "state": "\u017dilina Region"}, {"city": "Skalica", "latitude": 48.8449, "longitude": 17.22635, "state": "Trnava Region"}, {"city": "Senica", "latitude": 48.67922, "longitude": 17.36697, "state": "Trnava Region"}, {"city": "Senec", "latitude": 48.21951, "longitude": 17.40043, "state": "Bratislava Region"}, {"city": "\u0160amor\u00edn", "latitude": 48.03015, "longitude": 17.30972, "state": "Trnava Region"}, {"city": "\u0160a\u013ea", "latitude": 48.15127, "longitude": 17.88062, "state": "Nitra Region"}, {"city": "\u0160ahy", "latitude": 48.07408, "longitude": 18.94946, "state": "Nitra Region"}, {"city": "Ru\u017eomberok", "latitude": 49.0748, "longitude": 19.30751, "state": "\u017dilina Region"}, {"city": "Rusovce", "latitude": 48.05495, "longitude": 17.14457, "state": "Bratislava Region"}, {"city": "Rakov\u00e1", "latitude": 49.44481, "longitude": 18.73792, "state": "\u017dilina Region"}, {"city": "Rajec", "latitude": 49.08899, "longitude": 18.64007, "state": "\u017dilina Region"}, {"city": "P\u00fachov", "latitude": 49.12494, "longitude": 18.32597, "state": "Tren\u010d\u00edn Region"}, {"city": "Prievidza", "latitude": 48.77446, "longitude": 18.6275, "state": "Tren\u010d\u00edn Region"}, {"city": "Pribylina", "latitude": 49.0995, "longitude": 19.79427, "state": "\u017dilina Region"}, {"city": "Pravenec", "latitude": 48.85613, "longitude": 18.64901, "state": "Tren\u010d\u00edn Region"}, {"city": "Pova\u017esk\u00e1 Bystrica", "latitude": 49.12153, "longitude": 18.42169, "state": "Tren\u010d\u00edn Region"}, {"city": "Poruba", "latitude": 48.83218, "longitude": 18.5913, "state": "Tren\u010d\u00edn Region"}, {"city": "Polt\u00e1r", "latitude": 48.43094, "longitude": 19.79408, "state": "Bansk\u00e1 Bystrica Region"}, {"city": "Podvysok\u00e1", "latitude": 49.41269, "longitude": 18.66458, "state": "\u017dilina Region"}, {"city": "Pie\u0161\u0165any", "latitude": 48.59479, "longitude": 17.82591, "state": "Trnava Region"}, {"city": "Pezinok", "latitude": 48.28986, "longitude": 17.26664, "state": "Bratislava Region"}, {"city": "Partiz\u00e1nske", "latitude": 48.62861, "longitude": 18.38455, "state": "Tren\u010d\u00edn Region"}, {"city": "O\u0161\u010dadnica", "latitude": 49.43572, "longitude": 18.8819, "state": "\u017dilina Region"}, {"city": "Oravsk\u00fd Podz\u00e1mok", "latitude": 49.25939, "longitude": 19.3569, "state": "\u017dilina Region"}, {"city": "Ole\u0161n\u00e1", "latitude": 49.4236, "longitude": 18.67624, "state": "\u017dilina Region"}, {"city": "Nov\u00e9 Z\u00e1mky", "latitude": 47.98544, "longitude": 18.16195, "state": "Nitra Region"}, {"city": "Nov\u00e9 Mesto nad V\u00e1hom", "latitude": 48.75763, "longitude": 17.8309, "state": "Tren\u010d\u00edn Region"}, {"city": "Nov\u00e1ky", "latitude": 48.71106, "longitude": 18.53389, "state": "Tren\u010d\u00edn Region"}, {"city": "Nov\u00e1 Dubnica", "latitude": 48.93479, "longitude": 18.14632, "state": "Tren\u010d\u00edn Region"}, {"city": "Nov\u00e1 Bystrica", "latitude": 49.34496, "longitude": 19.01446, "state": "\u017dilina Region"}, {"city": "Nov\u00e1 Ba\u0148a", "latitude": 48.42305, "longitude": 18.64037, "state": "Bansk\u00e1 Bystrica Region"}, {"city": "Ni\u017en\u00e1", "latitude": 49.31046, "longitude": 19.52428, "state": "\u017dilina Region"}, {"city": "Nitrianske Pravno", "latitude": 48.86839, "longitude": 18.63364, "state": "Tren\u010d\u00edn Region"}, {"city": "Nitra", "latitude": 48.30763, "longitude": 18.08453, "state": "Nitra Region"}, {"city": "Nem\u0161ov\u00e1", "latitude": 48.96702, "longitude": 18.11892, "state": "Tren\u010d\u00edn Region"}, {"city": "Nedo\u017eery - Brezany", "latitude": 48.82429, "longitude": 18.64458, "state": "Tren\u010d\u00edn Region"}, {"city": "N\u00e1mestovo", "latitude": 49.4079, "longitude": 19.48032, "state": "\u017dilina Region"}, {"city": "Myjava", "latitude": 48.75876, "longitude": 17.56866, "state": "Tren\u010d\u00edn Region"}, {"city": "Modra", "latitude": 48.33397, "longitude": 17.30711, "state": "Bratislava Region"}, {"city": "Martin", "latitude": 49.06651, "longitude": 18.92399, "state": "\u017dilina Region"}, {"city": "Marianka", "latitude": 48.24903, "longitude": 17.064, "state": "Bratislava Region"}, {"city": "Malacky", "latitude": 48.43604, "longitude": 17.02188, "state": "Bratislava Region"}, {"city": "Makov", "latitude": 49.37053, "longitude": 18.48044, "state": "\u017dilina Region"}, {"city": "L\u00fa\u010dky", "latitude": 49.12944, "longitude": 19.40228, "state": "\u017dilina Region"}, {"city": "Lu\u010denec", "latitude": 48.33249, "longitude": 19.66708, "state": "Bansk\u00e1 Bystrica Region"}, {"city": "Liptovsk\u00fd Mikul\u00e1\u0161", "latitude": 49.08061, "longitude": 19.62218, "state": "\u017dilina Region"}, {"city": "Liptovsk\u00fd Hr\u00e1dok", "latitude": 49.03962, "longitude": 19.72335, "state": "\u017dilina Region"}, {"city": "Levice", "latitude": 48.21563, "longitude": 18.60705, "state": "Nitra Region"}, {"city": "Leopoldov", "latitude": 48.44575, "longitude": 17.76458, "state": "Trnava Region"}, {"city": "Lazany", "latitude": 48.82076, "longitude": 18.61946, "state": "Tren\u010d\u00edn Region"}, {"city": "Kysuck\u00e9 Nov\u00e9 Mesto", "latitude": 49.3, "longitude": 18.78333, "state": "\u017dilina Region"}, {"city": "Krupina", "latitude": 48.3554, "longitude": 19.06474, "state": "Bansk\u00e1 Bystrica Region"}, {"city": "Kremnica", "latitude": 48.70519, "longitude": 18.91834, "state": "Bansk\u00e1 Bystrica Region"}, {"city": "Kr\u00e1sno nad Kysucou", "latitude": 49.39572, "longitude": 18.83431, "state": "\u017dilina Region"}, {"city": "Kras\u0148any", "latitude": 49.21491, "longitude": 18.88718, "state": "\u017dilina Region"}, {"city": "Kov\u00e1\u010dov\u00e1", "latitude": 48.60148, "longitude": 19.10252, "state": "Bansk\u00e1 Bystrica Region"}, {"city": "Kom\u00e1rno", "latitude": 48.11667, "longitude": 18.31667, "state": "Nitra Region"}, {"city": "Kom\u00e1rno", "latitude": 47.76356, "longitude": 18.12263, "state": "Nitra Region"}, {"city": "Kol\u00e1rovo", "latitude": 47.92294, "longitude": 17.98467, "state": "Nitra Region"}, {"city": "K\u013ea\u010dno", "latitude": 48.91582, "longitude": 18.659, "state": "Tren\u010d\u00edn Region"}, {"city": "Kanianka", "latitude": 48.8164, "longitude": 18.58541, "state": "Tren\u010d\u00edn Region"}, {"city": "Jarovce", "latitude": 48.06498, "longitude": 17.11303, "state": "Bratislava Region"}, {"city": "Ivanka pri Dunaji", "latitude": 48.18675, "longitude": 17.2554, "state": "Bratislava Region"}, {"city": "Ilava", "latitude": 48.99769, "longitude": 18.2353, "state": "Tren\u010d\u00edn Region"}, {"city": "Hybe", "latitude": 49.04439, "longitude": 19.82895, "state": "\u017dilina Region"}, {"city": "Hurbanovo", "latitude": 47.86984, "longitude": 18.19233, "state": "Nitra Region"}, {"city": "Hrocho\u0165", "latitude": 48.65567, "longitude": 19.31284, "state": "Bansk\u00e1 Bystrica Region"}, {"city": "Hri\u0148ov\u00e1", "latitude": 48.57787, "longitude": 19.52574, "state": "Bansk\u00e1 Bystrica Region"}, {"city": "Hol\u00ed\u010d", "latitude": 48.81105, "longitude": 17.16238, "state": "Trnava Region"}, {"city": "Hlohovec", "latitude": 48.43174, "longitude": 17.8031, "state": "Trnava Region"}, {"city": "Handlov\u00e1", "latitude": 48.7276, "longitude": 18.76012, "state": "Tren\u010d\u00edn Region"}, {"city": "Gbely", "latitude": 48.718, "longitude": 17.11628, "state": "Trnava Region"}, {"city": "Galanta", "latitude": 48.19001, "longitude": 17.72747, "state": "Trnava Region"}, {"city": "Gab\u010d\u00edkovo", "latitude": 47.89211, "longitude": 17.57884, "state": "Trnava Region"}, {"city": "Fi\u013eakovo", "latitude": 48.26757, "longitude": 19.82473, "state": "Bansk\u00e1 Bystrica Region"}, {"city": "Bratislava - Vajnory", "latitude": 48.20563, "longitude": 17.20759, "state": "Bratislava Region"}, {"city": "Dunajsk\u00e1 Streda", "latitude": 47.99268, "longitude": 17.61211, "state": "Trnava Region"}, {"city": "Dunajov", "latitude": 49.36196, "longitude": 18.82135, "state": "\u017dilina Region"}, {"city": "Dudince", "latitude": 48.17135, "longitude": 18.88782, "state": "Bansk\u00e1 Bystrica Region"}, {"city": "Dubnica nad V\u00e1hom", "latitude": 48.95981, "longitude": 18.16634, "state": "Tren\u010d\u00edn Region"}, {"city": "Doln\u00fd Kub\u00edn", "latitude": 49.20983, "longitude": 19.30341, "state": "\u017dilina Region"}, {"city": "Detva", "latitude": 48.56082, "longitude": 19.41954, "state": "Bansk\u00e1 Bystrica Region"}, {"city": "\u010cierny Balog", "latitude": 48.74722, "longitude": 19.65125, "state": "Bansk\u00e1 Bystrica Region"}, {"city": "\u010cierne", "latitude": 49.49361, "longitude": 18.81954, "state": "\u017dilina Region"}, {"city": "\u010cadca", "latitude": 49.43503, "longitude": 18.78895, "state": "\u017dilina Region"}, {"city": "\u010cachtice", "latitude": 48.71226, "longitude": 17.78704, "state": "Tren\u010d\u00edn Region"}, {"city": "Byt\u010da", "latitude": 49.22404, "longitude": 18.55878, "state": "\u017dilina Region"}, {"city": "Brezov\u00e1 pod Bradlom", "latitude": 48.66349, "longitude": 17.53905, "state": "Tren\u010d\u00edn Region"}, {"city": "Brezno", "latitude": 48.80431, "longitude": 19.63631, "state": "Bansk\u00e1 Bystrica Region"}, {"city": "Bratislava", "latitude": 48.14816, "longitude": 17.10674, "state": "Bratislava Region"}, {"city": "Bojnice", "latitude": 48.78511, "longitude": 18.5864, "state": "Tren\u010d\u00edn Region"}, {"city": "Biely Kostol", "latitude": 48.36755, "longitude": 17.53036, "state": "Trnava Region"}, {"city": "Bansk\u00e1 \u0160tiavnica", "latitude": 48.44858, "longitude": 18.91003, "state": "Bansk\u00e1 Bystrica Region"}, {"city": "Bansk\u00e1 Bystrica", "latitude": 48.73946, "longitude": 19.15349, "state": "Bansk\u00e1 Bystrica Region"}, {"city": "B\u00e1novce nad Bebravou", "latitude": 48.7213, "longitude": 18.25754, "state": "Tren\u010d\u00edn Region"}, {"city": "Oravsk\u00e1 Lesn\u00e1", "latitude": 49.36672, "longitude": 19.18093, "state": "\u017dilina Region"}, {"city": "Spisska Sobota", "latitude": 49.06487, "longitude": 20.31784, "state": "Pre\u0161ov Region"}, {"city": "Dunajsk\u00e1 Lu\u017en\u00e1", "latitude": 48.08347, "longitude": 17.26072, "state": "Bratislava Region"}, {"city": "Vinosady", "latitude": 48.31142, "longitude": 17.29042, "state": "Bratislava Region"}]