[{"city": "Koror", "latitude": 7.33978, "longitude": 134.47326, "state": null}, {"city": "Ulimang", "latitude": 7.62416, "longitude": 134.64208, "state": "Ngaraard"}, {"city": "Melekeok Village", "latitude": 7.49567, "longitude": 134.63671, "state": "Melekeok"}, {"city": "Ngereklmadel", "latitude": 7.48826, "longitude": 134.48562, "state": "Ngatpang"}, {"city": "Imeong Hamlet", "latitude": 7.53134, "longitude": 134.52713, "state": "Ngeremlengui"}, {"city": "Ngchesar Hamlet", "latitude": 7.46932, "longitude": 134.60991, "state": "Ngchesar"}, {"city": "Ngerkeai", "latitude": 7.55456, "longitude": 134.63612, "state": "Ngiwal"}, {"city": "Mengellang", "latitude": 7.6957, "longitude": 134.63054, "state": "Ngarchelong"}, {"city": "Angaur State", "latitude": 6.90601, "longitude": 134.12997, "state": "Angaur"}, {"city": "Tobi Village", "latitude": 3.00488, "longitude": 131.12168, "state": "Hatohobei"}, {"city": "Sonsorol Village", "latitude": 5.32608, "longitude": 132.21943, "state": "Sonsorol"}, {"city": "Kayangel", "latitude": 8.08228, "longitude": 134.71725, "state": null}, {"city": "Kloulklubed", "latitude": 7.04192, "longitude": 134.25561, "state": "Peleliu"}, {"city": "Ngetkib", "latitude": 7.36451, "longitude": 134.51484, "state": "Airai"}, {"city": "Ngchemiangel", "latitude": 7.44613, "longitude": 134.47678, "state": "Aimeliik"}, {"city": "Ngardmau", "latitude": 7.60986, "longitude": 134.5744, "state": null}, {"city": "Koror Town", "latitude": 7.34257, "longitude": 134.47888, "state": "Koror"}, {"city": "Ngerulmud", "latitude": 7.50077, "longitude": 134.6238, "state": "Melekeok"}]