[{"city": "Sola", "latitude": -13.87611, "longitude": 167.55167, "state": "Torba"}, {"city": "Port-Vila", "latitude": -17.73648, "longitude": 168.31366, "state": "Shefa"}, {"city": "Port-Olry", "latitude": -15.04175, "longitude": 167.07265, "state": "Sanma"}, {"city": "Norsup", "latitude": -16.06536, "longitude": 167.39714, "state": "Malampa"}, {"city": "Luganville", "latitude": -15.51989, "longitude": 167.16235, "state": "Sanma"}, {"city": "Lakatoro", "latitude": -16.09992, "longitude": 167.41636, "state": "Malampa"}, {"city": "Isangel", "latitude": -19.54167, "longitude": 169.28167, "state": "Tafea"}, {"city": "Saratamata", "latitude": -15.29031, "longitude": 167.96679, "state": "Penama"}]