[{"city": "Smara", "latitude": 26.73841, "longitude": -11.67194, "state": "La\u00e2youne-Sakia El Hamra"}, {"city": "Aousserd", "latitude": 22.554, "longitude": -14.33, "state": "Dakhla-Oued Ed-Dahab"}, {"city": "Zoumi", "latitude": 34.80321, "longitude": -5.34458, "state": "Tanger-Tetouan-Al Hoceima"}, {"city": "Zinat", "latitude": 35.43, "longitude": -5.4, "state": "Tanger-Tetouan-Al Hoceima"}, {"city": "Boubker", "latitude": 34.47369, "longitude": -1.7295, "state": "Oriental"}, {"city": "Zayda", "latitude": 32.81921, "longitude": -4.96099, "state": "Dr\u00e2a-Tafilalet"}, {"city": "Saddina", "latitude": 35.6141, "longitude": -5.45191, "state": "Tanger-Tetouan-Al Hoceima"}, {"city": "Talmest", "latitude": 31.81224, "longitude": -9.3379, "state": "Marrakesh-Safi"}, {"city": "Setti Fatma", "latitude": 31.22508, "longitude": -7.67751, "state": "Marrakesh-Safi"}, {"city": "Zawyat ech Che\u00efkh", "latitude": 32.64445, "longitude": -5.91826, "state": "B\u00e9ni Mellal-Kh\u00e9nifra"}, {"city": "Za Bougrine", "latitude": 33.85524, "longitude": -4.48813, "state": "F\u00e8s-Mekn\u00e8s"}, {"city": "Zaou\u00efa A\u00eft Ishak", "latitude": 32.76181, "longitude": -5.72535, "state": "B\u00e9ni Mellal-Kh\u00e9nifra"}, {"city": "Za\u00efo", "latitude": 34.94282, "longitude": -2.7329, "state": "Oriental"}, {"city": "Zagora", "latitude": 30.33241, "longitude": -5.8384, "state": "Dr\u00e2a-Tafilalet"}, {"city": "Zag", "latitude": 28.0221, "longitude": -9.29397, "state": "Guelmim-Oued Noun"}, {"city": "Youssoufia", "latitude": 32.24634, "longitude": -8.52941, "state": "Marrakesh-Safi"}, {"city": "Tounfit", "latitude": 32.46945, "longitude": -5.24512, "state": "Dr\u00e2a-Tafilalet"}, {"city": "Touissite", "latitude": 34.47857, "longitude": -1.7685, "state": "Oriental"}, {"city": "Touama", "latitude": 31.53501, "longitude": -7.49291, "state": "Marrakesh-Safi"}, {"city": "Tnine Sidi Lyamani", "latitude": 35.36929, "longitude": -5.97242, "state": "Tanger-Tetouan-Al Hoceima"}, {"city": "Tmourghout", "latitude": 33.9065, "longitude": -4.02696, "state": "F\u00e8s-Mekn\u00e8s"}, {"city": "Tlet Sidi Bouguedra", "latitude": 32.25507, "longitude": -8.98067, "state": "Marrakesh-Safi"}, {"city": "Tlet Ighoud", "latitude": 31.86011, "longitude": -8.88214, "state": "Marrakesh-Safi"}, {"city": "Tiztoutine", "latitude": 34.97159, "longitude": -3.15273, "state": "Oriental"}, {"city": "Tiznit", "latitude": 29.69742, "longitude": -9.73162, "state": "Souss-Massa"}, {"city": "Tizi Ouzli", "latitude": 34.76214, "longitude": -3.79582, "state": "F\u00e8s-Mekn\u00e8s"}, {"city": "Tizguine", "latitude": 31.22836, "longitude": -8.31611, "state": "Marrakesh-Safi"}, {"city": "Tit Mellil", "latitude": 33.55808, "longitude": -7.48647, "state": "Casablanca-Settat"}, {"city": "Tissa", "latitude": 34.28791, "longitude": -4.66372, "state": "F\u00e8s-Mekn\u00e8s"}, {"city": "Tirhassaline", "latitude": 32.7822, "longitude": -5.65282, "state": "B\u00e9ni Mellal-Kh\u00e9nifra"}, {"city": "Tirhanim\u00eene", "latitude": 35.23619, "longitude": -3.95453, "state": "Tanger-Tetouan-Al Hoceima"}, {"city": "Tiout", "latitude": 30.3887, "longitude": -8.69572, "state": "Souss-Massa"}, {"city": "Tiouli", "latitude": 34.36679, "longitude": -1.83705, "state": "Oriental"}, {"city": "Tinghir", "latitude": 31.51472, "longitude": -5.53278, "state": "Dr\u00e2a-Tafilalet"}, {"city": "Tinajdad", "latitude": 31.50764, "longitude": -5.03293, "state": "Dr\u00e2a-Tafilalet"}, {"city": "Timoulilt", "latitude": 32.20368, "longitude": -6.4666, "state": "B\u00e9ni Mellal-Kh\u00e9nifra"}, {"city": "Timahdit", "latitude": 33.23654, "longitude": -5.05954, "state": "F\u00e8s-Mekn\u00e8s"}, {"city": "Timezgana", "latitude": 34.58, "longitude": -4.73, "state": "F\u00e8s-Mekn\u00e8s"}, {"city": "Timezgadiouine", "latitude": 30.88366, "longitude": -9.04548, "state": "Marrakesh-Safi"}, {"city": "Tilmi", "latitude": 31.81794, "longitude": -5.76812, "state": "Dr\u00e2a-Tafilalet"}, {"city": "Tifni", "latitude": 31.62777, "longitude": -6.94093, "state": "B\u00e9ni Mellal-Kh\u00e9nifra"}, {"city": "Tiflet", "latitude": 33.89469, "longitude": -6.30649, "state": "Rabat-Sal\u00e9-K\u00e9nitra"}, {"city": "T\u00e9touan", "latitude": 35.57845, "longitude": -5.36837, "state": "Tanger-Tetouan-Al Hoceima"}, {"city": "Tendrara", "latitude": 33.04964, "longitude": -2.00018, "state": "Oriental"}, {"city": "Temara", "latitude": 33.92866, "longitude": -6.90656, "state": "Rabat-Sal\u00e9-K\u00e9nitra"}, {"city": "Telouet", "latitude": 31.28925, "longitude": -7.23789, "state": "Dr\u00e2a-Tafilalet"}, {"city": "Tiddas", "latitude": 33.56955, "longitude": -6.26594, "state": "Rabat-Sal\u00e9-K\u00e9nitra"}, {"city": "Tazouta", "latitude": 33.66991, "longitude": -4.63392, "state": "F\u00e8s-Mekn\u00e8s"}, {"city": "Taznakht", "latitude": 30.57836, "longitude": -7.20341, "state": "Dr\u00e2a-Tafilalet"}, {"city": "Tazemmourt", "latitude": 30.40854, "longitude": -8.829, "state": "Souss-Massa"}, {"city": "Tazarine", "latitude": 33.88307, "longitude": -4.1862, "state": "F\u00e8s-Mekn\u00e8s"}, {"city": "Taza", "latitude": 34.21, "longitude": -4.01, "state": "F\u00e8s-Mekn\u00e8s"}, {"city": "Tata", "latitude": 29.74409, "longitude": -7.973, "state": "Souss-Massa"}, {"city": "Tassila", "latitude": 29.97134, "longitude": -9.64195, "state": "Souss-Massa"}, {"city": "Tarsouat", "latitude": 29.58153, "longitude": -9.02664, "state": "Souss-Massa"}, {"city": "Taroudant", "latitude": 30.47028, "longitude": -8.87695, "state": "Souss-Massa"}, {"city": "Teroual", "latitude": 34.67452, "longitude": -5.27331, "state": "Rabat-Sal\u00e9-K\u00e9nitra"}, {"city": "Tarhjicht", "latitude": 29.05827, "longitude": -9.42877, "state": "Guelmim-Oued Noun"}, {"city": "Targuist", "latitude": 34.93769, "longitude": -4.31856, "state": "Tanger-Tetouan-Al Hoceima"}, {"city": "Tarfaya", "latitude": 27.9392, "longitude": -12.92604, "state": "La\u00e2youne-Sakia El Hamra"}, {"city": "Taourirt", "latitude": 34.40731, "longitude": -2.89732, "state": "Oriental"}, {"city": "Taounza", "latitude": 32.09368, "longitude": -6.60607, "state": "B\u00e9ni Mellal-Kh\u00e9nifra"}, {"city": "Taounate", "latitude": 34.53661, "longitude": -4.64009, "state": "F\u00e8s-Mekn\u00e8s"}, {"city": "Taouloukoult", "latitude": 31.22218, "longitude": -9.07943, "state": "Marrakesh-Safi"}, {"city": "Taouima", "latitude": 35.1299, "longitude": -2.9279, "state": "Oriental"}, {"city": "Tan-Tan", "latitude": 28.43799, "longitude": -11.10321, "state": "Guelmim-Oued Noun"}, {"city": "Tangier", "latitude": 35.76727, "longitude": -5.79975, "state": "Tanger-Tetouan-Al Hoceima"}, {"city": "Tanalt", "latitude": 29.77548, "longitude": -9.16796, "state": "Souss-Massa"}, {"city": "Tamorot", "latitude": 34.93632, "longitude": -4.7794, "state": "Tanger-Tetouan-Al Hoceima"}, {"city": "Tameslouht", "latitude": 31.49472, "longitude": -8.09772, "state": "Marrakesh-Safi"}, {"city": "Tamallalt", "latitude": 31.81897, "longitude": -7.51446, "state": "Marrakesh-Safi"}, {"city": "Tamassint", "latitude": 35.07203, "longitude": -3.96118, "state": "Tanger-Tetouan-Al Hoceima"}, {"city": "Tamanar", "latitude": 31.00087, "longitude": -9.67802, "state": "Marrakesh-Safi"}, {"city": "Talzemt", "latitude": 33.59, "longitude": -4.19, "state": "F\u00e8s-Mekn\u00e8s"}, {"city": "Talsint", "latitude": 32.53599, "longitude": -3.44143, "state": "Oriental"}, {"city": "Taliouine", "latitude": 30.52917, "longitude": -7.91262, "state": "Souss-Massa"}, {"city": "Ta\u00efneste", "latitude": 34.55415, "longitude": -4.13582, "state": "F\u00e8s-Mekn\u00e8s"}, {"city": "Tahannout", "latitude": 31.35236, "longitude": -7.95012, "state": "Marrakesh-Safi"}, {"city": "Dhar Souk", "latitude": 34.65197, "longitude": -4.27921, "state": "F\u00e8s-Mekn\u00e8s"}, {"city": "Tahla", "latitude": 34.04965, "longitude": -4.42162, "state": "F\u00e8s-Mekn\u00e8s"}, {"city": "Tafraout", "latitude": 29.72449, "longitude": -8.9747, "state": "Souss-Massa"}, {"city": "Tafersit", "latitude": 35.00857, "longitude": -3.54088, "state": "Oriental"}, {"city": "Tadrart", "latitude": 30.77477, "longitude": -9.45951, "state": "Souss-Massa"}, {"city": "Tabount", "latitude": 30.90321, "longitude": -6.91579, "state": "Dr\u00e2a-Tafilalet"}, {"city": "Tabouda", "latitude": 34.71923, "longitude": -5.1403, "state": "F\u00e8s-Mekn\u00e8s"}, {"city": "Tabia", "latitude": 32.03009, "longitude": -6.79985, "state": "B\u00e9ni Mellal-Kh\u00e9nifra"}, {"city": "Tabia", "latitude": 30.03462, "longitude": -8.87688, "state": "Souss-Massa"}, {"city": "Tabant", "latitude": 31.65255, "longitude": -6.41049, "state": "B\u00e9ni Mellal-Kh\u00e9nifra"}, {"city": "Souq Larb\u2019a al Gharb", "latitude": 34.68664, "longitude": -6.00272, "state": "Rabat-Sal\u00e9-K\u00e9nitra"}, {"city": "Souq at Tlata des Loulad", "latitude": 32.99471, "longitude": -7.11982, "state": "Casablanca-Settat"}, {"city": "Tafetachte", "latitude": 31.58341, "longitude": -9.2561, "state": "Marrakesh-Safi"}, {"city": "Souq Sebt Oulad Nemma", "latitude": 32.2973, "longitude": -6.70301, "state": "B\u00e9ni Mellal-Kh\u00e9nifra"}, {"city": "Jem\u2019at Oulad \u2019Abbou", "latitude": 33.1148, "longitude": -7.9336, "state": "Casablanca-Settat"}, {"city": "Souk et Tnine Jorf el Mellah", "latitude": 34.49162, "longitude": -5.50846, "state": "Rabat-Sal\u00e9-K\u00e9nitra"}, {"city": "Souq Al Had Bradya", "latitude": 32.44928, "longitude": -6.5366, "state": "B\u00e9ni Mellal-Kh\u00e9nifra"}, {"city": "Foum Jam\u2019a", "latitude": 31.96166, "longitude": -6.98354, "state": "B\u00e9ni Mellal-Kh\u00e9nifra"}, {"city": "Senada", "latitude": 35.07452, "longitude": -4.21583, "state": "Tanger-Tetouan-Al Hoceima"}, {"city": "Skoura", "latitude": 33.51935, "longitude": -4.54351, "state": "F\u00e8s-Mekn\u00e8s"}, {"city": "Skoura", "latitude": 31.06262, "longitude": -6.5525, "state": "Dr\u00e2a-Tafilalet"}, {"city": "Skhour Rehamna", "latitude": 32.48244, "longitude": -7.91533, "state": "Marrakesh-Safi"}, {"city": "Sidi Zouine", "latitude": 31.66914, "longitude": -8.34541, "state": "Marrakesh-Safi"}, {"city": "Sidi Yahya Ou Saad", "latitude": 32.68011, "longitude": -5.57738, "state": "B\u00e9ni Mellal-Kh\u00e9nifra"}, {"city": "Sidi Yahya Zaer", "latitude": 33.82977, "longitude": -6.91262, "state": "Rabat-Sal\u00e9-K\u00e9nitra"}, {"city": "Sidi Yahia El Gharb", "latitude": 34.30494, "longitude": -6.30404, "state": "Rabat-Sal\u00e9-K\u00e9nitra"}, {"city": "Sidi Smai\u2019il", "latitude": 32.82461, "longitude": -8.51122, "state": "Casablanca-Settat"}, {"city": "Sidi Slimane", "latitude": 34.26479, "longitude": -5.92598, "state": "Rabat-Sal\u00e9-K\u00e9nitra"}, {"city": "Sidi Redouane", "latitude": 34.68692, "longitude": -5.44538, "state": "Rabat-Sal\u00e9-K\u00e9nitra"}, {"city": "Sidi Rahhal", "latitude": 31.65031, "longitude": -7.47288, "state": "Marrakesh-Safi"}, {"city": "Sidi Rahal", "latitude": 33.47739, "longitude": -7.93641, "state": "Casablanca-Settat"}, {"city": "Sidi Kacem", "latitude": 34.22149, "longitude": -5.70775, "state": "Rabat-Sal\u00e9-K\u00e9nitra"}, {"city": "Sidi Moussa", "latitude": 32.27209, "longitude": -7.20095, "state": "Marrakesh-Safi"}, {"city": "Sidi Lmokhtar", "latitude": 31.57739, "longitude": -9.01575, "state": "Marrakesh-Safi"}, {"city": "Sidi Lamine", "latitude": 32.90783, "longitude": -6.05069, "state": "B\u00e9ni Mellal-Kh\u00e9nifra"}, {"city": "Sidi Jaber", "latitude": 32.38952, "longitude": -6.42095, "state": "B\u00e9ni Mellal-Kh\u00e9nifra"}, {"city": "Sidi Ifni", "latitude": 29.37975, "longitude": -10.17299, "state": "Souss-Massa"}, {"city": "Sidi Harazem", "latitude": 34.02733, "longitude": -4.88343, "state": "F\u00e8s-Mekn\u00e8s"}, {"city": "Sidi Bousber", "latitude": 34.56283, "longitude": -5.36208, "state": "Rabat-Sal\u00e9-K\u00e9nitra"}, {"city": "Bouknadel", "latitude": 34.11849, "longitude": -6.7389, "state": "Rabat-Sal\u00e9-K\u00e9nitra"}, {"city": "Sidi Bou Othmane", "latitude": 31.90226, "longitude": -7.94169, "state": "Marrakesh-Safi"}, {"city": "Sidi Bou Lanouar", "latitude": 32.86, "longitude": -6.88, "state": "B\u00e9ni Mellal-Kh\u00e9nifra"}, {"city": "Sidi Bibi", "latitude": 30.23784, "longitude": -9.52877, "state": "Souss-Massa"}, {"city": "Sidi Bennour", "latitude": 32.65236, "longitude": -8.42769, "state": "Casablanca-Settat"}, {"city": "Sidi Amar", "latitude": 32.94987, "longitude": -5.83225, "state": "B\u00e9ni Mellal-Kh\u00e9nifra"}, {"city": "Sidi Allal Tazi", "latitude": 34.52257, "longitude": -6.32197, "state": "Rabat-Sal\u00e9-K\u00e9nitra"}, {"city": "Sidi Allal El Bahraoui", "latitude": 34.0077, "longitude": -6.53082, "state": "Rabat-Sal\u00e9-K\u00e9nitra"}, {"city": "Sidi Abdallah", "latitude": 32.53544, "longitude": -7.83243, "state": "Marrakesh-Safi"}, {"city": "Gueznaia", "latitude": 35.70211, "longitude": -5.89044, "state": "Tanger-Tetouan-Al Hoceima"}, {"city": "Settat", "latitude": 33.00103, "longitude": -7.61662, "state": "Casablanca-Settat"}, {"city": "Selouane", "latitude": 35.07313, "longitude": -2.9423, "state": "Oriental"}, {"city": "Zeghanghane", "latitude": 35.15561, "longitude": -3.00236, "state": "Oriental"}, {"city": "Sefrou", "latitude": 33.83186, "longitude": -4.828, "state": "F\u00e8s-Mekn\u00e8s"}, {"city": "Sebt Gzoula", "latitude": 32.10779, "longitude": -9.08366, "state": "Marrakesh-Safi"}, {"city": "Sal\u00e9", "latitude": 34.0531, "longitude": -6.79846, "state": "Rabat-Sal\u00e9-K\u00e9nitra"}, {"city": "Saidia", "latitude": 35.08195, "longitude": -2.22897, "state": "Oriental"}, {"city": "A\u00e7-\u00e7ahrij", "latitude": 31.80489, "longitude": -7.14638, "state": "Marrakesh-Safi"}, {"city": "Safi", "latitude": 32.29939, "longitude": -9.23718, "state": "Marrakesh-Safi"}, {"city": "Rouadi", "latitude": 35.14119, "longitude": -4.13631, "state": "Tanger-Tetouan-Al Hoceima"}, {"city": "Re\u00e7ani", "latitude": 31.28318, "longitude": -4.26565, "state": "Dr\u00e2a-Tafilalet"}, {"city": "Rislane", "latitude": 34.76987, "longitude": -2.46034, "state": "Oriental"}, {"city": "Rich", "latitude": 32.25644, "longitude": -4.50152, "state": "Dr\u00e2a-Tafilalet"}, {"city": "Ghouazi", "latitude": 34.47737, "longitude": -5.30235, "state": "F\u00e8s-Mekn\u00e8s"}, {"city": "Reggada", "latitude": 29.58016, "longitude": -9.70086, "state": "Souss-Massa"}, {"city": "Ratba", "latitude": 34.77772, "longitude": -4.93989, "state": "F\u00e8s-Mekn\u00e8s"}, {"city": "Ras Kebdana", "latitude": 35.14069, "longitude": -2.42455, "state": "Oriental"}, {"city": "Ras el Ma", "latitude": 33.97399, "longitude": -5.09613, "state": "F\u00e8s-Mekn\u00e8s"}, {"city": "Rabat", "latitude": 34.01325, "longitude": -6.83255, "state": "Rabat-Sal\u00e9-K\u00e9nitra"}, {"city": "Outat Oulad Al Haj", "latitude": 33.34499, "longitude": -3.70387, "state": "F\u00e8s-Mekn\u00e8s"}, {"city": "Ourtzagh", "latitude": 34.53477, "longitude": -4.96878, "state": "F\u00e8s-Mekn\u00e8s"}, {"city": "Ounagha", "latitude": 31.53203, "longitude": -9.54944, "state": "Marrakesh-Safi"}, {"city": "Oulmes", "latitude": 33.42585, "longitude": -6.00137, "state": "Rabat-Sal\u00e9-K\u00e9nitra"}, {"city": "Oulad Ya\u00efch", "latitude": 32.43498, "longitude": -6.3245, "state": "B\u00e9ni Mellal-Kh\u00e9nifra"}, {"city": "Oulad Te\u00efma", "latitude": 30.39467, "longitude": -9.20897, "state": "Souss-Massa"}, {"city": "Oulad Tayeb", "latitude": 33.94633, "longitude": -4.99509, "state": "F\u00e8s-Mekn\u00e8s"}, {"city": "Oulad Sa\u00efd", "latitude": 32.96789, "longitude": -7.81277, "state": "Casablanca-Settat"}, {"city": "Oulad Embarek", "latitude": 32.27162, "longitude": -6.44967, "state": "B\u00e9ni Mellal-Kh\u00e9nifra"}, {"city": "Oulad Daoud", "latitude": 34.40438, "longitude": -4.69342, "state": "F\u00e8s-Mekn\u00e8s"}, {"city": "Oulad Barhil", "latitude": 30.64042, "longitude": -8.46875, "state": "Souss-Massa"}, {"city": "Oulad Ayad", "latitude": 32.2, "longitude": -6.8, "state": "B\u00e9ni Mellal-Kh\u00e9nifra"}, {"city": "Ouka\u00efmedene", "latitude": 31.20603, "longitude": -7.86089, "state": "Marrakesh-Safi"}, {"city": "Oujda", "latitude": 34.68139, "longitude": -1.90858, "state": "Oriental"}, {"city": "Ouijjane", "latitude": 29.62777, "longitude": -9.53959, "state": "Souss-Massa"}, {"city": "Oued Zem", "latitude": 32.8627, "longitude": -6.57359, "state": "B\u00e9ni Mellal-Kh\u00e9nifra"}, {"city": "Oued Laou", "latitude": 35.4484, "longitude": -5.09627, "state": "Tanger-Tetouan-Al Hoceima"}, {"city": "Oued el Himer", "latitude": 34.44897, "longitude": -1.9006, "state": "Oriental"}, {"city": "Oued Amlil", "latitude": 34.2, "longitude": -4.28, "state": "F\u00e8s-Mekn\u00e8s"}, {"city": "Ouezzane", "latitude": 34.79584, "longitude": -5.57849, "state": "Tanger-Tetouan-Al Hoceima"}, {"city": "Ouarzazate", "latitude": 30.91894, "longitude": -6.89341, "state": "Dr\u00e2a-Tafilalet"}, {"city": "A\u00eft Ouaoumana", "latitude": 32.71029, "longitude": -5.8063, "state": "B\u00e9ni Mellal-Kh\u00e9nifra"}, {"city": "Oualidia", "latitude": 32.73372, "longitude": -9.03059, "state": "Casablanca-Settat"}, {"city": "Zawyat an Nwa\u00e7er", "latitude": 33.37981, "longitude": -7.61932, "state": "Casablanca-Settat"}, {"city": "Naima", "latitude": 34.60277, "longitude": -2.21764, "state": "Oriental"}, {"city": "Nador", "latitude": 35.16813, "longitude": -2.93352, "state": "Oriental"}, {"city": "Moulay Yacoub", "latitude": 34.08793, "longitude": -5.18171, "state": "F\u00e8s-Mekn\u00e8s"}, {"city": "Moulay Driss Zerhoun", "latitude": 34.05555, "longitude": -5.52132, "state": "F\u00e8s-Mekn\u00e8s"}, {"city": "Moulay Brahim", "latitude": 31.28785, "longitude": -7.9683, "state": "Marrakesh-Safi"}, {"city": "Moulay Bousselham", "latitude": 34.88158, "longitude": -6.29455, "state": "Rabat-Sal\u00e9-K\u00e9nitra"}, {"city": "Moulay Bouchta", "latitude": 34.48922, "longitude": -5.13023, "state": "F\u00e8s-Mekn\u00e8s"}, {"city": "Moulay Bou \u2019azza", "latitude": 33.22576, "longitude": -6.19807, "state": "B\u00e9ni Mellal-Kh\u00e9nifra"}, {"city": "Moulay Abdallah", "latitude": 33.19664, "longitude": -8.58811, "state": "Casablanca-Settat"}, {"city": "Al Aaroui", "latitude": 35.0109, "longitude": -3.00938, "state": "Oriental"}, {"city": "Mokrisset", "latitude": 34.92997, "longitude": -5.35293, "state": "Tanger-Tetouan-Al Hoceima"}, {"city": "Mohammedia", "latitude": 33.68607, "longitude": -7.38298, "state": "Casablanca-Settat"}, {"city": "Missour", "latitude": 33.04893, "longitude": -3.98947, "state": "F\u00e8s-Mekn\u00e8s"}, {"city": "Mirleft", "latitude": 29.57829, "longitude": -10.03245, "state": "Guelmim-Oued Noun"}, {"city": "Midelt", "latitude": 32.6852, "longitude": -4.74512, "state": "B\u00e9ni Mellal-Kh\u00e9nifra"}, {"city": "Midar", "latitude": 34.94025, "longitude": -3.53311, "state": "Oriental"}, {"city": "Meknes", "latitude": 33.89352, "longitude": -5.54727, "state": "F\u00e8s-Mekn\u00e8s"}, {"city": "Mehdya", "latitude": 34.25596, "longitude": -6.67345, "state": "Rabat-Sal\u00e9-K\u00e9nitra"}, {"city": "Mediouna", "latitude": 33.45161, "longitude": -7.51995, "state": "Casablanca-Settat"}, {"city": "Mechraa Bel Ksiri", "latitude": 34.57373, "longitude": -5.95585, "state": "Rabat-Sal\u00e9-K\u00e9nitra"}, {"city": "Mdiq", "latitude": 35.68313, "longitude": -5.32871, "state": "Tanger-Tetouan-Al Hoceima"}, {"city": "Matmata", "latitude": 34.09914, "longitude": -4.55219, "state": "F\u00e8s-Mekn\u00e8s"}, {"city": "Martil", "latitude": 35.61662, "longitude": -5.27522, "state": "Tanger-Tetouan-Al Hoceima"}, {"city": "Marrakesh", "latitude": 31.63416, "longitude": -7.99994, "state": "Marrakesh-Safi"}, {"city": "Madagh", "latitude": 35.01032, "longitude": -2.33701, "state": "Oriental"}, {"city": "Ifrane", "latitude": 31.70217, "longitude": -6.3494, "state": "B\u00e9ni Mellal-Kh\u00e9nifra"}, {"city": "Larache", "latitude": 35.19321, "longitude": -6.15572, "state": "Tanger-Tetouan-Al Hoceima"}, {"city": "Lake Lalla Takerkoust", "latitude": 31.36179, "longitude": -8.1336, "state": "Marrakesh-Safi"}, {"city": "Lalla Mimouna", "latitude": 34.84606, "longitude": -6.06645, "state": "Rabat-Sal\u00e9-K\u00e9nitra"}, {"city": "Ksar El Kebir", "latitude": 35.00044, "longitude": -5.90378, "state": "Tanger-Tetouan-Al Hoceima"}, {"city": "Khouribga", "latitude": 32.88108, "longitude": -6.9063, "state": "B\u00e9ni Mellal-Kh\u00e9nifra"}, {"city": "Khenifra", "latitude": 32.93492, "longitude": -5.66167, "state": "B\u00e9ni Mellal-Kh\u00e9nifra"}, {"city": "Khenichet-sur Ouerrha", "latitude": 34.44041, "longitude": -5.67879, "state": "Rabat-Sal\u00e9-K\u00e9nitra"}, {"city": "Khemis Sahel", "latitude": 35.25344, "longitude": -6.0796, "state": "Tanger-Tetouan-Al Hoceima"}, {"city": "Kerrouchen", "latitude": 32.79639, "longitude": -5.3188, "state": "B\u00e9ni Mellal-Kh\u00e9nifra"}, {"city": "Kenitra", "latitude": 34.26101, "longitude": -6.5802, "state": "Rabat-Sal\u00e9-K\u00e9nitra"}, {"city": "Dar Kebdani", "latitude": 35.12237, "longitude": -3.33148, "state": "Oriental"}, {"city": "Kasba Tadla", "latitude": 32.5977, "longitude": -6.26844, "state": "B\u00e9ni Mellal-Kh\u00e9nifra"}, {"city": "Kariat Arkmane", "latitude": 35.1071, "longitude": -2.74693, "state": "Oriental"}, {"city": "Karia Ba Mohamed", "latitude": 34.37094, "longitude": -5.2138, "state": "F\u00e8s-Mekn\u00e8s"}, {"city": "Jorf", "latitude": 31.49442, "longitude": -4.40598, "state": "Dr\u00e2a-Tafilalet"}, {"city": "Jerada", "latitude": 34.31, "longitude": -2.16, "state": "Oriental"}, {"city": "Jamaat Shaim", "latitude": 32.34694, "longitude": -8.84249, "state": "Marrakesh-Safi"}, {"city": "Mrirt", "latitude": 33.16427, "longitude": -5.56722, "state": "B\u00e9ni Mellal-Kh\u00e9nifra"}, {"city": "Itzer", "latitude": 32.8783, "longitude": -5.0515, "state": "B\u00e9ni Mellal-Kh\u00e9nifra"}, {"city": "Isseksi", "latitude": 32.22981, "longitude": -6.27661, "state": "B\u00e9ni Mellal-Kh\u00e9nifra"}, {"city": "Ighram", "latitude": 30.08928, "longitude": -8.46023, "state": "Souss-Massa"}, {"city": "Inezgane", "latitude": 30.35535, "longitude": -9.53639, "state": "Souss-Massa"}, {"city": "Imouzzer Kandar", "latitude": 33.72871, "longitude": -5.01092, "state": "F\u00e8s-Mekn\u00e8s"}, {"city": "Imouzzer des Marmoucha", "latitude": 33.47024, "longitude": -4.29571, "state": "F\u00e8s-Mekn\u00e8s"}, {"city": "Imider", "latitude": 31.37324, "longitude": -5.79384, "state": "Dr\u00e2a-Tafilalet"}, {"city": "Imi-n-Tanout", "latitude": 31.17213, "longitude": -8.84728, "state": "Marrakesh-Safi"}, {"city": "Imilchil", "latitude": 32.15309, "longitude": -5.62453, "state": "Dr\u00e2a-Tafilalet"}, {"city": "Iguidi", "latitude": 30.83826, "longitude": -7.90294, "state": "Souss-Massa"}, {"city": "Ifrane", "latitude": 33.52666, "longitude": -5.11019, "state": "F\u00e8s-Mekn\u00e8s"}, {"city": "Hassi Berkane", "latitude": 34.83898, "longitude": -2.86699, "state": "Oriental"}, {"city": "Haj Kaddour", "latitude": 33.82507, "longitude": -5.42501, "state": "F\u00e8s-Mekn\u00e8s"}, {"city": "Zerkten", "latitude": 31.4447, "longitude": -7.39224, "state": "Marrakesh-Safi"}, {"city": "Had Kourt", "latitude": 34.61588, "longitude": -5.7404, "state": "Rabat-Sal\u00e9-K\u00e9nitra"}, {"city": "Oulad Frej", "latitude": 32.95956, "longitude": -8.2274, "state": "Casablanca-Settat"}, {"city": "Had Abdallah Rhiat", "latitude": 31.51914, "longitude": -7.83691, "state": "Marrakesh-Safi"}, {"city": "Guisser", "latitude": 32.76645, "longitude": -7.49818, "state": "Casablanca-Settat"}, {"city": "Guercif", "latitude": 34.22568, "longitude": -3.35361, "state": "F\u00e8s-Mekn\u00e8s"}, {"city": "Guenfouda", "latitude": 34.48361, "longitude": -2.04562, "state": "Oriental"}, {"city": "Guelmim", "latitude": 28.98696, "longitude": -10.05738, "state": "Guelmim-Oued Noun"}, {"city": "Gourrama", "latitude": 32.34016, "longitude": -4.07349, "state": "Dr\u00e2a-Tafilalet"}, {"city": "Goulmima", "latitude": 31.69227, "longitude": -4.95256, "state": "Dr\u00e2a-Tafilalet"}, {"city": "Ghafsa\u00ef", "latitude": 34.62799, "longitude": -4.91266, "state": "F\u00e8s-Mekn\u00e8s"}, {"city": "Galaz", "latitude": 34.54424, "longitude": -4.80355, "state": "F\u00e8s-Mekn\u00e8s"}, {"city": "Foum Zguid", "latitude": 30.08792, "longitude": -6.87119, "state": "Souss-Massa"}, {"city": "Fnidek", "latitude": 35.84906, "longitude": -5.35747, "state": "Tanger-Tetouan-Al Hoceima"}, {"city": "Al Fqih Ben \u00c7alah", "latitude": 32.50213, "longitude": -6.68771, "state": "B\u00e9ni Mellal-Kh\u00e9nifra"}, {"city": "Figuig (Centre)", "latitude": 32.10891, "longitude": -1.22855, "state": "Oriental"}, {"city": "Fifi", "latitude": 34.94873, "longitude": -5.24798, "state": "Tanger-Tetouan-Al Hoceima"}, {"city": "Fezna", "latitude": 31.52921, "longitude": -4.45562, "state": "Dr\u00e2a-Tafilalet"}, {"city": "New Fes", "latitude": 34.05466, "longitude": -5.00725, "state": "F\u00e8s-Mekn\u00e8s"}, {"city": "F\u00e8s al Bali", "latitude": 34.0701, "longitude": -4.95473, "state": "F\u00e8s-Mekn\u00e8s"}, {"city": "Fes", "latitude": 34.03313, "longitude": -5.00028, "state": "F\u00e8s-Mekn\u00e8s"}, {"city": "Ezzhiliga", "latitude": 33.3, "longitude": -6.53, "state": "Rabat-Sal\u00e9-K\u00e9nitra"}, {"city": "Bni Hadifa", "latitude": 35.02251, "longitude": -4.14009, "state": "Tanger-Tetouan-Al Hoceima"}, {"city": "Tlet El Hanchane", "latitude": 31.52207, "longitude": -9.43594, "state": "Marrakesh-Safi"}, {"city": "Essekhinat", "latitude": 34.03394, "longitude": -4.86151, "state": "F\u00e8s-Mekn\u00e8s"}, {"city": "Essaouira", "latitude": 31.5125, "longitude": -9.77, "state": "Marrakesh-Safi"}, {"city": "Arfoud", "latitude": 31.4353, "longitude": -4.23258, "state": "Dr\u00e2a-Tafilalet"}, {"city": "El Menzel", "latitude": 33.83758, "longitude": -4.54472, "state": "F\u00e8s-Mekn\u00e8s"}, {"city": "El Ksiba", "latitude": 32.57286, "longitude": -6.01947, "state": "B\u00e9ni Mellal-Kh\u00e9nifra"}, {"city": "Zemamra", "latitude": 32.62287, "longitude": -8.70227, "state": "Casablanca-Settat"}, {"city": "El Kelaa des Srarhna", "latitude": 32.05121, "longitude": -7.41079, "state": "Marrakesh-Safi"}, {"city": "Kelaat Mgouna", "latitude": 31.24573, "longitude": -6.1326, "state": "Dr\u00e2a-Tafilalet"}, {"city": "Al Qbab", "latitude": 32.74121, "longitude": -5.51994, "state": "B\u00e9ni Mellal-Kh\u00e9nifra"}, {"city": "El Jadida", "latitude": 33.25682, "longitude": -8.50882, "state": "Casablanca-Settat"}, {"city": "Jebha", "latitude": 35.20549, "longitude": -4.66524, "state": "Tanger-Tetouan-Al Hoceima"}, {"city": "El Harhoura", "latitude": 33.94483, "longitude": -6.93106, "state": "Rabat-Sal\u00e9-K\u00e9nitra"}, {"city": "El Hajeb", "latitude": 33.68786, "longitude": -5.371, "state": "F\u00e8s-Mekn\u00e8s"}, {"city": "Had Hrara", "latitude": 32.44072, "longitude": -9.13344, "state": "Marrakesh-Safi"}, {"city": "El Gara", "latitude": 33.27732, "longitude": -7.23236, "state": "Casablanca-Settat"}, {"city": "Al Brouj", "latitude": 32.50467, "longitude": -7.19238, "state": "Casablanca-Settat"}, {"city": "Arbaa Laaounate", "latitude": 32.7434, "longitude": -8.19501, "state": "Casablanca-Settat"}, {"city": "Ouaoula", "latitude": 31.87, "longitude": -6.75, "state": "B\u00e9ni Mellal-Kh\u00e9nifra"}, {"city": "Laouamra", "latitude": 35.06938, "longitude": -6.08835, "state": "Tanger-Tetouan-Al Hoceima"}, {"city": "El Akarta", "latitude": 32.67372, "longitude": -9.09502, "state": "Marrakesh-Safi"}, {"city": "El A\u00efoun", "latitude": 34.58319, "longitude": -2.50612, "state": "Oriental"}, {"city": "Imzouren", "latitude": 35.14637, "longitude": -3.85063, "state": "Tanger-Tetouan-Al Hoceima"}, {"city": "Driouch", "latitude": 34.97705, "longitude": -3.37902, "state": "Oriental"}, {"city": "Douar Toulal", "latitude": 33.88483, "longitude": -5.59664, "state": "F\u00e8s-Mekn\u00e8s"}, {"city": "Douar el Ca\u00efd el Gueddari", "latitude": 34.42121, "longitude": -6.09099, "state": "Rabat-Sal\u00e9-K\u00e9nitra"}, {"city": "Ad Darwa", "latitude": 33.37487, "longitude": -7.5356, "state": "Casablanca-Settat"}, {"city": "Derdara", "latitude": 35.11041, "longitude": -5.29015, "state": "Tanger-Tetouan-Al Hoceima"}, {"city": "Demnate", "latitude": 31.73443, "longitude": -7.00505, "state": "B\u00e9ni Mellal-Kh\u00e9nifra"}, {"city": "Debdou", "latitude": 33.98228, "longitude": -3.04263, "state": "Oriental"}, {"city": "Riah", "latitude": 33.15122, "longitude": -7.37504, "state": "Casablanca-Settat"}, {"city": "Dar Ould Zidouh", "latitude": 32.31247, "longitude": -6.90494, "state": "B\u00e9ni Mellal-Kh\u00e9nifra"}, {"city": "Dar Bouazza", "latitude": 33.51535, "longitude": -7.81677, "state": "Casablanca-Settat"}, {"city": "Dar Chaoui", "latitude": 35.5377, "longitude": -5.71742, "state": "Tanger-Tetouan-Al Hoceima"}, {"city": "Ben Qarrich", "latitude": 35.5109, "longitude": -5.42047, "state": "Tanger-Tetouan-Al Hoceima"}, {"city": "Chichaoua", "latitude": 31.54351, "longitude": -8.76275, "state": "Marrakesh-Safi"}, {"city": "Echemmaia Est", "latitude": 32.08102, "longitude": -8.62458, "state": "Marrakesh-Safi"}, {"city": "Chefchaouen", "latitude": 35.16878, "longitude": -5.2636, "state": "Tanger-Tetouan-Al Hoceima"}, {"city": "Casablanca", "latitude": 33.58831, "longitude": -7.61138, "state": "Casablanca-Settat"}, {"city": "Bzou", "latitude": 32.09171, "longitude": -7.04786, "state": "B\u00e9ni Mellal-Kh\u00e9nifra"}, {"city": "Brikcha", "latitude": 34.96732, "longitude": -5.57295, "state": "Tanger-Tetouan-Al Hoceima"}, {"city": "Bouznika", "latitude": 33.78942, "longitude": -7.15968, "state": "Casablanca-Settat"}, {"city": "Bouskoura", "latitude": 33.44976, "longitude": -7.65239, "state": "Casablanca-Settat"}, {"city": "Boure\u00eft", "latitude": 34.99827, "longitude": -4.89297, "state": "Tanger-Tetouan-Al Hoceima"}, {"city": "Boumia", "latitude": 32.7236, "longitude": -5.1025, "state": "B\u00e9ni Mellal-Kh\u00e9nifra"}, {"city": "Boumalne Dades", "latitude": 31.37986, "longitude": -5.98819, "state": "Dr\u00e2a-Tafilalet"}, {"city": "Boulemane", "latitude": 33.36376, "longitude": -4.72896, "state": "F\u00e8s-Mekn\u00e8s"}, {"city": "Boulaouane", "latitude": 32.85995, "longitude": -8.05555, "state": "Casablanca-Settat"}, {"city": "Bou Izakarn", "latitude": 29.17705, "longitude": -9.71181, "state": "Guelmim-Oued Noun"}, {"city": "Bou Fekrane", "latitude": 33.76097, "longitude": -5.48748, "state": "F\u00e8s-Mekn\u00e8s"}, {"city": "Boudinar", "latitude": 35.15601, "longitude": -3.62358, "state": "Oriental"}, {"city": "Boudenib", "latitude": 31.95229, "longitude": -3.60604, "state": "Dr\u00e2a-Tafilalet"}, {"city": "Bouarfa", "latitude": 32.53379, "longitude": -1.96209, "state": "Oriental"}, {"city": "Bou\u2019nane", "latitude": 32.03738, "longitude": -3.04978, "state": "Oriental"}, {"city": "Bouabout", "latitude": 31.26554, "longitude": -9.17865, "state": "Marrakesh-Safi"}, {"city": "Bir Jdid", "latitude": 33.37362, "longitude": -7.99462, "state": "Casablanca-Settat"}, {"city": "Bigoudine", "latitude": 30.72376, "longitude": -9.21097, "state": "Souss-Massa"}, {"city": "Bhalil", "latitude": 33.85194, "longitude": -4.87228, "state": "F\u00e8s-Mekn\u00e8s"}, {"city": "Berkane", "latitude": 34.92, "longitude": -2.32, "state": "Oriental"}, {"city": "Ben Taieb", "latitude": 35.04427, "longitude": -3.45418, "state": "Oriental"}, {"city": "Benslimane", "latitude": 33.61601, "longitude": -7.12153, "state": "Casablanca-Settat"}, {"city": "Ben Jerrar", "latitude": 30.26224, "longitude": -9.50377, "state": "Souss-Massa"}, {"city": "Bni Tajjit", "latitude": 32.28928, "longitude": -3.46616, "state": "Oriental"}, {"city": "Beni Mellal", "latitude": 32.33725, "longitude": -6.34983, "state": "B\u00e9ni Mellal-Kh\u00e9nifra"}, {"city": "Beni Enzar", "latitude": 35.26, "longitude": -2.93, "state": "Oriental"}, {"city": "Bni Drar", "latitude": 34.86005, "longitude": -1.98979, "state": "Oriental"}, {"city": "Ben Guerir", "latitude": 32.24088, "longitude": -7.95397, "state": "Marrakesh-Safi"}, {"city": "Ben Ahmed", "latitude": 33.06635, "longitude": -7.24161, "state": "Casablanca-Settat"}, {"city": "Berrechid", "latitude": 33.26553, "longitude": -7.58754, "state": "Casablanca-Settat"}, {"city": "Bab Taza", "latitude": 35.06166, "longitude": -5.19828, "state": "Tanger-Tetouan-Al Hoceima"}, {"city": "Azrou", "latitude": 33.43443, "longitude": -5.22126, "state": "F\u00e8s-Mekn\u00e8s"}, {"city": "Azilal", "latitude": 31.96156, "longitude": -6.57109, "state": "B\u00e9ni Mellal-Kh\u00e9nifra"}, {"city": "Azgour", "latitude": 31.13753, "longitude": -8.31488, "state": "Marrakesh-Safi"}, {"city": "Azemmour", "latitude": 33.28952, "longitude": -8.3425, "state": "Casablanca-Settat"}, {"city": "Assoul", "latitude": 31.95286, "longitude": -5.20812, "state": "Dr\u00e2a-Tafilalet"}, {"city": "Assads", "latitude": 30.23, "longitude": -8.86, "state": "Souss-Massa"}, {"city": "Assa", "latitude": 28.60986, "longitude": -9.42986, "state": "Guelmim-Oued Noun"}, {"city": "Asilah", "latitude": 35.46522, "longitude": -6.03415, "state": "Tanger-Tetouan-Al Hoceima"}, {"city": "Ar Rommani", "latitude": 33.52838, "longitude": -6.60348, "state": "Rabat-Sal\u00e9-K\u00e9nitra"}, {"city": "Aghbalou N Sardane", "latitude": 32.67953, "longitude": -5.29854, "state": "Dr\u00e2a-Tafilalet"}, {"city": "Aghbala", "latitude": 32.48076, "longitude": -5.64295, "state": "B\u00e9ni Mellal-Kh\u00e9nifra"}, {"city": "Argana", "latitude": 30.7825, "longitude": -9.11968, "state": "Souss-Massa"}, {"city": "Arbaoua", "latitude": 34.90239, "longitude": -5.94871, "state": "Rabat-Sal\u00e9-K\u00e9nitra"}, {"city": "Arazane", "latitude": 30.50346, "longitude": -8.60637, "state": "Souss-Massa"}, {"city": "Aourir", "latitude": 30.49238, "longitude": -9.6355, "state": "Souss-Massa"}, {"city": "Aoulouz", "latitude": 30.67307, "longitude": -8.18087, "state": "Souss-Massa"}, {"city": "Aoufous", "latitude": 31.68, "longitude": -4.17, "state": "Dr\u00e2a-Tafilalet"}, {"city": "Amouguer", "latitude": 32.27491, "longitude": -4.93535, "state": "Dr\u00e2a-Tafilalet"}, {"city": "Amizmiz", "latitude": 31.21673, "longitude": -8.23184, "state": "Marrakesh-Safi"}, {"city": "Amerzgane", "latitude": 31.0437, "longitude": -7.21037, "state": "Dr\u00e2a-Tafilalet"}, {"city": "Amersid", "latitude": 32.74983, "longitude": -4.47063, "state": "B\u00e9ni Mellal-Kh\u00e9nifra"}, {"city": "Amalou", "latitude": 30.19153, "longitude": -8.74873, "state": "Souss-Massa"}, {"city": "Alnif", "latitude": 31.11411, "longitude": -5.17154, "state": "Dr\u00e2a-Tafilalet"}, {"city": "Almis du Guigou", "latitude": 33.38738, "longitude": -4.82927, "state": "F\u00e8s-Mekn\u00e8s"}, {"city": "Almis Marmoucha", "latitude": 33.32, "longitude": -4.18, "state": "F\u00e8s-Mekn\u00e8s"}, {"city": "Al M\u2019aziz", "latitude": 33.67073, "longitude": -6.31613, "state": "Rabat-Sal\u00e9-K\u00e9nitra"}, {"city": "El Mansouria", "latitude": 33.74643, "longitude": -7.30194, "state": "Casablanca-Settat"}, {"city": "Beni Yakhlef", "latitude": 33.68407, "longitude": -7.33924, "state": "Casablanca-Settat"}, {"city": "Khemisset", "latitude": 33.82404, "longitude": -6.06627, "state": "Rabat-Sal\u00e9-K\u00e9nitra"}, {"city": "Al Hoce\u00efma", "latitude": 35.25165, "longitude": -3.93723, "state": "Tanger-Tetouan-Al Hoceima"}, {"city": "Aknoul", "latitude": 34.65371, "longitude": -3.86754, "state": "F\u00e8s-Mekn\u00e8s"}, {"city": "Akka", "latitude": 29.38914, "longitude": -8.2549, "state": "Souss-Massa"}, {"city": "Ajdir", "latitude": 35.19537, "longitude": -3.91166, "state": "Tanger-Tetouan-Al Hoceima"}, {"city": "Ajdir", "latitude": 34.74347, "longitude": -3.97582, "state": "F\u00e8s-Mekn\u00e8s"}, {"city": "Ait Yazza", "latitude": 30.50188, "longitude": -8.79917, "state": "Souss-Massa"}, {"city": "Ait Ourir", "latitude": 31.56517, "longitude": -7.66163, "state": "Marrakesh-Safi"}, {"city": "Anergui", "latitude": 32.06914, "longitude": -5.93961, "state": "B\u00e9ni Mellal-Kh\u00e9nifra"}, {"city": "A\u00efn Taoujdat", "latitude": 33.93575, "longitude": -5.21328, "state": "F\u00e8s-Mekn\u00e8s"}, {"city": "Ain Erreggada", "latitude": 34.93348, "longitude": -2.22995, "state": "Oriental"}, {"city": "A\u00efn Leuh", "latitude": 33.28984, "longitude": -5.33863, "state": "F\u00e8s-Mekn\u00e8s"}, {"city": "A\u00efn Harrouda", "latitude": 33.63737, "longitude": -7.44971, "state": "Casablanca-Settat"}, {"city": "A\u00efn Jemaa", "latitude": 34.0259, "longitude": -5.79355, "state": "F\u00e8s-Mekn\u00e8s"}, {"city": "Ain Dourij", "latitude": 34.61427, "longitude": -5.28733, "state": "Tanger-Tetouan-Al Hoceima"}, {"city": "A\u00efn Cheggag", "latitude": 33.89286, "longitude": -5.03699, "state": "F\u00e8s-Mekn\u00e8s"}, {"city": "A\u00efn Beni Mathar", "latitude": 34.0097, "longitude": -2.03238, "state": "Oriental"}, {"city": "Ain El Aouda", "latitude": 33.80333, "longitude": -6.79461, "state": "Rabat-Sal\u00e9-K\u00e9nitra"}, {"city": "Ain Aicha", "latitude": 34.46103, "longitude": -4.69026, "state": "F\u00e8s-Mekn\u00e8s"}, {"city": "Ahfir", "latitude": 34.95368, "longitude": -2.10027, "state": "Oriental"}, {"city": "Aguelmous", "latitude": 33.16139, "longitude": -5.84626, "state": "B\u00e9ni Mellal-Kh\u00e9nifra"}, {"city": "Agoura\u00ef", "latitude": 33.63, "longitude": -5.58, "state": "F\u00e8s-Mekn\u00e8s"}, {"city": "Agdz", "latitude": 30.69356, "longitude": -6.44628, "state": "Dr\u00e2a-Tafilalet"}, {"city": "Agadir Melloul", "latitude": 30.22492, "longitude": -7.79601, "state": "Souss-Massa"}, {"city": "Agadir", "latitude": 30.42018, "longitude": -9.59815, "state": "Souss-Massa"}, {"city": "Afourer", "latitude": 32.20721, "longitude": -6.53824, "state": "B\u00e9ni Mellal-Kh\u00e9nifra"}, {"city": "Adassil", "latitude": 31.10783, "longitude": -8.49083, "state": "Marrakesh-Safi"}, {"city": "Adar", "latitude": 30.14111, "longitude": -8.37221, "state": "Souss-Massa"}, {"city": "Skhirate", "latitude": 33.8527, "longitude": -7.03171, "state": "Rabat-Sal\u00e9-K\u00e9nitra"}, {"city": "Abadou", "latitude": 31.57917, "longitude": -7.31308, "state": "Marrakesh-Safi"}, {"city": "Had Beni Chiker", "latitude": 35.27652, "longitude": -3.01452, "state": "Oriental"}, {"city": "Aklim", "latitude": 34.92, "longitude": -2.43, "state": "Oriental"}, {"city": "Mellila", "latitude": 33.38, "longitude": -7.14, "state": "Casablanca-Settat"}, {"city": "Tidili Mesfioua", "latitude": 31.46586, "longitude": -7.61199, "state": "Marrakesh-Safi"}, {"city": "Mhamid", "latitude": 29.82, "longitude": -5.72, "state": "Dr\u00e2a-Tafilalet"}, {"city": "Taghazout", "latitude": 30.54259, "longitude": -9.71115, "state": "Souss-Massa"}, {"city": "Tamri", "latitude": 30.69602, "longitude": -9.82972, "state": "Souss-Massa"}, {"city": "Smimou", "latitude": 31.21014, "longitude": -9.70863, "state": "Marrakesh-Safi"}, {"city": "Tizgane", "latitude": 35.41211, "longitude": -5.06836, "state": "Tanger-Tetouan-Al Hoceima"}, {"city": "Bouarouss", "latitude": 34.36, "longitude": -4.81, "state": "F\u00e8s-Mekn\u00e8s"}, {"city": "Azla", "latitude": 35.55303, "longitude": -5.24472, "state": "Tanger-Tetouan-Al Hoceima"}, {"city": "Boukhalef", "latitude": 35.7328, "longitude": -5.89954, "state": "Tanger-Tetouan-Al Hoceima"}, {"city": "Jebel Tiskaouine", "latitude": 31.02722, "longitude": -5.11643, "state": "Dr\u00e2a-Tafilalet"}, {"city": "Zerarda", "latitude": 33.97, "longitude": -4.38, "state": "F\u00e8s-Mekn\u00e8s"}, {"city": "Ribat Al Khayr", "latitude": 33.81518, "longitude": -4.40717, "state": "F\u00e8s-Mekn\u00e8s"}, {"city": "Boujniba", "latitude": 32.90046, "longitude": -6.77464, "state": "B\u00e9ni Mellal-Kh\u00e9nifra"}, {"city": "Errachidia", "latitude": 31.9314, "longitude": -4.42663, "state": "Dr\u00e2a-Tafilalet"}, {"city": "Tamesna", "latitude": 33.81809, "longitude": -6.91658, "state": "Rabat-Sal\u00e9-K\u00e9nitra"}, {"city": "Touarga", "latitude": 34.01011, "longitude": -6.8317, "state": "Rabat-Sal\u00e9-K\u00e9nitra"}, {"city": "Sidi Abdallah Ghiat", "latitude": 31.523, "longitude": -7.833, "state": "Marrakesh-Safi"}, {"city": "Tamansourt", "latitude": 31.755, "longitude": -8.11, "state": "Marrakesh-Safi"}, {"city": "Dakhla", "latitude": 30.41145, "longitude": -9.55344, "state": "Souss-Massa"}, {"city": "Aghmat", "latitude": 31.4225, "longitude": -7.80111, "state": "Marrakesh-Safi"}, {"city": "Sidi Bouzid", "latitude": 33.23151, "longitude": -8.55062, "state": "Casablanca-Settat"}, {"city": "Douar Sidi Bouafif", "latitude": 35.17244, "longitude": -3.86732, "state": "Tanger-Tetouan-Al Hoceima"}, {"city": "Mosqu\u00e9e", "latitude": 34.80622, "longitude": -2.41297, "state": "Oriental"}, {"city": "Akhfennir", "latitude": 28.09455, "longitude": -12.05157, "state": "La\u00e2youne-Sakia El Hamra"}, {"city": "Gueltat Zemmour", "latitude": 25.14276, "longitude": -12.37168, "state": "La\u00e2youne-Sakia El Hamra"}, {"city": "Dchira El Jihadia", "latitude": 30.37345, "longitude": -9.54761, "state": "Souss-Massa"}, {"city": "Ait Melloul", "latitude": 30.34164, "longitude": -9.50356, "state": "Souss-Massa"}, {"city": "Tine Biougra", "latitude": 30.20942, "longitude": -9.37922, "state": "Souss-Massa"}, {"city": "Lqoliaa", "latitude": 30.29759, "longitude": -9.46597, "state": "Souss-Massa"}, {"city": "Oadar Temsia", "latitude": 30.36531, "longitude": -9.41044, "state": "Souss-Massa"}, {"city": "My Drarga", "latitude": 30.37733, "longitude": -9.47342, "state": "Souss-Massa"}, {"city": "Sidi Ahmed", "latitude": 32.20807, "longitude": -8.49141, "state": "Marrakesh-Safi"}, {"city": "Sebt El Maarif", "latitude": 32.50149, "longitude": -8.57453, "state": "Casablanca-Settat"}, {"city": "Sidi Taibi", "latitude": 34.18698, "longitude": -6.68176, "state": "Rabat-Sal\u00e9-K\u00e9nitra"}, {"city": "Bellaa", "latitude": 30.05145, "longitude": -9.56162, "state": "Souss-Massa"}, {"city": "Loudaya", "latitude": 31.63348, "longitude": -8.24893, "state": "Marrakesh-Safi"}, {"city": "Zawit Al Bour", "latitude": 30.67478, "longitude": -8.17424, "state": "Souss-Massa"}, {"city": "Sal\u00e9 Al Jadida", "latitude": 33.99722, "longitude": -6.74047, "state": "Rabat-Sal\u00e9-K\u00e9nitra"}, {"city": "Had Oulad Zbair", "latitude": 34.2894, "longitude": -4.31952, "state": "F\u00e8s-Mekn\u00e8s"}, {"city": "Cap Negro II", "latitude": 35.6597, "longitude": -5.28525, "state": "Tanger-Tetouan-Al Hoceima"}, {"city": "Bni Bouayach", "latitude": 35.10506, "longitude": -3.84028, "state": "Tanger-Tetouan-Al Hoceima"}, {"city": "Souq Khmis A\u00eft Yadine", "latitude": 33.9716, "longitude": -6.01689, "state": "Rabat-Sal\u00e9-K\u00e9nitra"}, {"city": "Sebt Jahjouh", "latitude": 33.71581, "longitude": -5.6687, "state": "F\u00e8s-Mekn\u00e8s"}, {"city": "Ain Karma", "latitude": 34.00664, "longitude": -5.6157, "state": "F\u00e8s-Mekn\u00e8s"}, {"city": "Bouderbala", "latitude": 33.81672, "longitude": -5.27583, "state": "F\u00e8s-Mekn\u00e8s"}, {"city": "Lemhaya", "latitude": 33.97716, "longitude": -5.251, "state": "F\u00e8s-Mekn\u00e8s"}, {"city": "Sabaa Aiyoun", "latitude": 33.90331, "longitude": -5.36868, "state": "F\u00e8s-Mekn\u00e8s"}, {"city": "Imlili", "latitude": 22.6558, "longitude": -15.60719, "state": "Dakhla-Oued Ed-Dahab"}, {"city": "Korouna", "latitude": 35.11628, "longitude": -3.64215, "state": "Oriental"}, {"city": "Souk El Arba Des A\u00eft Baha", "latitude": 30.06958, "longitude": -9.15465, "state": "Souss-Massa"}, {"city": "Oulad El Rhadabne", "latitude": 33.17521, "longitude": -8.60592, "state": "Casablanca-Settat"}, {"city": "Tighza", "latitude": 33.18739, "longitude": -5.62436, "state": "B\u00e9ni Mellal-Kh\u00e9nifra"}, {"city": "Sidi \u2019Addi", "latitude": 33.3957, "longitude": -5.33341, "state": "F\u00e8s-Mekn\u00e8s"}, {"city": "Souq al Had", "latitude": 33.2923, "longitude": -5.49078, "state": "F\u00e8s-Mekn\u00e8s"}, {"city": "A\u00eft Lous", "latitude": 31.10772, "longitude": -9.34422, "state": "Marrakesh-Safi"}, {"city": "Ait Khallouf", "latitude": 31.26179, "longitude": -9.27259, "state": "Marrakesh-Safi"}, {"city": "Had Bouhssoussen", "latitude": 33.14861, "longitude": -6.07972, "state": "B\u00e9ni Mellal-Kh\u00e9nifra"}, {"city": "Kahf Nssar", "latitude": 32.91361, "longitude": -5.95873, "state": "B\u00e9ni Mellal-Kh\u00e9nifra"}, {"city": "Ighram Laalam", "latitude": 32.52378, "longitude": -6.14977, "state": "B\u00e9ni Mellal-Kh\u00e9nifra"}, {"city": "Ouaouizeght", "latitude": 32.15872, "longitude": -6.35408, "state": "B\u00e9ni Mellal-Kh\u00e9nifra"}, {"city": "Hattane", "latitude": 32.84085, "longitude": -6.80027, "state": "B\u00e9ni Mellal-Kh\u00e9nifra"}, {"city": "Beja\u00e2d", "latitude": 32.77133, "longitude": -6.39231, "state": "B\u00e9ni Mellal-Kh\u00e9nifra"}, {"city": "Moulay Ali Cherif", "latitude": 31.28244, "longitude": -4.26541, "state": "Dr\u00e2a-Tafilalet"}, {"city": "N'zalat", "latitude": 34.12301, "longitude": -5.43068, "state": "F\u00e8s-Mekn\u00e8s"}, {"city": "Kantina", "latitude": 33.73177, "longitude": -5.57938, "state": "F\u00e8s-Mekn\u00e8s"}, {"city": "Al Machouar - Stinia", "latitude": 33.88543, "longitude": -5.55574, "state": "F\u00e8s-Mekn\u00e8s"}, {"city": "Zoualet", "latitude": 33.93664, "longitude": -5.46514, "state": "F\u00e8s-Mekn\u00e8s"}, {"city": "Ouislane", "latitude": 33.91406, "longitude": -5.48969, "state": "F\u00e8s-Mekn\u00e8s"}, {"city": "Oulad Amrane", "latitude": 32.39313, "longitude": -8.51993, "state": "Casablanca-Settat"}, {"city": "M\u00e9chouar de Casablanca", "latitude": 33.57918, "longitude": -7.60615, "state": "Casablanca-Settat"}, {"city": "Ras El A\u00efn", "latitude": 32.98253, "longitude": -7.3975, "state": "Casablanca-Settat"}, {"city": "Sidi Ali Ben Hamdouche", "latitude": 33.28665, "longitude": -8.32664, "state": "Casablanca-Settat"}, {"city": "Oulad M'Rah", "latitude": 32.91284, "longitude": -7.26438, "state": "Casablanca-Settat"}, {"city": "Had Soualem", "latitude": 33.41972, "longitude": -7.85237, "state": "Casablanca-Settat"}, {"city": "Lahraouyine", "latitude": 33.54138, "longitude": -7.52848, "state": "Casablanca-Settat"}, {"city": "Lakhsas", "latitude": 29.36606, "longitude": -9.75082, "state": "Guelmim-Oued Noun"}, {"city": "El Ouatia", "latitude": 28.49624, "longitude": -11.33268, "state": "Guelmim-Oued Noun"}, {"city": "M'Nabha", "latitude": 31.86662, "longitude": -8.18195, "state": "Marrakesh-Safi"}, {"city": "M\u00e9chouar-Kasba", "latitude": 31.6008, "longitude": -7.98653, "state": "Marrakesh-Safi"}, {"city": "La\u00e2ttaouia", "latitude": 31.83532, "longitude": -7.31431, "state": "Marrakesh-Safi"}, {"city": "Kassita", "latitude": 34.89025, "longitude": -3.72657, "state": "Oriental"}, {"city": "Bouizazarene Ihaddadene", "latitude": 35.15779, "longitude": -2.97377, "state": "Oriental"}, {"city": "Sidi Slimane Echcharaa", "latitude": 34.90818, "longitude": -2.35055, "state": "Oriental"}, {"city": "Zirara", "latitude": 34.24099, "longitude": -5.7424, "state": "Rabat-Sal\u00e9-K\u00e9nitra"}, {"city": "Mers El Kheir", "latitude": 33.86262, "longitude": -6.92964, "state": "Rabat-Sal\u00e9-K\u00e9nitra"}, {"city": "A\u00efn Attig", "latitude": 33.88758, "longitude": -6.96807, "state": "Rabat-Sal\u00e9-K\u00e9nitra"}, {"city": "Souk El Arbaa", "latitude": 34.68473, "longitude": -6.00344, "state": "Rabat-Sal\u00e9-K\u00e9nitra"}, {"city": "Fam El Hisn", "latitude": 29.01889, "longitude": -8.89111, "state": "Souss-Massa"}, {"city": "El Guerdane", "latitude": 30.37757, "longitude": -9.01997, "state": "Souss-Massa"}, {"city": "Karia", "latitude": 35.4665, "longitude": -5.79715, "state": "Tanger-Tetouan-Al Hoceima"}, {"city": "Issaguen", "latitude": 34.91875, "longitude": -4.56889, "state": "Tanger-Tetouan-Al Hoceima"}, {"city": "Idmine", "latitude": 30.61064, "longitude": -9.34996, "state": "Souss-Massa"}]