[{"city": "Yayas de Viajama", "latitude": 18.6071, "longitude": -70.92753, "state": "Azua Province"}, {"city": "Yamas\u00e1", "latitude": 18.77315, "longitude": -70.02583, "state": "Monte Plata Province"}, {"city": "Yaguate", "latitude": 18.3353, "longitude": -70.18113, "state": "San Crist\u00f3bal"}, {"city": "Villa V\u00e1squez", "latitude": 19.7411, "longitude": -71.4464, "state": "Monte Cristi Province"}, {"city": "Villa Tapia", "latitude": 19.30084, "longitude": -70.42199, "state": "Hermanas Mirabal"}, {"city": "Villarpando", "latitude": 18.6586, "longitude": -71.03916, "state": "Azua Province"}, {"city": "Villa Riva", "latitude": 19.18069, "longitude": -69.91319, "state": "Duarte Province"}, {"city": "Villa Jaragua", "latitude": 18.49077, "longitude": -71.48377, "state": "Baoruco Province"}, {"city": "Villa Isabela", "latitude": 19.81564, "longitude": -71.06056, "state": "Puerto Plata"}, {"city": "Villa Gonz\u00e1lez", "latitude": 19.54057, "longitude": -70.78853, "state": "Santiago Province"}, {"city": "Villa Francisca", "latitude": 18.48278, "longitude": -69.88914, "state": "Nacional"}, {"city": "Villa Elisa", "latitude": 19.6856, "longitude": -71.27007, "state": "Monte Cristi Province"}, {"city": "Villa Consuelo", "latitude": 18.48333, "longitude": -69.9, "state": "Nacional"}, {"city": "Villa Bison\u00f3", "latitude": 19.56378, "longitude": -70.87582, "state": "Santiago Province"}, {"city": "Villa Altagracia", "latitude": 18.67297, "longitude": -70.17095, "state": "San Crist\u00f3bal"}, {"city": "Vicente Noble", "latitude": 18.38443, "longitude": -71.18009, "state": "Barahona Province"}, {"city": "Veragua Arriba", "latitude": 19.58333, "longitude": -70.33333, "state": "Espaillat Province"}, {"city": "Vallejuelo", "latitude": 18.65354, "longitude": -71.33431, "state": "San Juan Province"}, {"city": "Tireo Arriba", "latitude": 18.93537, "longitude": -70.6885, "state": "La Vega"}, {"city": "Tenares", "latitude": 19.37439, "longitude": -70.35087, "state": "Hermanas Mirabal"}, {"city": "Tamboril", "latitude": 19.48538, "longitude": -70.61104, "state": "Santiago Province"}, {"city": "Tamayo", "latitude": 18.3947, "longitude": -71.2029, "state": "Baoruco Province"}, {"city": "T\u00e1bara Arriba", "latitude": 18.56999, "longitude": -70.87978, "state": "Azua Province"}, {"city": "Sos\u00faa", "latitude": 19.7522, "longitude": -70.51995, "state": "Puerto Plata"}, {"city": "San V\u00edctor Arriba", "latitude": 19.47741, "longitude": -70.53585, "state": "Espaillat Province"}, {"city": "Santo Domingo", "latitude": 18.47186, "longitude": -69.89232, "state": "Nacional"}, {"city": "Santiago de los Caballeros", "latitude": 19.4517, "longitude": -70.69703, "state": "Santiago Province"}, {"city": "Santa Cruz de El Seibo", "latitude": 18.76559, "longitude": -69.03886, "state": "El Se\u00edbo"}, {"city": "Santa Cruz de Barahona", "latitude": 18.20854, "longitude": -71.10077, "state": "Barahona Province"}, {"city": "Saman\u00e1", "latitude": 19.20404, "longitude": -69.33407, "state": null}, {"city": "San Rafael del Yuma", "latitude": 18.42993, "longitude": -68.6739, "state": "La Altagracia Province"}, {"city": "San Pedro de Macor\u00eds", "latitude": 18.4539, "longitude": -69.30864, "state": null}, {"city": "San Juan de la Maguana", "latitude": 18.80588, "longitude": -71.22991, "state": "San Juan Province"}, {"city": "San Jos\u00e9 de Ocoa", "latitude": 18.54661, "longitude": -70.50631, "state": null}, {"city": "San Jos\u00e9 de Las Matas", "latitude": 19.33915, "longitude": -70.93819, "state": "Santiago Province"}, {"city": "San Gregorio de Nigua", "latitude": 18.38336, "longitude": -70.05241, "state": "San Crist\u00f3bal"}, {"city": "San Francisco de Macor\u00eds", "latitude": 19.30099, "longitude": -70.25259, "state": "Duarte Province"}, {"city": "San Fernando de Monte Cristi", "latitude": 19.84799, "longitude": -71.64604, "state": "Monte Cristi Province"}, {"city": "Puerto Plata", "latitude": 19.79344, "longitude": -70.6884, "state": null}, {"city": "S\u00e1nchez", "latitude": 19.2281, "longitude": -69.6137, "state": "Saman\u00e1"}, {"city": "San Carlos", "latitude": 18.48333, "longitude": -69.9, "state": "Nacional"}, {"city": "Salvale\u00f3n de Hig\u00fcey", "latitude": 18.61501, "longitude": -68.70798, "state": "La Altagracia Province"}, {"city": "Salsipuedes", "latitude": 19.40552, "longitude": -70.37985, "state": "Hermanas Mirabal"}, {"city": "Salcedo", "latitude": 19.37762, "longitude": -70.41762, "state": "Hermanas Mirabal"}, {"city": "Sabaneta", "latitude": 19.47793, "longitude": -71.34125, "state": "Santiago Rodr\u00edguez"}, {"city": "Sabana Yegua", "latitude": 18.71667, "longitude": -71.01667, "state": "Azua Province"}, {"city": "Sabana Iglesia", "latitude": 19.32114, "longitude": -70.75992, "state": "Santiago Province"}, {"city": "Sabana Grande de Palenque", "latitude": 18.26256, "longitude": -70.14821, "state": "San Crist\u00f3bal"}, {"city": "Sabana Grande de Boy\u00e1", "latitude": 18.94498, "longitude": -69.79331, "state": "Monte Plata Province"}, {"city": "Sabana del Puerto", "latitude": 19.06667, "longitude": -70.41667, "state": "Monse\u00f1or Nouel"}, {"city": "Sabana de la Mar", "latitude": 19.05934, "longitude": -69.38843, "state": "Hato Mayor Province"}, {"city": "Sabana Buey", "latitude": 18.27351, "longitude": -70.52352, "state": "Peravia"}, {"city": "R\u00edo Verde Arriba", "latitude": 19.31583, "longitude": -70.56643, "state": "La Vega"}, {"city": "R\u00edo San Juan", "latitude": 19.64385, "longitude": -70.07635, "state": "Mar\u00eda Trinidad S\u00e1nchez"}, {"city": "R\u00edo Limpio", "latitude": 19.24513, "longitude": -71.53077, "state": "El\u00edas Pi\u00f1a"}, {"city": "R\u00edo Grande", "latitude": 19.66667, "longitude": -70.76667, "state": "Puerto Plata"}, {"city": "Rinc\u00f3n", "latitude": 19.11938, "longitude": -70.40632, "state": "La Vega"}, {"city": "Restauraci\u00f3n", "latitude": 19.31532, "longitude": -71.69239, "state": "Dajab\u00f3n"}, {"city": "Ram\u00f3n Santana", "latitude": 18.54224, "longitude": -69.17979, "state": "San Pedro de Macor\u00eds"}, {"city": "Quisqueya", "latitude": 18.55542, "longitude": -69.40814, "state": "San Pedro de Macor\u00eds"}, {"city": "Punta Cana", "latitude": 18.58182, "longitude": -68.40431, "state": "La Altagracia Province"}, {"city": "Pueblo Viejo", "latitude": 18.4, "longitude": -70.76765, "state": "Azua Province"}, {"city": "Postrer R\u00edo", "latitude": 18.54374, "longitude": -71.63561, "state": "Independencia"}, {"city": "Polo", "latitude": 18.07873, "longitude": -71.28723, "state": "Barahona Province"}, {"city": "Pizarrete", "latitude": 18.29935, "longitude": -70.22648, "state": "Peravia"}, {"city": "Pimentel", "latitude": 19.18416, "longitude": -70.10884, "state": "Duarte Province"}, {"city": "Piedra Blanca", "latitude": 18.84431, "longitude": -70.31688, "state": "Monse\u00f1or Nouel"}, {"city": "Pescader\u00eda", "latitude": 18.26766, "longitude": -71.16612, "state": "Barahona Province"}, {"city": "Peralta", "latitude": 18.58164, "longitude": -70.77029, "state": "Azua Province"}, {"city": "Pepillo Salcedo", "latitude": 19.69841, "longitude": -71.74513, "state": "Monte Cristi Province"}, {"city": "Pedro Santana", "latitude": 19.10515, "longitude": -71.69498, "state": "El\u00edas Pi\u00f1a"}, {"city": "Pedro S\u00e1nchez", "latitude": 18.86375, "longitude": -69.10868, "state": "El Se\u00edbo"}, {"city": "Pedro Garc\u00eda", "latitude": 19.59202, "longitude": -70.65256, "state": "Santiago Province"}, {"city": "Pedro Corto", "latitude": 18.84856, "longitude": -71.41041, "state": "San Juan Province"}, {"city": "Pedernales", "latitude": 18.03838, "longitude": -71.74403, "state": "Pedernales Province"}, {"city": "Paya", "latitude": 18.26196, "longitude": -70.2956, "state": "Peravia"}, {"city": "Partido", "latitude": 19.48403, "longitude": -71.5473, "state": "Dajab\u00f3n"}, {"city": "Para\u00edso", "latitude": 17.99172, "longitude": -71.16526, "state": "Barahona Province"}, {"city": "Palmar de Ocoa", "latitude": 18.29656, "longitude": -70.58635, "state": "Azua Province"}, {"city": "Palmar Arriba", "latitude": 19.53957, "longitude": -70.73826, "state": "Santiago Province"}, {"city": "Padre Las Casas", "latitude": 18.73172, "longitude": -70.93917, "state": "Azua Province"}, {"city": "Oviedo", "latitude": 17.80136, "longitude": -71.401, "state": "Pedernales Province"}, {"city": "Otra Banda", "latitude": 18.65017, "longitude": -68.66281, "state": "La Altagracia Province"}, {"city": "Nizao", "latitude": 18.24697, "longitude": -70.21053, "state": "Peravia"}, {"city": "Neiba", "latitude": 18.48137, "longitude": -71.41965, "state": "Baoruco Province"}, {"city": "Nagua", "latitude": 19.3832, "longitude": -69.8474, "state": "Mar\u00eda Trinidad S\u00e1nchez"}, {"city": "Monte Plata", "latitude": 18.807, "longitude": -69.78399, "state": "Monte Plata Province"}, {"city": "Monte Llano", "latitude": 19.7346, "longitude": -70.59915, "state": "Puerto Plata"}, {"city": "Monci\u00f3n", "latitude": 19.41083, "longitude": -71.15257, "state": "Santiago Rodr\u00edguez"}, {"city": "Moca", "latitude": 19.39352, "longitude": -70.52598, "state": "Espaillat Province"}, {"city": "Miches", "latitude": 18.98364, "longitude": -69.0476, "state": "El Se\u00edbo"}, {"city": "Mella", "latitude": 18.35871, "longitude": -71.41716, "state": "Independencia"}, {"city": "Matayaya", "latitude": 18.89036, "longitude": -71.59459, "state": "San Juan Province"}, {"city": "Matanzas", "latitude": 18.24297, "longitude": -70.41768, "state": "Peravia"}, {"city": "Mao", "latitude": 19.55186, "longitude": -71.07813, "state": "Valverde Province"}, {"city": "Majagual", "latitude": 19.04134, "longitude": -69.83616, "state": "Monte Plata Province"}, {"city": "Maizal", "latitude": 19.63655, "longitude": -71.02734, "state": "Valverde Province"}, {"city": "Luper\u00f3n", "latitude": 19.89131, "longitude": -70.96204, "state": "Puerto Plata"}, {"city": "Los R\u00edos", "latitude": 18.52131, "longitude": -71.59106, "state": "Baoruco Province"}, {"city": "Los Llanos", "latitude": 18.62035, "longitude": -69.49581, "state": "San Pedro de Macor\u00eds"}, {"city": "Los Hidalgos", "latitude": 19.73333, "longitude": -71.03333, "state": "Puerto Plata"}, {"city": "Los Botados", "latitude": 18.73226, "longitude": -69.99536, "state": "Monte Plata Province"}, {"city": "Loma de Cabrera", "latitude": 19.43333, "longitude": -71.6, "state": "Dajab\u00f3n"}, {"city": "Licey al Medio", "latitude": 19.43333, "longitude": -70.6, "state": "Santiago Province"}, {"city": "La Uvilla", "latitude": 18.36186, "longitude": -71.21046, "state": "Baoruco Province"}, {"city": "Las Terrenas", "latitude": 19.31102, "longitude": -69.5428, "state": "Saman\u00e1"}, {"city": "Las Salinas", "latitude": 18.27485, "longitude": -71.31596, "state": "Barahona Province"}, {"city": "Las Matas de Santa Cruz", "latitude": 19.67119, "longitude": -71.50471, "state": "Monte Cristi Province"}, {"city": "Las Matas de Farf\u00e1n", "latitude": 18.87309, "longitude": -71.51656, "state": "San Juan Province"}, {"city": "Las Gu\u00e1ranas", "latitude": 19.1931, "longitude": -70.20835, "state": "Duarte Province"}, {"city": "Las Charcas", "latitude": 18.45026, "longitude": -70.61724, "state": "Azua Province"}, {"city": "La Romana", "latitude": 18.42733, "longitude": -68.97285, "state": null}, {"city": "La Julia", "latitude": 18.46667, "longitude": -69.93333, "state": "Nacional"}, {"city": "Laguna Salada", "latitude": 19.65043, "longitude": -71.08429, "state": "Valverde Province"}, {"city": "La Entrada", "latitude": 19.55367, "longitude": -69.90762, "state": "Mar\u00eda Trinidad S\u00e1nchez"}, {"city": "La Descubierta", "latitude": 18.57053, "longitude": -71.72967, "state": "Independencia"}, {"city": "La Ci\u00e9naga", "latitude": 18.06858, "longitude": -71.10651, "state": "Barahona Province"}, {"city": "La Caya", "latitude": 19.69981, "longitude": -71.12084, "state": "Valverde Province"}, {"city": "La Canela", "latitude": 19.47341, "longitude": -70.81629, "state": "Santiago Province"}, {"city": "La Agustina", "latitude": 18.5, "longitude": -69.93333, "state": "Nacional"}, {"city": "Juncalito Abajo", "latitude": 19.2199, "longitude": -70.81905, "state": "Santiago Province"}, {"city": "Juan Santiago", "latitude": 18.70342, "longitude": -71.58971, "state": "El\u00edas Pi\u00f1a"}, {"city": "Juan L\u00f3pez Abajo", "latitude": 19.43333, "longitude": -70.5, "state": "Espaillat Province"}, {"city": "Juan de Herrera", "latitude": 18.87402, "longitude": -71.2383, "state": "San Juan Province"}, {"city": "Juancho", "latitude": 17.85782, "longitude": -71.29311, "state": "Pedernales Province"}, {"city": "Juan Adri\u00e1n", "latitude": 18.76365, "longitude": -70.33732, "state": "Monse\u00f1or Nouel"}, {"city": "Joba Arriba", "latitude": 19.56667, "longitude": -70.26667, "state": "Espaillat Province"}, {"city": "Jiman\u00ed", "latitude": 18.49169, "longitude": -71.85022, "state": "Independencia"}, {"city": "Jima Abajo", "latitude": 19.13292, "longitude": -70.37607, "state": "La Vega"}, {"city": "Jicom\u00e9", "latitude": 19.64955, "longitude": -70.94927, "state": "Valverde Province"}, {"city": "Jarabacoa", "latitude": 19.11683, "longitude": -70.63595, "state": "La Vega"}, {"city": "Jaquimeyes", "latitude": 18.31173, "longitude": -71.16145, "state": "Barahona Province"}, {"city": "Jamao al Norte", "latitude": 19.63552, "longitude": -70.44664, "state": "Espaillat Province"}, {"city": "Jaib\u00f3n", "latitude": 19.61169, "longitude": -71.14847, "state": "Valverde Province"}, {"city": "Imbert", "latitude": 19.75371, "longitude": -70.82906, "state": "Puerto Plata"}, {"city": "Hostos", "latitude": 19.18043, "longitude": -70.02046, "state": "Duarte Province"}, {"city": "Hondo Valle", "latitude": 18.71599, "longitude": -71.69511, "state": "El\u00edas Pi\u00f1a"}, {"city": "Hato Mayor del Rey", "latitude": 18.76278, "longitude": -69.25681, "state": "Hato Mayor Province"}, {"city": "Hatillo Palma", "latitude": 19.66256, "longitude": -71.19406, "state": "Monte Cristi Province"}, {"city": "Guerra", "latitude": 18.55892, "longitude": -69.70103, "state": "Santo Domingo Province"}, {"city": "Guaymate", "latitude": 18.58793, "longitude": -68.97867, "state": "La Romana"}, {"city": "Guayabo Dulce", "latitude": 18.65, "longitude": -69.28333, "state": "Hato Mayor Province"}, {"city": "Guayabal", "latitude": 18.5981, "longitude": -71.64184, "state": "Independencia"}, {"city": "Guatapanal", "latitude": 19.50705, "longitude": -70.91713, "state": "Valverde Province"}, {"city": "Guananico", "latitude": 19.72693, "longitude": -70.92294, "state": "Puerto Plata"}, {"city": "Gonzalo", "latitude": 18.95147, "longitude": -69.75114, "state": "Monte Plata Province"}, {"city": "Gaspar Hern\u00e1ndez", "latitude": 19.62748, "longitude": -70.27772, "state": "Espaillat Province"}, {"city": "Galv\u00e1n", "latitude": 18.50228, "longitude": -71.34271, "state": "Baoruco Province"}, {"city": "Fundaci\u00f3n", "latitude": 18.28668, "longitude": -71.18147, "state": "Barahona Province"}, {"city": "Fantino", "latitude": 19.12148, "longitude": -70.29972, "state": "S\u00e1nchez Ram\u00edrez"}, {"city": "Estero Hondo", "latitude": 19.82712, "longitude": -71.17411, "state": "Puerto Plata"}, {"city": "Esteban\u00eda", "latitude": 18.4577, "longitude": -70.6435, "state": "Azua Province"}, {"city": "Esperanza", "latitude": 19.58469, "longitude": -70.98489, "state": "Valverde Province"}, {"city": "Esperalvillo", "latitude": 18.81509, "longitude": -70.03557, "state": "Monte Plata Province"}, {"city": "Ensanche Luper\u00f3n", "latitude": 18.5, "longitude": -69.9, "state": "Nacional"}, {"city": "Enriquillo", "latitude": 17.9, "longitude": -71.23333, "state": "Barahona Province"}, {"city": "El Valle", "latitude": 18.97567, "longitude": -69.37827, "state": "Hato Mayor Province"}, {"city": "El Puerto", "latitude": 18.78333, "longitude": -69.46667, "state": "San Pedro de Macor\u00eds"}, {"city": "El Pino", "latitude": 19.43537, "longitude": -71.4754, "state": "Dajab\u00f3n"}, {"city": "El Pe\u00f1\u00f3n", "latitude": 18.29643, "longitude": -71.1841, "state": "Barahona Province"}, {"city": "El Palmar", "latitude": 18.41139, "longitude": -71.24558, "state": "Baoruco Province"}, {"city": "El Llano", "latitude": 18.81667, "longitude": -71.63333, "state": "El\u00edas Pi\u00f1a"}, {"city": "El Guayabal", "latitude": 18.7496, "longitude": -70.8369, "state": "Azua Province"}, {"city": "El Factor", "latitude": 19.31834, "longitude": -69.88827, "state": "Mar\u00eda Trinidad S\u00e1nchez"}, {"city": "El Carril", "latitude": 18.44905, "longitude": -70.02785, "state": "San Crist\u00f3bal"}, {"city": "El Cacao", "latitude": 18.52719, "longitude": -70.29585, "state": "San Crist\u00f3bal"}, {"city": "Duverg\u00e9", "latitude": 18.37839, "longitude": -71.52469, "state": "Independencia"}, {"city": "Don Juan", "latitude": 18.82774, "longitude": -69.94629, "state": "Monte Plata Province"}, {"city": "Dajab\u00f3n", "latitude": 19.54878, "longitude": -71.70829, "state": null}, {"city": "Cristo Rey", "latitude": 18.5, "longitude": -69.93333, "state": "Nacional"}, {"city": "Crist\u00f3bal", "latitude": 18.29405, "longitude": -71.29298, "state": "Independencia"}, {"city": "Cotu\u00ed", "latitude": 19.05272, "longitude": -70.14939, "state": "S\u00e1nchez Ram\u00edrez"}, {"city": "Constanza", "latitude": 18.90919, "longitude": -70.74499, "state": "La Vega"}, {"city": "Concepci\u00f3n de La Vega", "latitude": 19.22207, "longitude": -70.52956, "state": "La Vega"}, {"city": "Comendador", "latitude": 18.8775, "longitude": -71.70278, "state": "El\u00edas Pi\u00f1a"}, {"city": "Ciudad Nueva", "latitude": 18.46707, "longitude": -69.89339, "state": "Nacional"}, {"city": "Cevicos", "latitude": 19.00449, "longitude": -69.97896, "state": "S\u00e1nchez Ram\u00edrez"}, {"city": "Cercado Abajo", "latitude": 18.72681, "longitude": -71.51742, "state": "San Juan Province"}, {"city": "Cayetano Germos\u00e9n", "latitude": 19.34413, "longitude": -70.48342, "state": "Espaillat Province"}, {"city": "Castillo", "latitude": 19.20824, "longitude": -70.02726, "state": "Duarte Province"}, {"city": "Casta\u00f1uelas", "latitude": 19.71387, "longitude": -71.49876, "state": "Monte Cristi Province"}, {"city": "Canoa", "latitude": 18.35499, "longitude": -71.15851, "state": "Barahona Province"}, {"city": "Cana Chapet\u00f3n", "latitude": 19.60703, "longitude": -71.25734, "state": "Monte Cristi Province"}, {"city": "Cambita Garabitos", "latitude": 18.45458, "longitude": -70.19907, "state": "San Crist\u00f3bal"}, {"city": "Cach\u00f3n", "latitude": 18.24833, "longitude": -71.18912, "state": "Barahona Province"}, {"city": "Cabrera", "latitude": 19.6426, "longitude": -69.90489, "state": "Mar\u00eda Trinidad S\u00e1nchez"}, {"city": "Cabral", "latitude": 18.25, "longitude": -71.21667, "state": "Barahona Province"}, {"city": "Cabarete", "latitude": 19.74982, "longitude": -70.40829, "state": "Puerto Plata"}, {"city": "Bonao", "latitude": 18.93687, "longitude": -70.40923, "state": "Monse\u00f1or Nouel"}, {"city": "Bohech\u00edo", "latitude": 18.77515, "longitude": -70.98889, "state": "San Juan Province"}, {"city": "Boca de Yuma", "latitude": 18.37825, "longitude": -68.609, "state": "La Altagracia Province"}, {"city": "Boca Chica", "latitude": 18.45, "longitude": -69.6, "state": "Santo Domingo Province"}, {"city": "San Crist\u00f3bal", "latitude": 18.41667, "longitude": -70.1, "state": null}, {"city": "Bella Vista", "latitude": 18.45539, "longitude": -69.9454, "state": "Nacional"}, {"city": "Bayaguana", "latitude": 18.75031, "longitude": -69.63525, "state": "Monte Plata Province"}, {"city": "B\u00e1nica", "latitude": 19.08239, "longitude": -71.7054, "state": "El\u00edas Pi\u00f1a"}, {"city": "Ban\u00ed", "latitude": 18.27964, "longitude": -70.33185, "state": "Peravia"}, {"city": "Bajos de Haina", "latitude": 18.41538, "longitude": -70.03317, "state": "San Crist\u00f3bal"}, {"city": "Baitoa", "latitude": 19.32512, "longitude": -70.70357, "state": "Santiago Province"}, {"city": "Azua", "latitude": 18.45319, "longitude": -70.7349, "state": "Azua Province"}, {"city": "Arroyo Salado", "latitude": 19.5, "longitude": -69.9, "state": "Mar\u00eda Trinidad S\u00e1nchez"}, {"city": "Arenoso", "latitude": 19.18732, "longitude": -69.85917, "state": "Duarte Province"}, {"city": "Amina", "latitude": 19.54813, "longitude": -70.99599, "state": "Valverde Province"}, {"city": "Altamira", "latitude": 19.6773, "longitude": -70.84428, "state": "Puerto Plata"}, {"city": "Agua Santa del Yuna", "latitude": 19.15072, "longitude": -69.80069, "state": "Duarte Province"}, {"city": "Zona Colonial", "latitude": 18.47, "longitude": -69.88644, "state": "Nacional"}, {"city": "Santo Domingo Oeste", "latitude": 18.5, "longitude": -70.0, "state": "Santo Domingo Province"}, {"city": "Santo Domingo Este", "latitude": 18.48847, "longitude": -69.85707, "state": "Santo Domingo Province"}, {"city": "Villa La Mata", "latitude": 19.01667, "longitude": -70.26661, "state": "S\u00e1nchez Ram\u00edrez"}]