[{"city": "Protaras", "latitude": 35.0125, "longitude": 34.05833, "state": "Ammochostos"}, {"city": "\u00ddpsonas", "latitude": 34.68797, "longitude": 32.96191, "state": "Limassol"}, {"city": "Gerosk\u00edpou (quarter)", "latitude": 34.75581, "longitude": 32.44915, "state": "Pafos"}, {"city": "Germas\u00f3geia", "latitude": 34.72073, "longitude": 33.08447, "state": "Limassol"}, {"city": "G\u00e9ri", "latitude": 35.1056, "longitude": 33.41977, "state": "Nicosia"}, {"city": "Xylotymbou", "latitude": 35.01627, "longitude": 33.7435, "state": "Larnaka"}, {"city": "Xylof\u00e1gou", "latitude": 34.97743, "longitude": 33.84894, "state": "Larnaka"}, {"city": "Ts\u00e9ri", "latitude": 35.07307, "longitude": 33.32344, "state": "Nicosia"}, {"city": "Vor\u00f3klini", "latitude": 34.98138, "longitude": 33.65648, "state": "Larnaka"}, {"city": "Ts\u00e1da", "latitude": 34.83862, "longitude": 32.47499, "state": "Pafos"}, {"city": "Tro\u00falloi", "latitude": 35.03263, "longitude": 33.61551, "state": "Larnaka"}, {"city": "Tr\u00f3odos", "latitude": 34.92344, "longitude": 32.8805, "state": "Limassol"}, {"city": "Tr\u00edkomo", "latitude": 35.28628, "longitude": 33.89167, "state": "Ammochostos"}, {"city": "Tersef\u00e1nou", "latitude": 34.85408, "longitude": 33.54739, "state": "Larnaka"}, {"city": "T\u00e1la", "latitude": 34.83632, "longitude": 32.43097, "state": "Pafos"}, {"city": "Str\u00f3volos", "latitude": 35.14867, "longitude": 33.33384, "state": "Nicosia"}, {"city": "Sot\u00edra", "latitude": 34.71189, "longitude": 32.8634, "state": "Limassol"}, {"city": "Rizok\u00e1rpaso", "latitude": 35.59719, "longitude": 34.37916, "state": "Ammochostos"}, {"city": "Pyrgos", "latitude": 34.74167, "longitude": 33.18333, "state": "Limassol"}, {"city": "P\u00fdla", "latitude": 35.00469, "longitude": 33.68907, "state": "Larnaka"}, {"city": "Psimolofou", "latitude": 35.0625, "longitude": 33.2625, "state": "Nicosia"}, {"city": "Psevd\u00e1s", "latitude": 34.94478, "longitude": 33.46072, "state": "Larnaka"}, {"city": "P\u00f3lis", "latitude": 35.03403, "longitude": 32.4255, "state": "Pafos"}, {"city": "Pol\u00e9mi", "latitude": 34.88613, "longitude": 32.50712, "state": "Pafos"}, {"city": "Pisso\u00fari", "latitude": 34.66942, "longitude": 32.70132, "state": "Limassol"}, {"city": "Fr\u00e9naros", "latitude": 35.04121, "longitude": 33.92242, "state": "Ammochostos"}, {"city": "P\u00e9geia", "latitude": 34.88385, "longitude": 32.38188, "state": "Pafos"}, {"city": "Periv\u00f3lia", "latitude": 34.82894, "longitude": 33.58272, "state": "Larnaka"}, {"city": "Perister\u00f3na", "latitude": 35.12928, "longitude": 33.07858, "state": "Nicosia"}, {"city": "P\u00e9rgamos", "latitude": 35.04167, "longitude": 33.70833, "state": "Larnaka"}, {"city": "P\u00e9ra", "latitude": 35.0335, "longitude": 33.25413, "state": "Nicosia"}, {"city": "Pel\u00e9ndri", "latitude": 34.89597, "longitude": 32.96817, "state": "Limassol"}, {"city": "Parekklisha", "latitude": 34.74583, "longitude": 33.15833, "state": "Limassol"}, {"city": "Paral\u00edmni", "latitude": 35.03945, "longitude": 33.98181, "state": "Ammochostos"}, {"city": "Paphos", "latitude": 34.77679, "longitude": 32.42451, "state": "Pafos"}, {"city": "P\u00e1no Polem\u00eddia", "latitude": 34.70559, "longitude": 32.99269, "state": "Limassol"}, {"city": "P\u00e1no Defter\u00e1", "latitude": 35.07778, "longitude": 33.26584, "state": "Nicosia"}, {"city": "P\u00e1chna", "latitude": 34.77874, "longitude": 32.79355, "state": "Limassol"}, {"city": "Nicosia", "latitude": 35.17531, "longitude": 33.3642, "state": null}, {"city": "Mouttagi\u00e1ka", "latitude": 34.72022, "longitude": 33.10066, "state": "Limassol"}, {"city": "Mosfilot\u00ed", "latitude": 34.95322, "longitude": 33.42518, "state": "Larnaka"}, {"city": "M\u00f3rfou", "latitude": 35.19869, "longitude": 32.99338, "state": "Nicosia"}, {"city": "Mes\u00f3gi", "latitude": 34.81529, "longitude": 32.45627, "state": "Pafos"}, {"city": "Meneou", "latitude": 34.86075, "longitude": 33.59314, "state": "Larnaka"}, {"city": "Mel\u00e1deia", "latitude": 34.98816, "longitude": 32.50665, "state": "Pafos"}, {"city": "M\u00e1mmari", "latitude": 35.17604, "longitude": 33.20435, "state": "Nicosia"}, {"city": "Lythrod\u00f3ntas", "latitude": 34.95105, "longitude": 33.29777, "state": "Nicosia"}, {"city": "L\u00fdmpia", "latitude": 34.99889, "longitude": 33.46175, "state": "Nicosia"}, {"city": "Liv\u00e1dia", "latitude": 34.95515, "longitude": 33.62734, "state": "Larnaka"}, {"city": "Liop\u00e9tri", "latitude": 35.00885, "longitude": 33.89256, "state": "Ammochostos"}, {"city": "Limassol", "latitude": 34.68406, "longitude": 33.03794, "state": null}, {"city": "Leon\u00e1risso", "latitude": 35.46892, "longitude": 34.13886, "state": "Ammochostos"}, {"city": "Lefk\u00f3noiko", "latitude": 35.2598, "longitude": 33.73189, "state": "Ammochostos"}, {"city": "L\u00e9fka", "latitude": 35.11199, "longitude": 32.84997, "state": "Nicosia"}, {"city": "Larnaca", "latitude": 34.92291, "longitude": 33.6233, "state": "Larnaka"}, {"city": "L\u00e1pithos", "latitude": 35.33823, "longitude": 33.17368, "state": "Keryneia"}, {"city": "Kyrenia", "latitude": 35.33634, "longitude": 33.31729, "state": "Keryneia"}, {"city": "Kypero\u00fanta", "latitude": 34.93815, "longitude": 32.97551, "state": "Limassol"}, {"city": "K\u00f3rnos", "latitude": 34.92221, "longitude": 33.39587, "state": "Larnaka"}, {"city": "Kof\u00ednou", "latitude": 34.82427, "longitude": 33.39133, "state": "Larnaka"}, {"city": "Konia", "latitude": 34.78516, "longitude": 32.459, "state": "Pafos"}, {"city": "Kolossi", "latitude": 34.66865, "longitude": 32.93375, "state": "Larnaka"}, {"city": "Koloni", "latitude": 34.74858, "longitude": 32.46565, "state": "Pafos"}, {"city": "Kokkinotrimithi\u00e1", "latitude": 35.15303, "longitude": 33.19966, "state": "Nicosia"}, {"city": "Kl\u00edrou", "latitude": 35.02004, "longitude": 33.17806, "state": "Nicosia"}, {"city": "K\u00edti", "latitude": 34.84898, "longitude": 33.57523, "state": "Larnaka"}, {"city": "Kissonerga", "latitude": 34.82279, "longitude": 32.40131, "state": "Pafos"}, {"city": "Chl\u00f3rakas", "latitude": 34.79836, "longitude": 32.40653, "state": "Pafos"}, {"city": "K\u00e1to P\u00fdrgos", "latitude": 35.17897, "longitude": 32.686, "state": "Nicosia"}, {"city": "K\u00e1to Polem\u00eddia", "latitude": 34.69721, "longitude": 32.99324, "state": "Limassol"}, {"city": "K\u00e1to Lakat\u00e1meia", "latitude": 35.11755, "longitude": 33.32539, "state": "Nicosia"}, {"city": "K\u00e1to Defter\u00e1", "latitude": 35.08489, "longitude": 33.27558, "state": "Nicosia"}, {"city": "Kakopetri\u00e1", "latitude": 34.98768, "longitude": 32.90468, "state": "Nicosia"}, {"city": "Famagusta", "latitude": 35.12489, "longitude": 33.94135, "state": "Ammochostos"}, {"city": "Aglantzi\u00e1", "latitude": 35.15422, "longitude": 33.39643, "state": "Nicosia"}, {"city": "Er\u00edmi", "latitude": 34.67766, "longitude": 32.91815, "state": "Limassol"}, {"city": "\u00c9gkomi", "latitude": 35.16272, "longitude": 33.88322, "state": "Ammochostos"}, {"city": "Emba", "latitude": 34.807, "longitude": 32.42406, "state": "Pafos"}, {"city": "Dhromolaxia", "latitude": 34.87551, "longitude": 33.58684, "state": "Larnaka"}, {"city": "Der\u00fdneia", "latitude": 35.06484, "longitude": 33.96083, "state": "Ammochostos"}, {"city": "D\u00e1li", "latitude": 35.02294, "longitude": 33.42195, "state": "Nicosia"}, {"city": "\u00c1gios T\u00fdchon", "latitude": 34.72606, "longitude": 33.13872, "state": "Larnaka"}, {"city": "\u00c1gios Dom\u00e9tios", "latitude": 35.17346, "longitude": 33.34045, "state": "Nicosia"}, {"city": "Ayia Napa", "latitude": 34.98213, "longitude": 34.00183, "state": "Ammochostos"}, {"city": "Avg\u00f3rou", "latitude": 35.03615, "longitude": 33.83918, "state": "Ammochostos"}, {"city": "\u00c1chna", "latitude": 35.05515, "longitude": 33.78388, "state": "Ammochostos"}, {"city": "Ath\u00edenou", "latitude": 35.06183, "longitude": 33.54166, "state": "Larnaka"}, {"city": "Astromer\u00edtis", "latitude": 35.14096, "longitude": 33.03793, "state": "Nicosia"}, {"city": "Erg\u00e1tes", "latitude": 35.05365, "longitude": 33.24292, "state": "Nicosia"}, {"city": "Arg\u00e1ka", "latitude": 35.06586, "longitude": 32.49226, "state": "Pafos"}, {"city": "Arad\u00edppou", "latitude": 34.94779, "longitude": 33.58813, "state": "Larnaka"}, {"city": "Aredio\u00fa", "latitude": 35.04844, "longitude": 33.1961, "state": "Nicosia"}, {"city": "Al\u00e1mpra", "latitude": 34.98898, "longitude": 33.39887, "state": "Nicosia"}, {"city": "Acher\u00edtou", "latitude": 35.10022, "longitude": 33.86155, "state": "Ammochostos"}, {"city": "Ak\u00e1ki", "latitude": 35.13341, "longitude": 33.12873, "state": "Nicosia"}, {"city": "M\u00e9niko", "latitude": 35.10945, "longitude": 33.14474, "state": "Nicosia"}, {"city": "Geroskipou", "latitude": 34.76091, "longitude": 32.44844, "state": "Pafos"}, {"city": "Tsada - Tremithousa - Tala (Borders)", "latitude": 34.8343, "longitude": 32.45363, "state": "Pafos"}]