[{"city": "Young", "latitude": -32.69844, "longitude": -57.62693, "state": "R\u00edo Negro Department"}, {"city": "Villa Sara", "latitude": -33.2534, "longitude": -54.41947, "state": "Treinta y Tres Department"}, {"city": "Villa del Carmen", "latitude": -33.23943, "longitude": -56.00936, "state": "Durazno Department"}, {"city": "Vichadero", "latitude": -31.77794, "longitude": -54.69183, "state": "Rivera Department"}, {"city": "Vergara", "latitude": -32.94419, "longitude": -53.9381, "state": "Treinta y Tres Department"}, {"city": "Vel\u00e1zquez", "latitude": -34.03631, "longitude": -54.28054, "state": "Rocha Department"}, {"city": "25 de Mayo", "latitude": -34.18917, "longitude": -56.33944, "state": "Florida"}, {"city": "25 de Agosto", "latitude": -34.41167, "longitude": -56.40222, "state": "Florida"}, {"city": "Colonia Valdense", "latitude": -34.33957, "longitude": -57.26246, "state": "Colonia"}, {"city": "Tupamba\u00e9", "latitude": -32.83333, "longitude": -54.76667, "state": "Cerro Largo"}, {"city": "Trinidad", "latitude": -33.5165, "longitude": -56.89957, "state": "Flores Department"}, {"city": "Treinta y Tres", "latitude": -33.23333, "longitude": -54.38333, "state": "Treinta y Tres Department"}, {"city": "Tranqueras", "latitude": -31.2, "longitude": -55.75, "state": "Rivera Department"}, {"city": "Tom\u00e1s Gomensoro", "latitude": -30.4287, "longitude": -57.43609, "state": "Artigas"}, {"city": "Toledo", "latitude": -34.73807, "longitude": -56.09469, "state": "Canelones"}, {"city": "Tarariras", "latitude": -34.26555, "longitude": -57.61866, "state": "Colonia"}, {"city": "Tambores", "latitude": -31.87743, "longitude": -56.24438, "state": "Tacuaremb\u00f3 Department"}, {"city": "Tala", "latitude": -34.34349, "longitude": -55.76375, "state": "Canelones"}, {"city": "Tacuaremb\u00f3", "latitude": -31.71694, "longitude": -55.98111, "state": "Tacuaremb\u00f3 Department"}, {"city": "Villa Soriano", "latitude": -33.39811, "longitude": -58.32177, "state": "Soriano"}, {"city": "Sol\u00eds de Mataojo", "latitude": -34.59951, "longitude": -55.46808, "state": "Lavalleja"}, {"city": "Soca", "latitude": -34.68432, "longitude": -55.702, "state": "Canelones"}, {"city": "Pueblo Sequeira", "latitude": -30.9892, "longitude": -56.87044, "state": "Artigas"}, {"city": "Sauce", "latitude": -34.65191, "longitude": -56.06431, "state": "Canelones"}, {"city": "Sarand\u00ed Grande", "latitude": -33.73333, "longitude": -56.33333, "state": "Florida"}, {"city": "Sarand\u00ed del Yi", "latitude": -33.35, "longitude": -55.63333, "state": "Durazno Department"}, {"city": "Santiago V\u00e1zquez", "latitude": -34.79028, "longitude": -56.35, "state": "Montevideo Department"}, {"city": "Santa Teresa", "latitude": -34.43333, "longitude": -57.71667, "state": "Colonia"}, {"city": "Santa Rosa", "latitude": -34.49819, "longitude": -56.03795, "state": "Canelones"}, {"city": "Santa Luc\u00eda", "latitude": -34.45333, "longitude": -56.39056, "state": "Canelones"}, {"city": "Santa Clara de Olimar", "latitude": -32.92254, "longitude": -54.94447, "state": "Treinta y Tres Department"}, {"city": "Santa Catalina", "latitude": -33.791, "longitude": -57.48824, "state": "Soriano"}, {"city": "Santa Bernardina", "latitude": -33.3536, "longitude": -56.52498, "state": "Durazno Department"}, {"city": "San Ram\u00f3n", "latitude": -34.29155, "longitude": -55.95571, "state": "Canelones"}, {"city": "San Jos\u00e9 de Mayo", "latitude": -34.3375, "longitude": -56.71361, "state": "San Jos\u00e9 Department"}, {"city": "San Javier", "latitude": -32.66523, "longitude": -58.1332, "state": "R\u00edo Negro Department"}, {"city": "San Jacinto", "latitude": -34.54465, "longitude": -55.87151, "state": "Canelones"}, {"city": "San F\u00e9lix", "latitude": -32.34631, "longitude": -58.10094, "state": "Paysand\u00fa Department"}, {"city": "San Carlos", "latitude": -34.79123, "longitude": -54.91824, "state": "Maldonado"}, {"city": "San Bautista", "latitude": -34.44016, "longitude": -55.95861, "state": "Canelones"}, {"city": "San Antonio", "latitude": -34.4513, "longitude": -56.08036, "state": "Canelones"}, {"city": "Salto", "latitude": -31.38333, "longitude": -57.96667, "state": "Salto Department"}, {"city": "Rosario", "latitude": -34.31667, "longitude": -57.35, "state": "Colonia"}, {"city": "Rodr\u00edguez", "latitude": -34.381, "longitude": -56.53797, "state": "San Jos\u00e9 Department"}, {"city": "Rocha", "latitude": -34.48333, "longitude": -54.33333, "state": "Rocha Department"}, {"city": "Rivera", "latitude": -30.90534, "longitude": -55.55076, "state": "Rivera Department"}, {"city": "R\u00edo Branco", "latitude": -32.59802, "longitude": -53.38583, "state": "Cerro Largo"}, {"city": "Rafael Perazza", "latitude": -34.52335, "longitude": -56.7971, "state": "San Jos\u00e9 Department"}, {"city": "Quebracho", "latitude": -31.93526, "longitude": -57.9014, "state": "Paysand\u00fa Department"}, {"city": "Punta del Este", "latitude": -34.94747, "longitude": -54.93382, "state": "Maldonado"}, {"city": "Pueblo Centenario", "latitude": -32.86667, "longitude": -56.46667, "state": "Durazno Department"}, {"city": "Progreso", "latitude": -34.66737, "longitude": -56.21758, "state": "Canelones"}, {"city": "Porvenir", "latitude": -32.39273, "longitude": -57.96961, "state": "Paysand\u00fa Department"}, {"city": "Estaci\u00f3n Porvenir", "latitude": -32.37085, "longitude": -57.85371, "state": "Paysand\u00fa Department"}, {"city": "Piri\u00e1polis", "latitude": -34.86287, "longitude": -55.27471, "state": "Maldonado"}, {"city": "Piedras Coloradas", "latitude": -32.37183, "longitude": -57.60901, "state": "Paysand\u00fa Department"}, {"city": "Paysand\u00fa", "latitude": -32.3171, "longitude": -58.08072, "state": "Paysand\u00fa Department"}, {"city": "Paso de los Toros", "latitude": -32.81667, "longitude": -56.51667, "state": "Tacuaremb\u00f3 Department"}, {"city": "Paso de Carrasco", "latitude": -34.86028, "longitude": -56.05222, "state": "Canelones"}, {"city": "Pando", "latitude": -34.71716, "longitude": -55.9584, "state": "Canelones"}, {"city": "Pan de Az\u00facar", "latitude": -34.7787, "longitude": -55.23582, "state": "Maldonado"}, {"city": "Palmitas", "latitude": -33.50719, "longitude": -57.80079, "state": "Soriano"}, {"city": "Omb\u00faes de Lavalle", "latitude": -33.93783, "longitude": -57.80959, "state": "Colonia"}, {"city": "Nuevo Berl\u00edn", "latitude": -32.97974, "longitude": -58.05858, "state": "R\u00edo Negro Department"}, {"city": "Nueva Palmira", "latitude": -33.87031, "longitude": -58.41176, "state": "Colonia"}, {"city": "Nueva Helvecia", "latitude": -34.3, "longitude": -57.23333, "state": "Colonia"}, {"city": "Montevideo", "latitude": -34.90328, "longitude": -56.18816, "state": "Montevideo Department"}, {"city": "Montes", "latitude": -34.49339, "longitude": -55.56219, "state": "Canelones"}, {"city": "Minas de Corrales", "latitude": -31.57375, "longitude": -55.47075, "state": "Rivera Department"}, {"city": "Minas", "latitude": -34.37589, "longitude": -55.23771, "state": "Lavalleja"}, {"city": "Migues", "latitude": -34.48759, "longitude": -55.62793, "state": "Canelones"}, {"city": "Mercedes", "latitude": -33.2524, "longitude": -58.03047, "state": "Soriano"}, {"city": "Melo", "latitude": -32.37028, "longitude": -54.1675, "state": "Cerro Largo"}, {"city": "Mariscala", "latitude": -34.04085, "longitude": -54.77732, "state": "Lavalleja"}, {"city": "Maldonado", "latitude": -34.9, "longitude": -54.95, "state": null}, {"city": "Los Cerrillos", "latitude": -34.605, "longitude": -56.35639, "state": "Canelones"}, {"city": "Libertad", "latitude": -34.63459, "longitude": -56.61739, "state": "San Jos\u00e9 Department"}, {"city": "Las Toscas", "latitude": -34.73333, "longitude": -55.71667, "state": "Canelones"}, {"city": "Las Piedras", "latitude": -34.7302, "longitude": -56.21915, "state": "Canelones"}, {"city": "Las Piedras", "latitude": -30.26204, "longitude": -57.58174, "state": "Artigas"}, {"city": "Lascano", "latitude": -33.67235, "longitude": -54.2065, "state": "Rocha Department"}, {"city": "La Paz", "latitude": -34.76031, "longitude": -56.2259, "state": "Canelones"}, {"city": "La Paloma", "latitude": -34.66268, "longitude": -54.16452, "state": "Rocha Department"}, {"city": "La Paloma", "latitude": -32.72689, "longitude": -55.5827, "state": "Durazno Department"}, {"city": "La Floresta", "latitude": -34.75572, "longitude": -55.68141, "state": "Canelones"}, {"city": "Juan L. Lacaze", "latitude": -34.41888, "longitude": -57.45285, "state": "Colonia"}, {"city": "Jos\u00e9 Pedro Varela", "latitude": -33.45451, "longitude": -54.53586, "state": "Lavalleja"}, {"city": "Jos\u00e9 Enrique Rod\u00f3", "latitude": -33.69618, "longitude": -57.53153, "state": "Soriano"}, {"city": "Jos\u00e9 Batlle y Ord\u00f3\u00f1ez", "latitude": -33.46667, "longitude": -55.11667, "state": "Lavalleja"}, {"city": "Joaqu\u00edn Su\u00e1rez", "latitude": -34.73501, "longitude": -56.0347, "state": "Canelones"}, {"city": "Juanic\u00f3", "latitude": -34.59454, "longitude": -56.25334, "state": "Canelones"}, {"city": "Isidoro Nobl\u00eda", "latitude": -31.96218, "longitude": -54.12309, "state": "Cerro Largo"}, {"city": "Guich\u00f3n", "latitude": -32.35846, "longitude": -57.19778, "state": "Paysand\u00fa Department"}, {"city": "General Enrique Mart\u00ednez", "latitude": -33.20388, "longitude": -53.80524, "state": "Rocha Department"}, {"city": "Fray Bentos", "latitude": -33.11651, "longitude": -58.31067, "state": "R\u00edo Negro Department"}, {"city": "Florida", "latitude": -34.09556, "longitude": -56.21417, "state": null}, {"city": "Florencio S\u00e1nchez", "latitude": -33.87785, "longitude": -57.37166, "state": "Colonia"}, {"city": "Empalme Olmos", "latitude": -34.69753, "longitude": -55.89268, "state": "Canelones"}, {"city": "Ecilda Paullier", "latitude": -34.35778, "longitude": -57.04883, "state": "San Jos\u00e9 Department"}, {"city": "Durazno", "latitude": -33.38056, "longitude": -56.52361, "state": "Durazno Department"}, {"city": "Dolores", "latitude": -33.53009, "longitude": -58.21701, "state": "Soriano"}, {"city": "Delta del Tigre", "latitude": -34.76488, "longitude": -56.3645, "state": "San Jos\u00e9 Department"}, {"city": "Curtina", "latitude": -32.15, "longitude": -56.11667, "state": "Tacuaremb\u00f3 Department"}, {"city": "Villa Constituci\u00f3n", "latitude": -31.06913, "longitude": -57.84946, "state": "Salto Department"}, {"city": "Colonia del Sacramento", "latitude": -34.46262, "longitude": -57.83976, "state": "Colonia"}, {"city": "Chui", "latitude": -33.69792, "longitude": -53.45926, "state": "Rocha Department"}, {"city": "Alejandro Gallinal", "latitude": -33.86252, "longitude": -55.54264, "state": "Florida"}, {"city": "Cebollat\u00ed", "latitude": -33.26703, "longitude": -53.79425, "state": "Rocha Department"}, {"city": "Casup\u00e1", "latitude": -34.09994, "longitude": -55.64811, "state": "Florida"}, {"city": "Castillos", "latitude": -34.19871, "longitude": -53.85919, "state": "Rocha Department"}, {"city": "Carmelo", "latitude": -34.00023, "longitude": -58.28402, "state": "Colonia"}, {"city": "Cardona", "latitude": -33.87049, "longitude": -57.36954, "state": "Soriano"}, {"city": "Cardal", "latitude": -34.29056, "longitude": -56.38889, "state": "Florida"}, {"city": "Canelones", "latitude": -34.52278, "longitude": -56.27778, "state": null}, {"city": "Blanquillo", "latitude": -32.76667, "longitude": -55.63333, "state": "Durazno Department"}, {"city": "Bella Uni\u00f3n", "latitude": -30.25966, "longitude": -57.59919, "state": "Artigas"}, {"city": "Bel\u00e9n", "latitude": -30.78716, "longitude": -57.77577, "state": "Salto Department"}, {"city": "Baltasar Brum", "latitude": -30.71905, "longitude": -57.32596, "state": "Artigas"}, {"city": "Atl\u00e1ntida", "latitude": -34.7719, "longitude": -55.7584, "state": "Canelones"}, {"city": "Artigas", "latitude": -30.4, "longitude": -56.46667, "state": null}, {"city": "Aigu\u00e1", "latitude": -34.20498, "longitude": -54.75665, "state": "Maldonado"}, {"city": "Aguas Corrientes", "latitude": -34.52194, "longitude": -56.39361, "state": "Canelones"}, {"city": "Acegu\u00e1", "latitude": -31.87178, "longitude": -54.16351, "state": "Cerro Largo"}, {"city": "Puntas de Vald\u00e9z", "latitude": -34.5855, "longitude": -56.70097, "state": "San Jos\u00e9 Department"}, {"city": "Colonia Nicolich", "latitude": -34.81516, "longitude": -56.02435, "state": "Canelones"}, {"city": "Barra de Carrasco", "latitude": -34.87722, "longitude": -56.02972, "state": "Canelones"}, {"city": "Pajas Blancas", "latitude": -34.80167, "longitude": -56.33417, "state": "Montevideo Department"}, {"city": "Costa Azul", "latitude": -34.62925, "longitude": -54.15307, "state": "Rocha Department"}, {"city": "Barros Blancos", "latitude": -34.7524, "longitude": -56.00259, "state": "Canelones"}]