[{"city": "Tulagi", "latitude": -9.10306, "longitude": 160.15056, "state": "Central Province"}, {"city": "Malango", "latitude": -9.69523, "longitude": 159.71734, "state": "Guadalcanal Province"}, {"city": "Honiara", "latitude": -9.43333, "longitude": 159.95, "state": null}, {"city": "Gizo", "latitude": -8.10303, "longitude": 156.84186, "state": "Western Province"}, {"city": "Buala", "latitude": -8.14497, "longitude": 159.59212, "state": "Isabel Province"}, {"city": "Auki", "latitude": -8.76778, "longitude": 160.69778, "state": "Malaita Province"}, {"city": "Lata", "latitude": -10.725, "longitude": 165.79722, "state": "Temotu Province"}, {"city": "Kirakira", "latitude": -10.45442, "longitude": 161.92045, "state": "Makira-Ulawa Province"}, {"city": "Taro", "latitude": -6.71111, "longitude": 156.39722, "state": "Choiseul Province"}]