[{"city": "Toamasina", "latitude": -18.1492, "longitude": 49.40234, "state": "Atsinanana"}, {"city": "Vondrozo", "latitude": -22.81667, "longitude": 47.28333, "state": "Atsimo-Atsinanana"}, {"city": "Vohipeno", "latitude": -22.35, "longitude": 47.83333, "state": "Fitovinany Region"}, {"city": "Vohipaho", "latitude": -23.55, "longitude": 47.5, "state": "Atsimo-Atsinanana"}, {"city": "Vohimanitra", "latitude": -21.7, "longitude": 47.7, "state": "Fitovinany Region"}, {"city": "Vohibinany", "latitude": -17.35, "longitude": 49.03333, "state": "Atsinanana"}, {"city": "Vavatenina", "latitude": -17.46667, "longitude": 49.2, "state": "Analanjirofo"}, {"city": "Vatomandry", "latitude": -19.33018, "longitude": 48.97791, "state": "Atsinanana"}, {"city": "Vangaindrano", "latitude": -23.35, "longitude": 47.6, "state": "Atsimo-Atsinanana"}, {"city": "Tsiroanomandidy", "latitude": -18.76969, "longitude": 46.04653, "state": "Bongolava"}, {"city": "Tsiombe", "latitude": -25.3, "longitude": 45.48333, "state": "Androy"}, {"city": "Tsaratanana", "latitude": -16.79706, "longitude": 47.65165, "state": "Betsiboka"}, {"city": "Tranovaho", "latitude": -25.3, "longitude": 44.96667, "state": "Androy"}, {"city": "Toliara", "latitude": -23.35, "longitude": 43.66667, "state": "Atsimo-Andrefana"}, {"city": "T\u00f4lanaro", "latitude": -25.03249, "longitude": 46.98329, "state": "Anosy"}, {"city": "Soavinandriana", "latitude": -19.16667, "longitude": 46.73333, "state": "Itasy"}, {"city": "Soanindrariny", "latitude": -19.9, "longitude": 47.23333, "state": "Vakinankaratra"}, {"city": "Soanierana Ivongo", "latitude": -16.91667, "longitude": 49.58333, "state": "Analanjirofo"}, {"city": "Soalala", "latitude": -16.1, "longitude": 45.31667, "state": "Boeny"}, {"city": "Sitampiky", "latitude": -16.66667, "longitude": 46.1, "state": "Boeny"}, {"city": "Savana", "latitude": -22.38333, "longitude": 47.9, "state": "Fitovinany Region"}, {"city": "Sambava", "latitude": -14.26667, "longitude": 50.16667, "state": "Sava"}, {"city": "Sambaina", "latitude": -18.9, "longitude": 47.78333, "state": "Analamanga"}, {"city": "Sakaraha", "latitude": -22.9, "longitude": 44.53333, "state": "Atsimo-Andrefana"}, {"city": "Sahavato", "latitude": -20.6, "longitude": 48.33333, "state": "Vatovavy Region"}, {"city": "Sahatavy", "latitude": -17.45, "longitude": 49.0, "state": "Analanjirofo"}, {"city": "Sadjoavato", "latitude": -12.61667, "longitude": 49.35, "state": "Diana"}, {"city": "Sadabe", "latitude": -18.63333, "longitude": 47.7, "state": "Analamanga"}, {"city": "Ranohira", "latitude": -22.48333, "longitude": 45.4, "state": "Ihorombe"}, {"city": "Boriziny", "latitude": -15.55, "longitude": 47.66667, "state": "Sofia"}, {"city": "Nosy Varika", "latitude": -20.58333, "longitude": 48.53333, "state": "Vatovavy Region"}, {"city": "Nandihizana", "latitude": -18.9, "longitude": 47.71667, "state": "Analamanga"}, {"city": "Morondava", "latitude": -20.28869, "longitude": 44.31782, "state": "Menabe"}, {"city": "Morombe", "latitude": -21.74499, "longitude": 43.36055, "state": "Atsimo-Andrefana"}, {"city": "Moramanga", "latitude": -18.94948, "longitude": 48.23007, "state": "Alaotra Mangoro"}, {"city": "Miarinarivo", "latitude": -18.95873, "longitude": 46.90553, "state": "Itasy"}, {"city": "Miandrivazo", "latitude": -19.52905, "longitude": 45.45559, "state": "Menabe"}, {"city": "Miandrarivo", "latitude": -19.43333, "longitude": 46.75, "state": "Vakinankaratra"}, {"city": "Miadanandriana", "latitude": -19.03333, "longitude": 47.78333, "state": "Analamanga"}, {"city": "Merikanjaka", "latitude": -19.13333, "longitude": 47.85, "state": "Analamanga"}, {"city": "Marovoay", "latitude": -16.11064, "longitude": 46.64383, "state": "Boeny"}, {"city": "Marolambo", "latitude": -20.05, "longitude": 48.11667, "state": "Atsinanana"}, {"city": "Maroantsetra", "latitude": -15.43527, "longitude": 49.73794, "state": "Analanjirofo"}, {"city": "Mantasoa", "latitude": -19.01667, "longitude": 47.83333, "state": "Analamanga"}, {"city": "Manjakandriana", "latitude": -18.91667, "longitude": 47.8, "state": "Analamanga"}, {"city": "Manja", "latitude": -21.43333, "longitude": 44.33333, "state": "Menabe"}, {"city": "Mandritsara", "latitude": -15.85744, "longitude": 48.82824, "state": "Sofia"}, {"city": "Manato", "latitude": -22.4, "longitude": 47.48333, "state": "Atsimo-Atsinanana"}, {"city": "Mananjary", "latitude": -21.23034, "longitude": 48.34173, "state": "Vatovavy Region"}, {"city": "Mananara", "latitude": -16.16864, "longitude": 49.76622, "state": "Analanjirofo"}, {"city": "Manakara", "latitude": -22.14862, "longitude": 48.01055, "state": "Fitovinany Region"}, {"city": "Mampikony", "latitude": -16.092, "longitude": 47.647, "state": "Sofia"}, {"city": "Maintirano", "latitude": -18.06354, "longitude": 44.02951, "state": "Melaky"}, {"city": "Mahavelona", "latitude": -17.68475, "longitude": 49.50869, "state": "Atsinanana"}, {"city": "Mahanoro", "latitude": -19.9, "longitude": 48.8, "state": "Atsinanana"}, {"city": "Mahalina", "latitude": -12.53333, "longitude": 48.81667, "state": "Diana"}, {"city": "Mahajanga", "latitude": -15.71667, "longitude": 46.31667, "state": "Boeny"}, {"city": "Mahabe", "latitude": -17.08333, "longitude": 45.33333, "state": "Melaky"}, {"city": "Maevatanana", "latitude": -16.95, "longitude": 46.83333, "state": "Betsiboka"}, {"city": "Kopoky", "latitude": -25.2, "longitude": 45.2, "state": "Androy"}, {"city": "Ivato", "latitude": -22.41667, "longitude": 47.26667, "state": "Atsimo-Atsinanana"}, {"city": "Ivato", "latitude": -18.8, "longitude": 47.48333, "state": "Analamanga"}, {"city": "Imerintsiatosika", "latitude": -18.98333, "longitude": 47.31667, "state": "Itasy"}, {"city": "Ikongo", "latitude": -21.88333, "longitude": 47.43333, "state": "Fitovinany Region"}, {"city": "Ikalamavony", "latitude": -21.15, "longitude": 46.58333, "state": "Upper Matsiatra"}, {"city": "Ihosy", "latitude": -22.40293, "longitude": 46.12576, "state": "Ihorombe"}, {"city": "Iharan\u0308a", "latitude": -13.35, "longitude": 50.0, "state": "Sava"}, {"city": "Ifatsy", "latitude": -22.4, "longitude": 47.75, "state": "Fitovinany Region"}, {"city": "Ifanadiana", "latitude": -21.3, "longitude": 47.63333, "state": "Vatovavy Region"}, {"city": "Fianarantsoa", "latitude": -21.45267, "longitude": 47.08569, "state": "Upper Matsiatra"}, {"city": "Fenoarivo Be", "latitude": -18.43333, "longitude": 46.56667, "state": "Bongolava"}, {"city": "Fenoarivo Atsinanana", "latitude": -17.38095, "longitude": 49.40826, "state": "Analanjirofo"}, {"city": "Faratsiho", "latitude": -19.4, "longitude": 46.95, "state": "Vakinankaratra"}, {"city": "Farafangana", "latitude": -22.82223, "longitude": 47.82615, "state": "Atsimo-Atsinanana"}, {"city": "Fandriana", "latitude": -20.23333, "longitude": 47.38333, "state": "Amoron'i Mania"}, {"city": "Fandrandava", "latitude": -21.51667, "longitude": 47.25, "state": "Upper Matsiatra"}, {"city": "Betroka", "latitude": -23.26667, "longitude": 46.08333, "state": "Anosy"}, {"city": "Betioky", "latitude": -23.72065, "longitude": 44.38069, "state": "Atsimo-Andrefana"}, {"city": "Beteza", "latitude": -24.45, "longitude": 45.11667, "state": "Androy"}, {"city": "Betafo", "latitude": -19.83333, "longitude": 46.85, "state": "Vakinankaratra"}, {"city": "Besalampy", "latitude": -16.75, "longitude": 44.48333, "state": "Melaky"}, {"city": "Beroroha", "latitude": -21.66667, "longitude": 45.16667, "state": "Atsimo-Andrefana"}, {"city": "Bemaitso", "latitude": -17.06667, "longitude": 48.5, "state": "Alaotra Mangoro"}, {"city": "Belo sur Tsiribihina", "latitude": -19.69787, "longitude": 44.54587, "state": "Menabe"}, {"city": "Beloha", "latitude": -25.16667, "longitude": 45.05, "state": "Androy"}, {"city": "Bekily", "latitude": -24.21667, "longitude": 45.31667, "state": "Androy"}, {"city": "Behompy", "latitude": -23.25, "longitude": 43.85, "state": "Atsimo-Andrefana"}, {"city": "Befandriana", "latitude": -15.2567, "longitude": 48.54249, "state": "Sofia"}, {"city": "Bealanana", "latitude": -14.54329, "longitude": 48.74981, "state": "Sofia"}, {"city": "Arivonimamo", "latitude": -19.01667, "longitude": 47.18333, "state": "Itasy"}, {"city": "Antsohimbondrona", "latitude": -13.08333, "longitude": 48.85, "state": "Diana"}, {"city": "Antsohihy", "latitude": -14.87959, "longitude": 47.98751, "state": "Sofia"}, {"city": "Antsiranana", "latitude": -12.31732, "longitude": 49.29188, "state": "Diana"}, {"city": "Antsirabe Afovoany", "latitude": -15.95, "longitude": 48.96667, "state": "Sofia"}, {"city": "Antsirabe", "latitude": -19.86586, "longitude": 47.03333, "state": "Vakinankaratra"}, {"city": "Antanimena", "latitude": -23.55, "longitude": 44.1, "state": "Atsimo-Andrefana"}, {"city": "Antanifotsy", "latitude": -19.65, "longitude": 47.31667, "state": "Vakinankaratra"}, {"city": "Antananarivo", "latitude": -18.91368, "longitude": 47.53613, "state": "Analamanga"}, {"city": "Antalaha", "latitude": -14.90033, "longitude": 50.27876, "state": "Sava"}, {"city": "Antakotako", "latitude": -15.31667, "longitude": 49.8, "state": "Analanjirofo"}, {"city": "Ankazondandy", "latitude": -18.7, "longitude": 47.78333, "state": "Analamanga"}, {"city": "Ankazobe", "latitude": -18.31667, "longitude": 47.11667, "state": "Analamanga"}, {"city": "Ankazoabo", "latitude": -22.28333, "longitude": 44.51667, "state": "Atsimo-Andrefana"}, {"city": "Anjozorobe", "latitude": -18.4, "longitude": 47.86667, "state": "Analamanga"}, {"city": "Anjepy", "latitude": -18.85, "longitude": 47.71667, "state": "Analamanga"}, {"city": "Andramasina", "latitude": -19.18785, "longitude": 47.59016, "state": "Analamanga"}, {"city": "Hell-Ville", "latitude": -13.39718, "longitude": 48.26663, "state": "Diana"}, {"city": "Andilamena", "latitude": -17.01009, "longitude": 48.57313, "state": "Alaotra Mangoro"}, {"city": "Andovoranto", "latitude": -18.95443, "longitude": 49.1094, "state": "Atsinanana"}, {"city": "Andapa", "latitude": -14.65, "longitude": 49.65, "state": "Sava"}, {"city": "Anandravy", "latitude": -22.9, "longitude": 47.36667, "state": "Upper Matsiatra"}, {"city": "Anakao", "latitude": -23.66667, "longitude": 43.65, "state": "Atsimo-Andrefana"}, {"city": "Ampasimanolotra", "latitude": -18.81667, "longitude": 49.06667, "state": "Atsinanana"}, {"city": "Amparafaravola", "latitude": -17.5876, "longitude": 48.22391, "state": "Alaotra Mangoro"}, {"city": "Ampanihy", "latitude": -24.6937, "longitude": 44.74581, "state": "Atsimo-Andrefana"}, {"city": "Ampahana", "latitude": -14.75, "longitude": 50.21667, "state": "Sava"}, {"city": "Ambovombe", "latitude": -25.17838, "longitude": 46.08722, "state": "Androy"}, {"city": "Ambositra", "latitude": -20.53034, "longitude": 47.24344, "state": "Amoron'i Mania"}, {"city": "Ambohitseheno", "latitude": -18.78333, "longitude": 47.8, "state": "Analamanga"}, {"city": "Ambohitrolomahitsy", "latitude": -18.7, "longitude": 47.68333, "state": "Analamanga"}, {"city": "Ambohitrandriamanitra", "latitude": -19.08333, "longitude": 47.78333, "state": "Analamanga"}, {"city": "Ambohimahasoa", "latitude": -21.11667, "longitude": 47.21667, "state": "Upper Matsiatra"}, {"city": "Ambohidratrimo", "latitude": -18.818, "longitude": 47.43382, "state": "Analamanga"}, {"city": "Ambodivoara", "latitude": -14.33333, "longitude": 49.98333, "state": "Sava"}, {"city": "Ambodifotatra", "latitude": -16.98333, "longitude": 49.85, "state": "Analanjirofo"}, {"city": "Amboasary", "latitude": -25.03333, "longitude": 46.38333, "state": "Anosy"}, {"city": "Amboasary", "latitude": -24.33333, "longitude": 45.95, "state": "Anosy"}, {"city": "Amboanjo", "latitude": -22.0, "longitude": 47.85, "state": "Fitovinany Region"}, {"city": "Ambilobe", "latitude": -13.2, "longitude": 49.05, "state": "Diana"}, {"city": "Ambatondrazaka", "latitude": -17.83333, "longitude": 48.41667, "state": "Alaotra Mangoro"}, {"city": "Ambatolaona", "latitude": -18.93333, "longitude": 47.9, "state": "Analamanga"}, {"city": "Ambatolampy", "latitude": -19.38333, "longitude": 47.41667, "state": "Vakinankaratra"}, {"city": "Ambatofinandrahana", "latitude": -20.55284, "longitude": 46.80365, "state": "Amoron'i Mania"}, {"city": "Ambato Boeny", "latitude": -16.46667, "longitude": 46.71667, "state": "Boeny"}, {"city": "Ambarakaraka", "latitude": -13.5, "longitude": 48.86667, "state": "Diana"}, {"city": "Ambanja", "latitude": -13.669, "longitude": 48.453, "state": "Diana"}, {"city": "Ambalavao", "latitude": -21.83333, "longitude": 46.93333, "state": "Upper Matsiatra"}, {"city": "Ambalasoa", "latitude": -23.11667, "longitude": 46.0, "state": "Anosy"}, {"city": "Alarobia", "latitude": -18.96667, "longitude": 47.73333, "state": "Analamanga"}, {"city": "Antsampanimahazo", "latitude": -19.63988, "longitude": 47.1565, "state": "Vakinankaratra"}]