[{"city": "Zuru", "latitude": 11.43522, "longitude": 5.23494, "state": "Kebbi"}, {"city": "Zurmi", "latitude": 12.77675, "longitude": 6.78404, "state": "Zamfara State"}, {"city": "Zungeru", "latitude": 9.80726, "longitude": 6.15238, "state": "Niger State"}, {"city": "Zonkwa", "latitude": 9.78453, "longitude": 8.29056, "state": "Kaduna State"}, {"city": "Zing", "latitude": 8.99064, "longitude": 11.74763, "state": "Taraba State"}, {"city": "Zaria", "latitude": 11.11128, "longitude": 7.7227, "state": "Kaduna State"}, {"city": "Zango", "latitude": 13.05313, "longitude": 8.48574, "state": "Katsina State"}, {"city": "Zalanga", "latitude": 10.61432, "longitude": 10.17647, "state": "Bauchi"}, {"city": "Zakirai", "latitude": 12.10033, "longitude": 8.88524, "state": "Kano State"}, {"city": "Zaki Biam", "latitude": 7.50671, "longitude": 9.6104, "state": "Benue State"}, {"city": "Zadawa", "latitude": 11.4496, "longitude": 10.3672, "state": "Bauchi"}, {"city": "Yuli", "latitude": 9.69707, "longitude": 10.2735, "state": "Bauchi"}, {"city": "Yola", "latitude": 9.20839, "longitude": 12.48146, "state": "Adamawa"}, {"city": "Yenagoa", "latitude": 4.92675, "longitude": 6.26764, "state": "Bayelsa State"}, {"city": "Yelwa", "latitude": 10.83505, "longitude": 4.74244, "state": "Kebbi"}, {"city": "Yelwa", "latitude": 8.83333, "longitude": 9.63333, "state": "Plateau State"}, {"city": "Yashikira", "latitude": 9.76794, "longitude": 3.398, "state": "Kwara State"}, {"city": "Yandev", "latitude": 7.36308, "longitude": 9.04235, "state": "Benue State"}, {"city": "Yanda Bayo", "latitude": 11.5071, "longitude": 10.7459, "state": "Bauchi"}, {"city": "Yamrat", "latitude": 10.11161, "longitude": 9.82604, "state": "Bauchi"}, {"city": "Yajiwa", "latitude": 11.38623, "longitude": 12.71992, "state": "Borno State"}, {"city": "Yabo", "latitude": 12.72217, "longitude": 5.01329, "state": "Sokoto"}, {"city": "Wuyo", "latitude": 10.38522, "longitude": 11.69678, "state": "Borno State"}, {"city": "Wushishi", "latitude": 9.73035, "longitude": 6.07305, "state": "Niger State"}, {"city": "Wurno", "latitude": 13.29048, "longitude": 5.42373, "state": "Sokoto"}, {"city": "Wukari", "latitude": 7.87139, "longitude": 9.77786, "state": "Taraba State"}, {"city": "Wudil", "latitude": 11.80937, "longitude": 8.84422, "state": "Kano State"}, {"city": "Wawa", "latitude": 9.90347, "longitude": 4.40816, "state": "Niger State"}, {"city": "Wase", "latitude": 9.09424, "longitude": 9.95605, "state": "Plateau State"}, {"city": "Wasagu", "latitude": 11.3764, "longitude": 5.79536, "state": "Kebbi"}, {"city": "Warri", "latitude": 5.51737, "longitude": 5.75006, "state": "Delta"}, {"city": "Wannune", "latitude": 7.56384, "longitude": 8.88534, "state": "Benue State"}, {"city": "Wamba", "latitude": 8.94153, "longitude": 8.60315, "state": "Nasarawa State"}, {"city": "Wamako", "latitude": 13.03054, "longitude": 5.10433, "state": "Sokoto"}, {"city": "Wagini", "latitude": 12.68781, "longitude": 7.19579, "state": "Katsina State"}, {"city": "Vom", "latitude": 9.7291, "longitude": 8.79138, "state": "Plateau State"}, {"city": "Vandeikya", "latitude": 6.78481, "longitude": 9.06799, "state": "Benue State"}, {"city": "Uyo", "latitude": 5.05127, "longitude": 7.9335, "state": "Akwa Ibom State"}, {"city": "Utu Etim Ekpo", "latitude": 5.00485, "longitude": 7.61028, "state": "Akwa Ibom State"}, {"city": "Ozoro", "latitude": 5.54692, "longitude": 6.22649, "state": "Delta"}, {"city": "Uselu", "latitude": 6.38429, "longitude": 5.60984, "state": "Edo State"}, {"city": "Uruobo-Okija", "latitude": 5.90016, "longitude": 6.84312, "state": "Anambra"}, {"city": "Urualla", "latitude": 5.85397, "longitude": 7.09906, "state": "Imo State"}, {"city": "Uromi", "latitude": 6.7, "longitude": 6.33333, "state": "Edo State"}, {"city": "Uquo", "latitude": 4.65832, "longitude": 8.05868, "state": "Akwa Ibom State"}, {"city": "Ukpor", "latitude": 5.94211, "longitude": 6.92931, "state": "Anambra"}, {"city": "Ungogo", "latitude": 12.09171, "longitude": 8.49531, "state": "Kano State"}, {"city": "Umuneke-Ngor", "latitude": 5.33558, "longitude": 7.15187, "state": "Imo State"}, {"city": "Umunede", "latitude": 6.26549, "longitude": 6.30962, "state": "Delta"}, {"city": "Umulona", "latitude": 6.50789, "longitude": 7.09743, "state": "Enugu State"}, {"city": "Umuelemai", "latitude": 5.68786, "longitude": 7.24334, "state": "Imo State"}, {"city": "Umuahia", "latitude": 5.52491, "longitude": 7.49461, "state": "Abia State"}, {"city": "Ukpo", "latitude": 6.21407, "longitude": 6.96657, "state": "Anambra"}, {"city": "Ukata", "latitude": 10.83122, "longitude": 5.82494, "state": "Niger State"}, {"city": "Ughelli", "latitude": 5.48956, "longitude": 6.00407, "state": "Delta"}, {"city": "Ugep", "latitude": 5.80865, "longitude": 8.08098, "state": "Cross River State"}, {"city": "Ugba", "latitude": 7.507, "longitude": 9.34804, "state": "Benue State"}, {"city": "Uga", "latitude": 5.93576, "longitude": 7.0793, "state": "Anambra"}, {"city": "Udi", "latitude": 6.31592, "longitude": 7.42086, "state": "Enugu State"}, {"city": "Ubiaja", "latitude": 6.65581, "longitude": 6.38494, "state": "Edo State"}, {"city": "Uba", "latitude": 10.45509, "longitude": 13.22233, "state": "Borno State"}, {"city": "Tureta", "latitude": 12.59367, "longitude": 5.54391, "state": "Sokoto"}, {"city": "Tudun Wada", "latitude": 11.24848, "longitude": 8.40109, "state": "Kano State"}, {"city": "Tsanyawa", "latitude": 12.29559, "longitude": 7.98654, "state": "Kano State"}, {"city": "Toungo", "latitude": 8.11733, "longitude": 12.04611, "state": "Adamawa"}, {"city": "Toto", "latitude": 8.3876, "longitude": 7.07751, "state": "Nasarawa State"}, {"city": "Toro", "latitude": 10.05889, "longitude": 9.0691, "state": "Bauchi"}, {"city": "Tokombere", "latitude": 11.22135, "longitude": 13.48783, "state": "Borno State"}, {"city": "Tofa", "latitude": 12.05789, "longitude": 8.27309, "state": "Kano State"}, {"city": "Tegina", "latitude": 10.0706, "longitude": 6.1906, "state": "Niger State"}, {"city": "Tede", "latitude": 8.55336, "longitude": 3.44654, "state": "Oyo State"}, {"city": "Taura", "latitude": 12.22712, "longitude": 9.28306, "state": "Jigawa State"}, {"city": "Tambuwal", "latitude": 12.40592, "longitude": 4.64605, "state": "Sokoto"}, {"city": "Talata Mafara", "latitude": 12.56841, "longitude": 6.06225, "state": "Zamfara State"}, {"city": "Talasse", "latitude": 9.96843, "longitude": 11.67945, "state": "Gombe State"}, {"city": "Takum", "latitude": 7.26667, "longitude": 9.98333, "state": "Benue State"}, {"city": "Bunza", "latitude": 12.08821, "longitude": 4.0152, "state": "Kebbi"}, {"city": "Takai", "latitude": 11.57569, "longitude": 9.1088, "state": "Kano State"}, {"city": "Tafawa Balewa", "latitude": 9.76017, "longitude": 9.55172, "state": "Bauchi"}, {"city": "Suya", "latitude": 9.4688, "longitude": 3.18333, "state": "Kwara State"}, {"city": "Surulere", "latitude": 6.50153, "longitude": 3.35808, "state": "Lagos"}, {"city": "Sumaila", "latitude": 11.53011, "longitude": 8.95593, "state": "Kano State"}, {"city": "Sule Tankarkar", "latitude": 12.66686, "longitude": 9.22828, "state": "Jigawa State"}, {"city": "Suleja", "latitude": 9.18059, "longitude": 7.17939, "state": "Niger State"}, {"city": "Song", "latitude": 9.82675, "longitude": 12.6238, "state": "Adamawa"}, {"city": "Sokoto", "latitude": 13.06269, "longitude": 5.24322, "state": null}, {"city": "Soba", "latitude": 10.98133, "longitude": 8.05749, "state": "Kaduna State"}, {"city": "Siluko", "latitude": 6.53589, "longitude": 5.16005, "state": "Edo State"}, {"city": "Silame", "latitude": 13.03921, "longitude": 4.84593, "state": "Sokoto"}, {"city": "Shomolu", "latitude": 6.53891, "longitude": 3.3742, "state": "Lagos"}, {"city": "Shinkafi", "latitude": 13.07296, "longitude": 6.50574, "state": "Zamfara State"}, {"city": "Shendam", "latitude": 8.87866, "longitude": 9.53464, "state": "Plateau State"}, {"city": "Shelleng", "latitude": 9.89647, "longitude": 12.00572, "state": "Adamawa"}, {"city": "Share", "latitude": 8.82329, "longitude": 4.97637, "state": "Kwara State"}, {"city": "Shanono", "latitude": 12.05154, "longitude": 7.992, "state": "Kano State"}, {"city": "Shani", "latitude": 10.21824, "longitude": 12.06059, "state": "Borno State"}, {"city": "Shanga", "latitude": 11.21374, "longitude": 4.57941, "state": "Kebbi"}, {"city": "Saki", "latitude": 8.66762, "longitude": 3.39393, "state": "Oyo State"}, {"city": "Shagari", "latitude": 12.62727, "longitude": 4.99295, "state": "Sokoto"}, {"city": "Shagamu", "latitude": 6.8485, "longitude": 3.64633, "state": "Ogun State"}, {"city": "Shaffa", "latitude": 10.50673, "longitude": 12.33315, "state": "Borno State"}, {"city": "Serti", "latitude": 7.50574, "longitude": 11.3631, "state": "Taraba State"}, {"city": "Sauri", "latitude": 11.72655, "longitude": 6.78374, "state": "Zamfara State"}, {"city": "Sarkin Pawa", "latitude": 10.02094, "longitude": 7.11244, "state": "Niger State"}, {"city": "Sapele", "latitude": 5.89405, "longitude": 5.67666, "state": "Delta"}, {"city": "Sankwala", "latitude": 6.54753, "longitude": 9.22258, "state": "Cross River State"}, {"city": "Sankera", "latitude": 7.5353, "longitude": 9.65223, "state": "Benue State"}, {"city": "Sandamu", "latitude": 12.96163, "longitude": 8.36017, "state": "Katsina State"}, {"city": "Samamiya", "latitude": 11.34873, "longitude": 9.63989, "state": "Jigawa State"}, {"city": "Sakaba", "latitude": 11.06513, "longitude": 5.5961, "state": "Kebbi"}, {"city": "Sagbama", "latitude": 5.15915, "longitude": 6.19666, "state": "Bayelsa State"}, {"city": "Safana", "latitude": 12.41075, "longitude": 7.41456, "state": "Katsina State"}, {"city": "Sade", "latitude": 11.3595, "longitude": 10.6732, "state": "Bauchi"}, {"city": "Sabuwa", "latitude": 11.17372, "longitude": 7.12113, "state": "Katsina State"}, {"city": "Sabongida-Ora", "latitude": 6.90231, "longitude": 5.93117, "state": "Edo State"}, {"city": "Sabon Birni", "latitude": 13.56387, "longitude": 6.32355, "state": "Sokoto"}, {"city": "Runka", "latitude": 12.44788, "longitude": 7.30918, "state": "Katsina State"}, {"city": "Ruma", "latitude": 12.8626, "longitude": 7.23469, "state": "Katsina State"}, {"city": "Roni", "latitude": 12.65862, "longitude": 8.26505, "state": "Jigawa State"}, {"city": "Rogo", "latitude": 11.55237, "longitude": 7.82253, "state": "Kano State"}, {"city": "Riyom", "latitude": 9.63681, "longitude": 8.75694, "state": "Plateau State"}, {"city": "Riti", "latitude": 7.90844, "longitude": 9.61688, "state": "Taraba State"}, {"city": "Ririwai", "latitude": 10.74025, "longitude": 8.74128, "state": "Kano State"}, {"city": "Ringim", "latitude": 12.15143, "longitude": 9.16216, "state": "Jigawa State"}, {"city": "Rimin Gado", "latitude": 11.9672, "longitude": 8.2476, "state": "Kano State"}, {"city": "Rimi", "latitude": 12.8503, "longitude": 7.70974, "state": "Katsina State"}, {"city": "Rijau", "latitude": 11.10389, "longitude": 5.25556, "state": "Niger State"}, {"city": "Ribah", "latitude": 11.39637, "longitude": 5.48631, "state": "Kebbi"}, {"city": "Rano", "latitude": 11.55684, "longitude": 8.58065, "state": "Kano State"}, {"city": "Rann", "latitude": 12.26938, "longitude": 14.46552, "state": "Borno State"}, {"city": "Saminaka", "latitude": 10.41227, "longitude": 8.68748, "state": "Kaduna State"}, {"city": "Rabah", "latitude": 13.12257, "longitude": 5.50762, "state": "Sokoto"}, {"city": "Potiskum", "latitude": 11.71391, "longitude": 11.08108, "state": "Yobe State"}, {"city": "Port Harcourt", "latitude": 4.77742, "longitude": 7.0134, "state": "Rivers State"}, {"city": "Pindiga", "latitude": 9.98433, "longitude": 10.95229, "state": "Gombe State"}, {"city": "Patigi", "latitude": 8.72851, "longitude": 5.75561, "state": "Kwara State"}, {"city": "Patani", "latitude": 5.22885, "longitude": 6.19139, "state": "Delta"}, {"city": "Panyam", "latitude": 9.40756, "longitude": 9.21481, "state": "Plateau State"}, {"city": "Pantisawa", "latitude": 8.94504, "longitude": 11.51176, "state": "Taraba State"}, {"city": "Pankshin", "latitude": 9.32541, "longitude": 9.4352, "state": "Plateau State"}, {"city": "Paiko", "latitude": 9.43685, "longitude": 6.63357, "state": "Niger State"}, {"city": "Ozubulu", "latitude": 5.95753, "longitude": 6.85305, "state": "Anambra"}, {"city": "Oyo", "latitude": 7.85367, "longitude": 3.93235, "state": "Oyo State"}, {"city": "Oye-Ekiti", "latitude": 7.79976, "longitude": 5.33242, "state": "Ekiti State"}, {"city": "Oyan", "latitude": 8.05, "longitude": 4.76667, "state": "Osun State"}, {"city": "Owu-Isin", "latitude": 8.2809, "longitude": 5.0194, "state": "Kwara State"}, {"city": "Owode", "latitude": 6.94851, "longitude": 3.50561, "state": "Ogun State"}, {"city": "Owo", "latitude": 7.1962, "longitude": 5.58681, "state": "Ondo State"}, {"city": "Owerri", "latitude": 5.48363, "longitude": 7.03325, "state": "Imo State"}, {"city": "Owa-Oyibu", "latitude": 6.18267, "longitude": 6.19902, "state": "Delta"}, {"city": "Otuocha", "latitude": 6.33908, "longitude": 6.84636, "state": "Anambra"}, {"city": "Otun-Ekiti", "latitude": 7.98858, "longitude": 5.12291, "state": "Ekiti State"}, {"city": "Otukpa", "latitude": 7.10168, "longitude": 7.65945, "state": "Benue State"}, {"city": "Otu-Jeremi", "latitude": 5.43818, "longitude": 5.87829, "state": "Delta"}, {"city": "Otor-Udu", "latitude": 5.45341, "longitude": 5.8693, "state": "Delta"}, {"city": "Otu", "latitude": 8.20639, "longitude": 3.40786, "state": "Oyo State"}, {"city": "Ota", "latitude": 6.68867, "longitude": 3.23202, "state": "Ogun State"}, {"city": "Otan Ayegbaju", "latitude": 7.94783, "longitude": 4.78836, "state": "Osun State"}, {"city": "Osu", "latitude": 7.58538, "longitude": 4.62263, "state": "Osun State"}, {"city": "Osogbo", "latitude": 7.77104, "longitude": 4.55698, "state": "Osun State"}, {"city": "Oshodi", "latitude": 6.55504, "longitude": 3.34363, "state": "Lagos"}, {"city": "Afor-Oru", "latitude": 5.5411, "longitude": 7.26845, "state": "Imo State"}, {"city": "Oron", "latitude": 4.82171, "longitude": 8.23504, "state": "Akwa Ibom State"}, {"city": "Orodo", "latitude": 5.61667, "longitude": 7.03333, "state": "Imo State"}, {"city": "Orlu", "latitude": 5.79565, "longitude": 7.03513, "state": "Imo State"}, {"city": "Orita-Eruwa", "latitude": 7.55632, "longitude": 3.44107, "state": "Oyo State"}, {"city": "Orerokpe", "latitude": 5.63747, "longitude": 5.89013, "state": "Delta"}, {"city": "Ore", "latitude": 6.74716, "longitude": 4.8761, "state": "Ondo State"}, {"city": "Oporoma", "latitude": 4.80604, "longitude": 6.08016, "state": "Bayelsa State"}, {"city": "Opobo", "latitude": 4.51388, "longitude": 7.53794, "state": "Rivers State"}, {"city": "Ikot Abasi", "latitude": 4.56851, "longitude": 7.55262, "state": "Akwa Ibom State"}, {"city": "Opi", "latitude": 6.78223, "longitude": 7.43319, "state": "Enugu State"}, {"city": "Onyedega", "latitude": 6.88209, "longitude": 6.67585, "state": "Kogi State"}, {"city": "Onitsha", "latitude": 6.14978, "longitude": 6.78569, "state": "Anambra"}, {"city": "Ondo", "latitude": 7.09316, "longitude": 4.83528, "state": "Ondo State"}, {"city": "Omuo-Ekiti", "latitude": 7.75833, "longitude": 5.72227, "state": "Ekiti State"}, {"city": "Omu-Aran", "latitude": 8.13385, "longitude": 5.10029, "state": "Kwara State"}, {"city": "Omoku", "latitude": 5.34388, "longitude": 6.65684, "state": "Rivers State"}, {"city": "Olupona", "latitude": 7.60039, "longitude": 4.19264, "state": "Osun State"}, {"city": "Oleh", "latitude": 5.46186, "longitude": 6.20624, "state": "Delta"}, {"city": "Okpoga", "latitude": 7.03911, "longitude": 7.81225, "state": "Benue State"}, {"city": "Okwe", "latitude": 5.77743, "longitude": 7.21794, "state": "Imo State"}, {"city": "Okuta", "latitude": 9.21866, "longitude": 3.20117, "state": "Kwara State"}, {"city": "Okrika", "latitude": 4.74215, "longitude": 7.08368, "state": "Rivers State"}, {"city": "Okpoma", "latitude": 6.59679, "longitude": 8.63728, "state": "Cross River State"}, {"city": "Okpo", "latitude": 7.21626, "longitude": 7.56022, "state": "Kogi State"}, {"city": "Okoroete", "latitude": 4.54077, "longitude": 7.74858, "state": "Akwa Ibom State"}, {"city": "Okopedi", "latitude": 4.84918, "longitude": 8.12564, "state": "Akwa Ibom State"}, {"city": "Oko Ita", "latitude": 5.192, "longitude": 7.89531, "state": "Akwa Ibom State"}, {"city": "Okigwe", "latitude": 5.82917, "longitude": 7.35056, "state": "Imo State"}, {"city": "Oke-Oyi", "latitude": 8.58263, "longitude": 4.71622, "state": "Kwara State"}, {"city": "Okene", "latitude": 7.55122, "longitude": 6.23589, "state": "Kogi State"}, {"city": "Oke Mesi", "latitude": 7.81667, "longitude": 4.91667, "state": "Osun State"}, {"city": "Oke Ila", "latitude": 7.95, "longitude": 4.98333, "state": "Ekiti State"}, {"city": "Okeho", "latitude": 8.03453, "longitude": 3.34759, "state": "Oyo State"}, {"city": "Okehi", "latitude": 5.13895, "longitude": 7.13915, "state": "Rivers State"}, {"city": "Oke-Agbe", "latitude": 7.64314, "longitude": 5.75943, "state": "Ondo State"}, {"city": "Okada", "latitude": 6.73488, "longitude": 5.39447, "state": "Edo State"}, {"city": "Oka", "latitude": 7.46012, "longitude": 5.80174, "state": "Ondo State"}, {"city": "Oju", "latitude": 6.84526, "longitude": 8.41914, "state": "Benue State"}, {"city": "Ojoto", "latitude": 6.05842, "longitude": 6.86124, "state": "Anambra"}, {"city": "Oji River", "latitude": 6.25563, "longitude": 7.27025, "state": "Enugu State"}, {"city": "Ohafia-Ifigh", "latitude": 5.61455, "longitude": 7.81191, "state": "Abia State"}, {"city": "Ogwashi-Uku", "latitude": 6.17811, "longitude": 6.52461, "state": "Delta"}, {"city": "Oguta", "latitude": 5.71044, "longitude": 6.80936, "state": "Imo State"}, {"city": "Ogurugu", "latitude": 6.78636, "longitude": 6.95017, "state": "Kogi State"}, {"city": "Oguma", "latitude": 7.89635, "longitude": 7.06229, "state": "Kogi State"}, {"city": "Ogu", "latitude": 4.72247, "longitude": 7.19859, "state": "Rivers State"}, {"city": "Ogoja", "latitude": 6.6584, "longitude": 8.79923, "state": "Cross River State"}, {"city": "Ogidi", "latitude": 6.15209, "longitude": 6.86343, "state": "Anambra"}, {"city": "Ogbomoso", "latitude": 8.13373, "longitude": 4.24014, "state": "Oyo State"}, {"city": "Ogbere", "latitude": 6.73948, "longitude": 4.16102, "state": "Ogun State"}, {"city": "Ogbede", "latitude": 6.67295, "longitude": 7.37441, "state": "Enugu State"}, {"city": "Ogaminana", "latitude": 7.59383, "longitude": 6.21798, "state": "Kogi State"}, {"city": "Offa", "latitude": 8.14911, "longitude": 4.72074, "state": "Kwara State"}, {"city": "Odukpani", "latitude": 5.13375, "longitude": 8.33814, "state": "Cross River State"}, {"city": "Odot", "latitude": 4.83095, "longitude": 8.03839, "state": "Akwa Ibom State"}, {"city": "Odoro Ikpe", "latitude": 5.35835, "longitude": 7.75184, "state": "Akwa Ibom State"}, {"city": "Odogbolu", "latitude": 6.84035, "longitude": 3.76285, "state": "Ogun State"}, {"city": "Odo-Ere", "latitude": 8.25091, "longitude": 5.55122, "state": "Kogi State"}, {"city": "Odeda", "latitude": 7.2313, "longitude": 3.5246, "state": "Ogun State"}, {"city": "Ode", "latitude": 7.7899, "longitude": 5.7117, "state": "Ondo State"}, {"city": "Ode-Ekiti", "latitude": 7.64813, "longitude": 5.54948, "state": "Ekiti State"}, {"city": "Ochobo", "latitude": 7.18045, "longitude": 7.9824, "state": "Benue State"}, {"city": "Obudu", "latitude": 6.66819, "longitude": 9.16453, "state": "Cross River State"}, {"city": "Obubra", "latitude": 6.07672, "longitude": 8.33241, "state": "Cross River State"}, {"city": "Obonoma", "latitude": 4.71131, "longitude": 6.79084, "state": "Rivers State"}, {"city": "Obolo-Eke (1)", "latitude": 6.88333, "longitude": 7.63333, "state": "Enugu State"}, {"city": "Obollo-Afor", "latitude": 6.91624, "longitude": 7.51849, "state": "Enugu State"}, {"city": "Obiaruku", "latitude": 5.84672, "longitude": 6.1529, "state": "Delta"}, {"city": "Obi", "latitude": 8.36922, "longitude": 8.77383, "state": "Nasarawa State"}, {"city": "Nzam", "latitude": 6.45296, "longitude": 6.72882, "state": "Anambra"}, {"city": "Nung Udoe", "latitude": 4.91657, "longitude": 7.96314, "state": "Akwa Ibom State"}, {"city": "Numan", "latitude": 9.46374, "longitude": 12.03062, "state": "Adamawa"}, {"city": "Nto Edino", "latitude": 5.25704, "longitude": 7.57569, "state": "Akwa Ibom State"}, {"city": "Nteje", "latitude": 6.2681, "longitude": 6.92062, "state": "Anambra"}, {"city": "Nsukka", "latitude": 6.85783, "longitude": 7.39577, "state": "Enugu State"}, {"city": "Isiokpo", "latitude": 5.00243, "longitude": 6.87262, "state": "Rivers State"}, {"city": "Nnewi", "latitude": 6.01962, "longitude": 6.91729, "state": "Anambra"}, {"city": "Nkwerre", "latitude": 5.75917, "longitude": 7.10384, "state": "Imo State"}, {"city": "Nkpor", "latitude": 6.15038, "longitude": 6.83042, "state": "Anambra"}, {"city": "Mkpat Enin", "latitude": 4.73478, "longitude": 7.74897, "state": "Akwa Ibom State"}, {"city": "Ningi", "latitude": 11.07837, "longitude": 9.56886, "state": "Bauchi"}, {"city": "Nguzu Edda", "latitude": 5.75543, "longitude": 7.81721, "state": "Ebonyi State"}, {"city": "Nguru", "latitude": 12.87695, "longitude": 10.45536, "state": "Yobe State"}, {"city": "Ngurore", "latitude": 9.28871, "longitude": 12.24026, "state": "Adamawa"}, {"city": "Ngo", "latitude": 4.48388, "longitude": 7.41446, "state": "Rivers State"}, {"city": "Ngala", "latitude": 12.34053, "longitude": 14.1867, "state": "Borno State"}, {"city": "Wara", "latitude": 10.22884, "longitude": 4.62363, "state": "Kebbi"}, {"city": "New Shagunnu", "latitude": 10.33957, "longitude": 4.4688, "state": "Niger State"}, {"city": "New Bussa", "latitude": 9.88644, "longitude": 4.50854, "state": "Niger State"}, {"city": "Neni", "latitude": 6.09511, "longitude": 7.02426, "state": "Anambra"}, {"city": "Nembe", "latitude": 4.53673, "longitude": 6.40332, "state": "Bayelsa State"}, {"city": "Ndeaboh", "latitude": 6.03405, "longitude": 7.56843, "state": "Enugu State"}, {"city": "Nasarawa Egon", "latitude": 8.71226, "longitude": 8.5406, "state": "Nasarawa State"}, {"city": "Nasarawa", "latitude": 8.53895, "longitude": 7.70821, "state": "Nasarawa State"}, {"city": "Nafada", "latitude": 11.09596, "longitude": 11.33261, "state": "Gombe State"}, {"city": "Mutum Biyu", "latitude": 8.64138, "longitude": 10.77355, "state": "Taraba State"}, {"city": "Mushin", "latitude": 6.52799, "longitude": 3.35411, "state": "Lagos"}, {"city": "Musawa", "latitude": 12.12949, "longitude": 7.67023, "state": "Katsina State"}, {"city": "Mubi", "latitude": 10.26858, "longitude": 13.26701, "state": "Adamawa"}, {"city": "Moriki", "latitude": 12.87405, "longitude": 6.48754, "state": "Zamfara State"}, {"city": "Mopa", "latitude": 8.10076, "longitude": 5.89314, "state": "Kogi State"}, {"city": "Moniya", "latitude": 7.5283, "longitude": 3.91156, "state": "Oyo State"}, {"city": "Monguno", "latitude": 12.67059, "longitude": 13.61224, "state": "Borno State"}, {"city": "Mangu", "latitude": 9.5206, "longitude": 9.09769, "state": "Plateau State"}, {"city": "Mokwa", "latitude": 9.29482, "longitude": 5.05412, "state": "Niger State"}, {"city": "Modakeke", "latitude": 7.38299, "longitude": 4.26031, "state": "Osun State"}, {"city": "Bolorunduro", "latitude": 7.16586, "longitude": 4.9637, "state": "Ondo State"}, {"city": "Misau", "latitude": 11.3137, "longitude": 10.46664, "state": "Bauchi"}, {"city": "Miringa", "latitude": 10.73115, "longitude": 12.14626, "state": "Borno State"}, {"city": "Minna", "latitude": 9.61524, "longitude": 6.54776, "state": "Niger State"}, {"city": "Minjibir", "latitude": 12.17765, "longitude": 8.65782, "state": "Kano State"}, {"city": "Miga", "latitude": 12.2388, "longitude": 9.71362, "state": "Jigawa State"}, {"city": "Michika", "latitude": 10.62042, "longitude": 13.38928, "state": "Adamawa"}, {"city": "Imeko", "latitude": 7.44888, "longitude": 2.84289, "state": "Ogun State"}, {"city": "Mgbidi", "latitude": 5.73236, "longitude": 6.88869, "state": "Imo State"}, {"city": "Mberubu", "latitude": 6.1731, "longitude": 7.63017, "state": "Enugu State"}, {"city": "Mbalano", "latitude": 5.73432, "longitude": 7.50238, "state": "Abia State"}, {"city": "Mayo-Belwa", "latitude": 9.05421, "longitude": 12.05794, "state": "Adamawa"}, {"city": "Machina", "latitude": 13.13639, "longitude": 10.04924, "state": "Yobe State"}, {"city": "Matazu", "latitude": 12.23549, "longitude": 7.67426, "state": "Katsina State"}, {"city": "Mashi", "latitude": 12.98044, "longitude": 7.94703, "state": "Katsina State"}, {"city": "Maru", "latitude": 12.3336, "longitude": 6.40372, "state": "Zamfara State"}, {"city": "Marte", "latitude": 12.36532, "longitude": 13.8293, "state": "Borno State"}, {"city": "Maradun", "latitude": 12.56704, "longitude": 6.24407, "state": "Zamfara State"}, {"city": "Mani", "latitude": 12.85426, "longitude": 7.87526, "state": "Katsina State"}, {"city": "Mando", "latitude": 10.71667, "longitude": 6.56667, "state": "Kaduna State"}, {"city": "Malumfashi", "latitude": 11.78935, "longitude": 7.62061, "state": "Katsina State"}, {"city": "Mallam Sidi", "latitude": 10.4683, "longitude": 11.29294, "state": "Gombe State"}, {"city": "Mallammaduri", "latitude": 12.56427, "longitude": 9.95727, "state": "Jigawa State"}, {"city": "Makurdi", "latitude": 7.73375, "longitude": 8.52139, "state": "Benue State"}, {"city": "Makoko", "latitude": 6.49611, "longitude": 3.38778, "state": "Lagos"}, {"city": "Makera", "latitude": 10.4714, "longitude": 7.41026, "state": "Kaduna State"}, {"city": "Makarfi", "latitude": 11.37734, "longitude": 7.88098, "state": "Kaduna State"}, {"city": "Maiyama", "latitude": 12.08225, "longitude": 4.36907, "state": "Kebbi"}, {"city": "Maikunkele", "latitude": 9.6843, "longitude": 6.47889, "state": "Niger State"}, {"city": "Maiha", "latitude": 9.99672, "longitude": 13.21665, "state": "Adamawa"}, {"city": "Maigatari", "latitude": 12.80783, "longitude": 9.44516, "state": "Jigawa State"}, {"city": "Maigana", "latitude": 11.02707, "longitude": 7.93844, "state": "Kaduna State"}, {"city": "Maiduguri", "latitude": 11.84692, "longitude": 13.15712, "state": "Borno State"}, {"city": "Mai\u2019Adua", "latitude": 13.17986, "longitude": 8.2304, "state": "Katsina State"}, {"city": "Mahuta", "latitude": 11.55338, "longitude": 4.98138, "state": "Kebbi"}, {"city": "Magumeri", "latitude": 12.11451, "longitude": 12.8262, "state": "Borno State"}, {"city": "Mafa", "latitude": 11.92417, "longitude": 13.60066, "state": "Borno State"}, {"city": "Madobi", "latitude": 11.77725, "longitude": 8.28801, "state": "Kano State"}, {"city": "Madara", "latitude": 11.7798, "longitude": 10.4479, "state": "Bauchi"}, {"city": "Madala", "latitude": 9.10444, "longitude": 7.21333, "state": "FCT"}, {"city": "Madagali", "latitude": 10.88942, "longitude": 13.62832, "state": "Adamawa"}, {"city": "Lokoja", "latitude": 7.79688, "longitude": 6.74048, "state": "Kogi State"}, {"city": "Lere", "latitude": 10.38584, "longitude": 8.57286, "state": "Kaduna State"}, {"city": "Lere", "latitude": 9.71052, "longitude": 9.34029, "state": "Bauchi"}, {"city": "Lemu", "latitude": 9.39637, "longitude": 6.02791, "state": "Niger State"}, {"city": "Lekki", "latitude": 6.41222, "longitude": 4.0947, "state": "Lagos"}, {"city": "Lau", "latitude": 9.20827, "longitude": 11.27541, "state": "Taraba State"}, {"city": "Lapai", "latitude": 9.04439, "longitude": 6.57089, "state": "Niger State"}, {"city": "Langtang", "latitude": 9.14164, "longitude": 9.79101, "state": "Plateau State"}, {"city": "Lamurde", "latitude": 9.60816, "longitude": 11.79315, "state": "Adamawa"}, {"city": "Lame", "latitude": 10.44154, "longitude": 9.23955, "state": "Bauchi"}, {"city": "Lalupon", "latitude": 7.46791, "longitude": 4.06594, "state": "Oyo State"}, {"city": "Lagos", "latitude": 6.45407, "longitude": 3.39467, "state": null}, {"city": "Lafiagi", "latitude": 8.85299, "longitude": 5.41641, "state": "Kwara State"}, {"city": "Lafia", "latitude": 8.4939, "longitude": 8.51532, "state": "Nasarawa State"}, {"city": "Kwolla", "latitude": 8.90361, "longitude": 9.29086, "state": "Plateau State"}, {"city": "Kwoi", "latitude": 9.45745, "longitude": 8.00684, "state": "Kaduna State"}, {"city": "Kwaya Kusar", "latitude": 10.50296, "longitude": 11.84331, "state": "Borno State"}, {"city": "Kwatarkwashi", "latitude": 12.14082, "longitude": 6.82196, "state": "Zamfara State"}, {"city": "Kware", "latitude": 13.21969, "longitude": 5.26596, "state": "Sokoto"}, {"city": "Kwali", "latitude": 8.88346, "longitude": 7.01858, "state": "FCT"}, {"city": "Kwale", "latitude": 5.70773, "longitude": 6.43402, "state": "Delta"}, {"city": "Kutigi", "latitude": 9.20103, "longitude": 5.59498, "state": "Niger State"}, {"city": "Kuta", "latitude": 9.86864, "longitude": 6.71042, "state": "Niger State"}, {"city": "Kusheriki", "latitude": 10.53283, "longitude": 6.44222, "state": "Niger State"}, {"city": "Kusada", "latitude": 12.4656, "longitude": 7.97848, "state": "Katsina State"}, {"city": "Kurfi", "latitude": 12.6663, "longitude": 7.48478, "state": "Katsina State"}, {"city": "Kura", "latitude": 11.77232, "longitude": 8.42631, "state": "Kano State"}, {"city": "Kunchi", "latitude": 12.5026, "longitude": 8.27092, "state": "Kano State"}, {"city": "Kumo", "latitude": 10.04807, "longitude": 11.21055, "state": "Gombe State"}, {"city": "Kumbotso", "latitude": 11.89002, "longitude": 8.503, "state": "Kano State"}, {"city": "Kumagunnam", "latitude": 13.15498, "longitude": 10.63468, "state": "Yobe State"}, {"city": "Kukawa", "latitude": 12.92475, "longitude": 13.56617, "state": "Borno State"}, {"city": "Kuje", "latitude": 8.87952, "longitude": 7.22756, "state": "FCT"}, {"city": "Kujama", "latitude": 10.45767, "longitude": 7.63808, "state": "Kaduna State"}, {"city": "Kpor", "latitude": 4.65265, "longitude": 7.28397, "state": "Rivers State"}, {"city": "Koton-Karfe", "latitude": 8.08834, "longitude": 6.79876, "state": "Kogi State"}, {"city": "Kosubosu", "latitude": 9.55107, "longitude": 3.22841, "state": "Kwara State"}, {"city": "Kontagora", "latitude": 10.40319, "longitude": 5.4708, "state": "Niger State"}, {"city": "Konkwesso", "latitude": 10.84686, "longitude": 4.09835, "state": "Niger State"}, {"city": "Konduga", "latitude": 11.65331, "longitude": 13.41787, "state": "Borno State"}, {"city": "Koko", "latitude": 6.00084, "longitude": 5.45523, "state": "Delta"}, {"city": "Kiyawa", "latitude": 11.78442, "longitude": 9.6069, "state": "Jigawa State"}, {"city": "Kisi", "latitude": 9.08297, "longitude": 3.85196, "state": "Oyo State"}, {"city": "Kiru", "latitude": 11.7021, "longitude": 8.13481, "state": "Kano State"}, {"city": "Karkarna", "latitude": 12.76653, "longitude": 8.50981, "state": "Jigawa State"}, {"city": "Kiri Kasamma", "latitude": 12.69273, "longitude": 10.25456, "state": "Jigawa State"}, {"city": "Kirfi", "latitude": 10.40556, "longitude": 10.40451, "state": "Bauchi"}, {"city": "Auyo", "latitude": 12.33338, "longitude": 9.93891, "state": "Jigawa State"}, {"city": "Kibiya", "latitude": 11.528, "longitude": 8.66108, "state": "Kano State"}, {"city": "Kende", "latitude": 11.51966, "longitude": 4.2603, "state": "Kebbi"}, {"city": "Kafin Hausa", "latitude": 12.23933, "longitude": 9.91105, "state": "Jigawa State"}, {"city": "Keffi", "latitude": 8.84651, "longitude": 7.87354, "state": "Nasarawa State"}, {"city": "Kebbe", "latitude": 12.12861, "longitude": 4.73433, "state": "Sokoto"}, {"city": "Keana", "latitude": 8.14724, "longitude": 8.79601, "state": "Nasarawa State"}, {"city": "Kazaure", "latitude": 12.64846, "longitude": 8.41178, "state": "Jigawa State"}, {"city": "Kauru", "latitude": 10.57601, "longitude": 8.15096, "state": "Kaduna State"}, {"city": "Kaura Namoda", "latitude": 12.59371, "longitude": 6.58648, "state": "Zamfara State"}, {"city": "Kaugama", "latitude": 12.47431, "longitude": 9.73671, "state": "Jigawa State"}, {"city": "Katsina-Ala", "latitude": 7.16938, "longitude": 9.28465, "state": "Benue State"}, {"city": "Katsina", "latitude": 12.99082, "longitude": 7.60177, "state": "Katsina State"}, {"city": "Katcha", "latitude": 8.76076, "longitude": 6.312, "state": "Niger State"}, {"city": "Warji", "latitude": 11.17756, "longitude": 9.75241, "state": "Bauchi"}, {"city": "Katagum", "latitude": 12.28507, "longitude": 10.35027, "state": "Bauchi"}, {"city": "Karim Lamido", "latitude": 9.3143, "longitude": 11.18731, "state": "Taraba State"}, {"city": "Kari", "latitude": 11.2471, "longitude": 10.561, "state": "Bauchi"}, {"city": "Karaye", "latitude": 11.7836, "longitude": 8.01504, "state": "Kano State"}, {"city": "Kano", "latitude": 12.00012, "longitude": 8.51672, "state": "Kano State"}, {"city": "Kankia", "latitude": 12.54637, "longitude": 7.82254, "state": "Katsina State"}, {"city": "Kankara", "latitude": 11.93114, "longitude": 7.41115, "state": "Katsina State"}, {"city": "Kamba", "latitude": 11.85172, "longitude": 3.65478, "state": "Kebbi"}, {"city": "Kaltungo", "latitude": 9.81998, "longitude": 11.30871, "state": "Gombe State"}, {"city": "Kalgo", "latitude": 12.32666, "longitude": 4.2004, "state": "Kebbi"}, {"city": "Kajuru", "latitude": 10.32281, "longitude": 7.68462, "state": "Kaduna State"}, {"city": "Kaita", "latitude": 13.08346, "longitude": 7.74092, "state": "Katsina State"}, {"city": "Kangiwa", "latitude": 12.55339, "longitude": 3.81814, "state": "Kebbi"}, {"city": "Kaiama", "latitude": 9.6053, "longitude": 3.94101, "state": "Kwara State"}, {"city": "Kaiama", "latitude": 5.1197, "longitude": 6.30101, "state": "Bayelsa State"}, {"city": "Kagoro", "latitude": 9.60776, "longitude": 8.39043, "state": "Kaduna State"}, {"city": "Kagarko", "latitude": 9.4911, "longitude": 7.69771, "state": "Kaduna State"}, {"city": "Kagara", "latitude": 10.18662, "longitude": 6.25485, "state": "Niger State"}, {"city": "Kafur", "latitude": 11.64589, "longitude": 7.69068, "state": "Katsina State"}, {"city": "Kafin Madaki", "latitude": 10.68856, "longitude": 9.76051, "state": "Bauchi"}, {"city": "Kafarati", "latitude": 10.38304, "longitude": 11.09567, "state": "Gombe State"}, {"city": "Kafanchan", "latitude": 9.58126, "longitude": 8.2926, "state": "Kaduna State"}, {"city": "Lissam", "latitude": 7.1961, "longitude": 10.0462, "state": "Taraba State"}, {"city": "Kaduna", "latitude": 10.52641, "longitude": 7.43879, "state": "Kaduna State"}, {"city": "Kachia", "latitude": 9.87342, "longitude": 7.95407, "state": "Kaduna State"}, {"city": "Kabo", "latitude": 11.85606, "longitude": 8.1702, "state": "Kano State"}, {"city": "Kabba", "latitude": 7.82719, "longitude": 6.07502, "state": "Kogi State"}, {"city": "Jos", "latitude": 9.92849, "longitude": 8.89212, "state": "Plateau State"}, {"city": "Jobele", "latitude": 7.76373, "longitude": 3.91985, "state": "Oyo State"}, {"city": "Jimeta", "latitude": 9.27949, "longitude": 12.45819, "state": "Adamawa"}, {"city": "Jikamshi", "latitude": 12.17328, "longitude": 7.77424, "state": "Katsina State"}, {"city": "Jibia", "latitude": 13.09378, "longitude": 7.22624, "state": "Katsina State"}, {"city": "Jega", "latitude": 12.22336, "longitude": 4.37971, "state": "Kebbi"}, {"city": "Jebba", "latitude": 9.11972, "longitude": 4.8236, "state": "Kwara State"}, {"city": "Angware", "latitude": 9.99105, "longitude": 9.10811, "state": "Plateau State"}, {"city": "Jama\u2019are", "latitude": 11.6698, "longitude": 9.928, "state": "Bauchi"}, {"city": "Jalingo", "latitude": 8.89367, "longitude": 11.3596, "state": "Taraba State"}, {"city": "Jakusko", "latitude": 12.37093, "longitude": 10.77373, "state": "Yobe State"}, {"city": "Jajimaji", "latitude": 12.8985, "longitude": 10.80688, "state": "Yobe State"}, {"city": "Lajere", "latitude": 11.98022, "longitude": 11.44002, "state": "Yobe State"}, {"city": "Jahun", "latitude": 12.07629, "longitude": 9.62757, "state": "Jigawa State"}, {"city": "Jada", "latitude": 8.75682, "longitude": 12.15537, "state": "Adamawa"}, {"city": "Iye-Ekiti", "latitude": 7.95457, "longitude": 5.23314, "state": "Ekiti State"}, {"city": "Iyara", "latitude": 7.84325, "longitude": 5.97061, "state": "Kogi State"}, {"city": "Iwo", "latitude": 7.63527, "longitude": 4.18156, "state": "Osun State"}, {"city": "Iwere-Ile", "latitude": 7.99925, "longitude": 3.08877, "state": "Oyo State"}, {"city": "Itu", "latitude": 5.46395, "longitude": 7.33078, "state": "Imo State"}, {"city": "Itu", "latitude": 5.20131, "longitude": 7.98373, "state": "Akwa Ibom State"}, {"city": "Itori", "latitude": 6.93123, "longitude": 3.22147, "state": "Ogun State"}, {"city": "Obarike-Ito", "latitude": 7.0245, "longitude": 8.32358, "state": "Benue State"}, {"city": "Itigidi", "latitude": 5.89147, "longitude": 8.02187, "state": "Cross River State"}, {"city": "Itas", "latitude": 11.8575, "longitude": 9.96394, "state": "Bauchi"}, {"city": "Ita-Ogbolu", "latitude": 7.36838, "longitude": 5.24684, "state": "Ondo State"}, {"city": "Isu", "latitude": 6.15002, "longitude": 7.80131, "state": "Ebonyi State"}, {"city": "Issele-Uku", "latitude": 6.31584, "longitude": 6.47599, "state": "Delta"}, {"city": "Isiokolo", "latitude": 5.59586, "longitude": 6.00028, "state": "Delta"}, {"city": "Isieke", "latitude": 6.38186, "longitude": 8.03736, "state": "Ebonyi State"}, {"city": "Isua", "latitude": 7.45361, "longitude": 5.91047, "state": "Ondo State"}, {"city": "Iseyin", "latitude": 7.97022, "longitude": 3.59626, "state": "Oyo State"}, {"city": "Ise-Ekiti", "latitude": 7.46478, "longitude": 5.42333, "state": "Ekiti State"}, {"city": "Isara", "latitude": 6.98896, "longitude": 3.68244, "state": "Ogun State"}, {"city": "Isanlu-Itedoijowa", "latitude": 8.27338, "longitude": 5.83526, "state": "Kogi State"}, {"city": "Isanlu", "latitude": 8.28823, "longitude": 5.81837, "state": "Kogi State"}, {"city": "Isa", "latitude": 13.20066, "longitude": 6.40487, "state": "Sokoto"}, {"city": "Irewe", "latitude": 6.41692, "longitude": 3.14058, "state": "Lagos"}, {"city": "Iresa-Adu", "latitude": 8.08747, "longitude": 4.39264, "state": "Oyo State"}, {"city": "Ode-Irele", "latitude": 6.49418, "longitude": 4.87036, "state": "Ondo State"}, {"city": "Iragbiji", "latitude": 7.904, "longitude": 4.68705, "state": "Osun State"}, {"city": "Ipoti", "latitude": 7.87377, "longitude": 5.07691, "state": "Ekiti State"}, {"city": "Ipokia", "latitude": 6.52499, "longitude": 2.84246, "state": "Ogun State"}, {"city": "Ipetumodu", "latitude": 7.52152, "longitude": 4.44477, "state": "Osun State"}, {"city": "Iperu", "latitude": 6.91002, "longitude": 3.66557, "state": "Ogun State"}, {"city": "Iperindo", "latitude": 7.50212, "longitude": 4.82582, "state": "Osun State"}, {"city": "Inisa", "latitude": 7.84855, "longitude": 4.32981, "state": "Osun State"}, {"city": "Ingawa", "latitude": 12.64138, "longitude": 8.05162, "state": "Katsina State"}, {"city": "Imota", "latitude": 6.66362, "longitude": 3.66945, "state": "Lagos"}, {"city": "Ilorin", "latitude": 8.49664, "longitude": 4.54214, "state": "Kwara State"}, {"city": "Iloffa", "latitude": 8.09321, "longitude": 5.14258, "state": "Kwara State"}, {"city": "Ilobu", "latitude": 7.83879, "longitude": 4.48672, "state": "Osun State"}, {"city": "Illushi", "latitude": 6.67033, "longitude": 6.62907, "state": "Edo State"}, {"city": "Illela", "latitude": 13.73064, "longitude": 5.29777, "state": "Sokoto"}, {"city": "Ilesa", "latitude": 7.62789, "longitude": 4.74161, "state": "Osun State"}, {"city": "Ile-Oluji", "latitude": 7.21309, "longitude": 4.86902, "state": "Ondo State"}, {"city": "Ilemona", "latitude": 8.10992, "longitude": 4.66059, "state": "Kwara State"}, {"city": "Ile-Ogbo", "latitude": 7.62129, "longitude": 4.24531, "state": "Osun State"}, {"city": "Ilawe-Ekiti", "latitude": 7.59881, "longitude": 5.1047, "state": "Ekiti State"}, {"city": "Ilaro", "latitude": 6.88901, "longitude": 3.01416, "state": "Ogun State"}, {"city": "Ilare", "latitude": 7.35067, "longitude": 5.11333, "state": "Ondo State"}, {"city": "Ila Orangun", "latitude": 8.01714, "longitude": 4.90421, "state": "Osun State"}, {"city": "Ikoyi-Ile", "latitude": 8.2444, "longitude": 4.17181, "state": "Oyo State"}, {"city": "Ikoyi", "latitude": 6.45254, "longitude": 3.43584, "state": "Lagos"}, {"city": "Ikotun", "latitude": 6.54433, "longitude": 3.26379, "state": "Lagos"}, {"city": "Ikot Nakanda", "latitude": 4.88426, "longitude": 8.48379, "state": "Cross River State"}, {"city": "Ikot Ibritam", "latitude": 4.81171, "longitude": 7.61401, "state": "Akwa Ibom State"}, {"city": "Ikot Ekpene", "latitude": 5.18194, "longitude": 7.71481, "state": "Akwa Ibom State"}, {"city": "Afaha Ikot Ebak", "latitude": 5.12504, "longitude": 7.65716, "state": "Akwa Ibom State"}, {"city": "Ikorodu", "latitude": 6.61526, "longitude": 3.5069, "state": "Lagos"}, {"city": "Ikom", "latitude": 5.96669, "longitude": 8.70632, "state": "Cross River State"}, {"city": "Ikole-Ekiti", "latitude": 7.79148, "longitude": 5.50865, "state": "Ekiti State"}, {"city": "Ikirun", "latitude": 7.91283, "longitude": 4.66741, "state": "Osun State"}, {"city": "Ikire", "latitude": 7.36983, "longitude": 4.1863, "state": "Osun State"}, {"city": "Ikere-Ekiti", "latitude": 7.49748, "longitude": 5.23041, "state": "Ekiti State"}, {"city": "Ikenne", "latitude": 6.86579, "longitude": 3.71518, "state": "Ogun State"}, {"city": "Ikem", "latitude": 6.77993, "longitude": 7.71484, "state": "Enugu State"}, {"city": "Ikeja", "latitude": 6.59651, "longitude": 3.34205, "state": "Lagos"}, {"city": "Ikare", "latitude": 7.52591, "longitude": 5.75342, "state": "Ondo State"}, {"city": "Ikara", "latitude": 11.17511, "longitude": 8.22466, "state": "Kaduna State"}, {"city": "Ikang", "latitude": 4.78978, "longitude": 8.5316, "state": "Cross River State"}, {"city": "Ijero-Ekiti", "latitude": 7.81514, "longitude": 5.06716, "state": "Ekiti State"}, {"city": "Ijebu Ode", "latitude": 6.81944, "longitude": 3.91731, "state": "Ogun State"}, {"city": "Ijebu-Jesa", "latitude": 7.68287, "longitude": 4.81769, "state": "Osun State"}, {"city": "Ijebu-Igbo", "latitude": 6.97198, "longitude": 3.99938, "state": "Ogun State"}, {"city": "Ijebu-Ife", "latitude": 6.77837, "longitude": 4.03386, "state": "Ogun State"}, {"city": "Iho", "latitude": 5.58225, "longitude": 7.09896, "state": "Imo State"}, {"city": "Ihiala", "latitude": 5.85475, "longitude": 6.85944, "state": "Anambra"}, {"city": "Iguobazuwa", "latitude": 6.56585, "longitude": 5.35455, "state": "Edo State"}, {"city": "Igumale", "latitude": 6.79792, "longitude": 7.96794, "state": "Benue State"}, {"city": "Igede-Ekiti", "latitude": 7.6685, "longitude": 5.12627, "state": "Ekiti State"}, {"city": "Igbo-Ukwu", "latitude": 6.01798, "longitude": 7.02027, "state": "Anambra"}, {"city": "Igbor", "latitude": 7.45123, "longitude": 8.60805, "state": "Benue State"}, {"city": "Igbo-Ora", "latitude": 7.43383, "longitude": 3.28788, "state": "Oyo State"}, {"city": "Igbokoda", "latitude": 6.34842, "longitude": 4.81135, "state": "Ondo State"}, {"city": "Igboho", "latitude": 8.83784, "longitude": 3.75628, "state": "Oyo State"}, {"city": "Igbeti", "latitude": 8.74921, "longitude": 4.13113, "state": "Oyo State"}, {"city": "Igbekebo", "latitude": 6.35894, "longitude": 4.8652, "state": "Ondo State"}, {"city": "Igbara-Oke", "latitude": 7.41172, "longitude": 5.05805, "state": "Ondo State"}, {"city": "Igbara-Odo", "latitude": 7.50251, "longitude": 5.06258, "state": "Ekiti State"}, {"city": "Igarra", "latitude": 7.29366, "longitude": 6.10432, "state": "Edo State"}, {"city": "Igabi", "latitude": 10.80603, "longitude": 7.71443, "state": "Kaduna State"}, {"city": "Ifon", "latitude": 7.86079, "longitude": 4.4795, "state": "Osun State"}, {"city": "Ifon", "latitude": 6.92973, "longitude": 5.77368, "state": "Ondo State"}, {"city": "Ifo", "latitude": 6.81491, "longitude": 3.19518, "state": "Ogun State"}, {"city": "Ifetedo", "latitude": 7.18419, "longitude": 4.70046, "state": "Osun State"}, {"city": "Ile-Ife", "latitude": 7.4824, "longitude": 4.56032, "state": "Osun State"}, {"city": "Ifaki", "latitude": 7.78942, "longitude": 5.24852, "state": "Ekiti State"}, {"city": "Idu", "latitude": 5.03005, "longitude": 8.01716, "state": "Akwa Ibom State"}, {"city": "Idogbo", "latitude": 6.26812, "longitude": 5.71296, "state": "Edo State"}, {"city": "Idiroko", "latitude": 6.63187, "longitude": 2.7472, "state": "Ogun State"}, {"city": "Idi-Ayunre", "latitude": 7.23292, "longitude": 3.86152, "state": "Oyo State"}, {"city": "Ido-Ekiti", "latitude": 7.84598, "longitude": 5.18314, "state": "Ekiti State"}, {"city": "Ido", "latitude": 7.47103, "longitude": 3.7574, "state": "Oyo State"}, {"city": "Idanre", "latitude": 7.1127, "longitude": 5.1159, "state": "Ondo State"}, {"city": "Idah", "latitude": 7.11345, "longitude": 6.73866, "state": "Kogi State"}, {"city": "Icheu", "latitude": 7.7067, "longitude": 6.7718, "state": "Kogi State"}, {"city": "Ibokun", "latitude": 7.78737, "longitude": 4.72958, "state": "Osun State"}, {"city": "Iboko", "latitude": 6.40655, "longitude": 8.23329, "state": "Ebonyi State"}, {"city": "Ibi", "latitude": 8.18122, "longitude": 9.74431, "state": "Taraba State"}, {"city": "Ibeto", "latitude": 10.48536, "longitude": 5.14501, "state": "Niger State"}, {"city": "Ibagwa-Aka", "latitude": 6.91854, "longitude": 7.39895, "state": "Enugu State"}, {"city": "Ibadan", "latitude": 7.37756, "longitude": 3.90591, "state": "Oyo State"}, {"city": "Hunkuyi", "latitude": 11.2668, "longitude": 7.64916, "state": "Kaduna State"}, {"city": "Hong", "latitude": 10.23305, "longitude": 12.92805, "state": "Adamawa"}, {"city": "Holma", "latitude": 9.89863, "longitude": 13.0545, "state": "Adamawa"}, {"city": "Hinna", "latitude": 10.30426, "longitude": 11.49905, "state": "Gombe State"}, {"city": "Hadejia", "latitude": 12.45347, "longitude": 10.04115, "state": "Jigawa State"}, {"city": "Gwoza", "latitude": 11.08313, "longitude": 13.69595, "state": "Borno State"}, {"city": "Ugwolawo", "latitude": 7.23672, "longitude": 6.92302, "state": "Kogi State"}, {"city": "Gwiwa", "latitude": 12.78169, "longitude": 8.33722, "state": "Jigawa State"}, {"city": "Gwio Kura", "latitude": 12.67479, "longitude": 11.0669, "state": "Yobe State"}, {"city": "Gwasoro", "latitude": 9.48733, "longitude": 3.50771, "state": "Kwara State"}, {"city": "Gwarzo", "latitude": 11.91597, "longitude": 7.9337, "state": "Kano State"}, {"city": "Gwaram", "latitude": 11.27727, "longitude": 9.88385, "state": "Jigawa State"}, {"city": "Gwaram", "latitude": 10.23295, "longitude": 10.28572, "state": "Bauchi"}, {"city": "Gwantu", "latitude": 9.22899, "longitude": 8.45807, "state": "Kaduna State"}, {"city": "Gwandu", "latitude": 12.50204, "longitude": 4.64295, "state": "Kebbi"}, {"city": "Gwagwalada", "latitude": 8.94342, "longitude": 7.08165, "state": "FCT"}, {"city": "Gwadabawa", "latitude": 13.35819, "longitude": 5.23812, "state": "Sokoto"}, {"city": "Guyuk", "latitude": 9.90663, "longitude": 11.92753, "state": "Adamawa"}, {"city": "Gusau", "latitude": 12.17024, "longitude": 6.66412, "state": "Zamfara State"}, {"city": "Guri", "latitude": 12.7281, "longitude": 10.41989, "state": "Jigawa State"}, {"city": "Gummi", "latitude": 12.14484, "longitude": 5.11776, "state": "Zamfara State"}, {"city": "Gumel", "latitude": 12.6269, "longitude": 9.38807, "state": "Jigawa State"}, {"city": "Gulma", "latitude": 12.64231, "longitude": 4.35545, "state": "Kebbi"}, {"city": "Gulak", "latitude": 10.8053, "longitude": 13.45824, "state": "Adamawa"}, {"city": "Gujba", "latitude": 11.49959, "longitude": 11.93396, "state": "Yobe State"}, {"city": "Gudumbali", "latitude": 12.94284, "longitude": 13.17831, "state": "Borno State"}, {"city": "Gubio", "latitude": 12.49749, "longitude": 12.78089, "state": "Borno State"}, {"city": "Goronyo", "latitude": 13.44226, "longitude": 5.67234, "state": "Sokoto"}, {"city": "Gorgoram", "latitude": 12.63958, "longitude": 10.70422, "state": "Yobe State"}, {"city": "Gora", "latitude": 11.91294, "longitude": 7.66531, "state": "Katsina State"}, {"city": "Goniri", "latitude": 11.48451, "longitude": 12.31264, "state": "Yobe State"}, {"city": "Gombi", "latitude": 10.16756, "longitude": 12.73684, "state": "Adamawa"}, {"city": "Gombe", "latitude": 10.28969, "longitude": 11.16729, "state": "Gombe State"}, {"city": "Giwa", "latitude": 11.31568, "longitude": 7.44957, "state": "Kaduna State"}, {"city": "Girei", "latitude": 9.36526, "longitude": 12.54621, "state": "Adamawa"}, {"city": "Gidan Madi", "latitude": 13.29575, "longitude": 4.97467, "state": "Sokoto"}, {"city": "Giade", "latitude": 11.39083, "longitude": 10.19987, "state": "Bauchi"}, {"city": "Gezawa", "latitude": 12.10157, "longitude": 8.75029, "state": "Kano State"}, {"city": "Gembu", "latitude": 6.72556, "longitude": 11.25652, "state": "Taraba State"}, {"city": "Gella", "latitude": 10.15738, "longitude": 13.30004, "state": "Adamawa"}, {"city": "Geidam", "latitude": 12.89439, "longitude": 11.92649, "state": "Yobe State"}, {"city": "Buruku", "latitude": 7.45961, "longitude": 9.20455, "state": "Benue State"}, {"city": "Gbongan", "latitude": 7.47734, "longitude": 4.35351, "state": "Osun State"}, {"city": "Gboko", "latitude": 7.32275, "longitude": 9.00108, "state": "Benue State"}, {"city": "Gbajimba", "latitude": 7.8204, "longitude": 8.85955, "state": "Benue State"}, {"city": "Gaya", "latitude": 11.86064, "longitude": 9.0027, "state": "Kano State"}, {"city": "Gassol", "latitude": 8.53535, "longitude": 10.44615, "state": "Taraba State"}, {"city": "Gashua", "latitude": 12.87398, "longitude": 11.04057, "state": "Yobe State"}, {"city": "Garun Malam", "latitude": 11.68566, "longitude": 8.36986, "state": "Kano State"}, {"city": "Garko", "latitude": 11.64974, "longitude": 8.80328, "state": "Kano State"}, {"city": "Garko", "latitude": 10.17506, "longitude": 11.16458, "state": "Gombe State"}, {"city": "Garki", "latitude": 12.43456, "longitude": 9.19028, "state": "Jigawa State"}, {"city": "Garaku", "latitude": 8.84717, "longitude": 8.13021, "state": "Nasarawa State"}, {"city": "Ganye", "latitude": 8.43497, "longitude": 12.05107, "state": "Adamawa"}, {"city": "Gantsa", "latitude": 11.66312, "longitude": 9.72639, "state": "Jigawa State"}, {"city": "Gandi", "latitude": 12.96358, "longitude": 5.74337, "state": "Sokoto"}, {"city": "Gamboru", "latitude": 12.37299, "longitude": 14.2069, "state": "Borno State"}, {"city": "Gamawa", "latitude": 12.13379, "longitude": 10.53785, "state": "Bauchi"}, {"city": "Gakem", "latitude": 6.76963, "longitude": 8.9912, "state": "Cross River State"}, {"city": "Gajiram", "latitude": 12.49149, "longitude": 13.21191, "state": "Borno State"}, {"city": "Gagarawa", "latitude": 12.40848, "longitude": 9.52881, "state": "Jigawa State"}, {"city": "Gada", "latitude": 13.7543, "longitude": 5.65723, "state": "Sokoto"}, {"city": "Gabarin", "latitude": 11.1093, "longitude": 10.4441, "state": "Bauchi"}, {"city": "Funtua", "latitude": 11.52351, "longitude": 7.31174, "state": "Katsina State"}, {"city": "Fugar", "latitude": 7.09076, "longitude": 6.49828, "state": "Edo State"}, {"city": "Fufu", "latitude": 8.44838, "longitude": 4.72077, "state": "Kwara State"}, {"city": "Fufore", "latitude": 9.22175, "longitude": 12.64975, "state": "Adamawa"}, {"city": "Fika", "latitude": 11.28674, "longitude": 11.30772, "state": "Yobe State"}, {"city": "Fiditi", "latitude": 7.71393, "longitude": 3.91665, "state": "Oyo State"}, {"city": "Faskari", "latitude": 11.72108, "longitude": 7.02991, "state": "Katsina State"}, {"city": "Ezza-Ohu", "latitude": 6.44094, "longitude": 8.08432, "state": "Ebonyi State"}, {"city": "Ezzamgbo", "latitude": 6.39895, "longitude": 7.96155, "state": "Ebonyi State"}, {"city": "Etinan", "latitude": 4.84262, "longitude": 7.85252, "state": "Akwa Ibom State"}, {"city": "Ete", "latitude": 7.08956, "longitude": 7.45341, "state": "Enugu State"}, {"city": "Esuk Oron", "latitude": 4.80293, "longitude": 8.25341, "state": "Akwa Ibom State"}, {"city": "Eruwa", "latitude": 7.53906, "longitude": 3.42453, "state": "Oyo State"}, {"city": "Epe", "latitude": 6.58412, "longitude": 3.98336, "state": "Lagos"}, {"city": "Enwang", "latitude": 4.65643, "longitude": 8.25206, "state": "Akwa Ibom State"}, {"city": "Umunze", "latitude": 5.96694, "longitude": 7.23664, "state": "Anambra"}, {"city": "Enugu-Ukwu", "latitude": 6.17146, "longitude": 7.00525, "state": "Anambra"}, {"city": "Enugu-Ezike", "latitude": 6.9827, "longitude": 7.45534, "state": "Enugu State"}, {"city": "Enugu", "latitude": 6.44132, "longitude": 7.49883, "state": "Enugu State"}, {"city": "Enagi", "latitude": 9.12734, "longitude": 5.54387, "state": "Niger State"}, {"city": "Emure-Ekiti", "latitude": 7.43636, "longitude": 5.45925, "state": "Ekiti State"}, {"city": "Emuoha", "latitude": 4.884, "longitude": 6.8601, "state": "Rivers State"}, {"city": "Elele", "latitude": 5.1009, "longitude": 6.81411, "state": "Rivers State"}, {"city": "Ekpoma", "latitude": 6.743, "longitude": 6.14029, "state": "Edo State"}, {"city": "Eket", "latitude": 4.64231, "longitude": 7.92438, "state": "Akwa Ibom State"}, {"city": "Ekeremor", "latitude": 5.05805, "longitude": 5.78048, "state": "Bayelsa State"}, {"city": "Ejirin", "latitude": 6.61423, "longitude": 3.90019, "state": "Lagos"}, {"city": "Ejigbo", "latitude": 7.90303, "longitude": 4.31364, "state": "Osun State"}, {"city": "Ehor", "latitude": 6.6155, "longitude": 5.98238, "state": "Edo State"}, {"city": "Eha Amufu", "latitude": 6.65915, "longitude": 7.75961, "state": "Enugu State"}, {"city": "Egbeda", "latitude": 7.3772, "longitude": 4.04975, "state": "Oyo State"}, {"city": "Egbe", "latitude": 8.21896, "longitude": 5.50757, "state": "Kogi State"}, {"city": "Effurun", "latitude": 5.55629, "longitude": 5.78459, "state": "Delta"}, {"city": "Efon-Alaaye", "latitude": 7.65649, "longitude": 4.92235, "state": "Ekiti State"}, {"city": "Effium", "latitude": 6.63105, "longitude": 8.05814, "state": "Ebonyi State"}, {"city": "Effraya", "latitude": 5.85926, "longitude": 8.72301, "state": "Cross River State"}, {"city": "Ede", "latitude": 7.73635, "longitude": 4.43536, "state": "Osun State"}, {"city": "Ebute-Metta", "latitude": 6.48799, "longitude": 3.38166, "state": "Lagos"}, {"city": "Ebute Ikorodu", "latitude": 6.60086, "longitude": 3.48818, "state": "Lagos"}, {"city": "Eberi", "latitude": 5.09117, "longitude": 7.2337, "state": "Rivers State"}, {"city": "Ebem Ohafia", "latitude": 5.63108, "longitude": 7.83024, "state": "Abia State"}, {"city": "Dutsin-Ma", "latitude": 12.45392, "longitude": 7.49723, "state": "Katsina State"}, {"city": "Dutsi", "latitude": 12.82862, "longitude": 8.1398, "state": "Katsina State"}, {"city": "Dutsen Wai", "latitude": 10.85009, "longitude": 8.199, "state": "Kaduna State"}, {"city": "Dutse", "latitude": 11.75618, "longitude": 9.33896, "state": "Jigawa State"}, {"city": "Malam Madori", "latitude": 12.56473, "longitude": 9.88084, "state": "Jigawa State"}, {"city": "Duku", "latitude": 11.2361, "longitude": 4.90727, "state": "Niger State"}, {"city": "Dukku", "latitude": 10.82379, "longitude": 10.77221, "state": "Gombe State"}, {"city": "Donga", "latitude": 7.72175, "longitude": 10.04526, "state": "Taraba State"}, {"city": "Doma", "latitude": 8.39307, "longitude": 8.35544, "state": "Nasarawa State"}, {"city": "Disina", "latitude": 11.48135, "longitude": 9.91903, "state": "Bauchi"}, {"city": "Dindima", "latitude": 10.22629, "longitude": 10.15132, "state": "Bauchi"}, {"city": "Dikwa", "latitude": 12.03609, "longitude": 13.91815, "state": "Borno State"}, {"city": "Dikenafai", "latitude": 5.77015, "longitude": 7.15473, "state": "Imo State"}, {"city": "Dengi", "latitude": 9.36872, "longitude": 9.96223, "state": "Plateau State"}, {"city": "Demsa", "latitude": 9.45566, "longitude": 12.15249, "state": "Adamawa"}, {"city": "Dekina", "latitude": 7.68967, "longitude": 7.0438, "state": "Kogi State"}, {"city": "Degema", "latitude": 4.74807, "longitude": 6.76618, "state": "Rivers State"}, {"city": "Deba", "latitude": 10.21187, "longitude": 11.3871, "state": "Gombe State"}, {"city": "Dawakin Tofa", "latitude": 12.10452, "longitude": 8.32999, "state": "Kano State"}, {"city": "Dawakin Kudu", "latitude": 11.83727, "longitude": 8.59699, "state": "Kano State"}, {"city": "Daura", "latitude": 13.03299, "longitude": 8.32351, "state": "Katsina State"}, {"city": "Daura", "latitude": 11.5541, "longitude": 11.406, "state": "Yobe State"}, {"city": "Darazo", "latitude": 10.9992, "longitude": 10.41062, "state": "Bauchi"}, {"city": "Dapchi", "latitude": 12.49536, "longitude": 11.49977, "state": "Yobe State"}, {"city": "Dan Sadau", "latitude": 11.29621, "longitude": 6.4952, "state": "Zamfara State"}, {"city": "Dan Musa", "latitude": 12.26157, "longitude": 7.33409, "state": "Katsina State"}, {"city": "Dankama", "latitude": 13.29782, "longitude": 7.79492, "state": "Katsina State"}, {"city": "Dankalwa", "latitude": 11.74449, "longitude": 12.18545, "state": "Yobe State"}, {"city": "Danja", "latitude": 11.3771, "longitude": 7.56097, "state": "Katsina State"}, {"city": "Dan Gora", "latitude": 11.53485, "longitude": 8.15224, "state": "Kano State"}, {"city": "Dange", "latitude": 12.85313, "longitude": 5.34572, "state": "Sokoto"}, {"city": "Dandume", "latitude": 11.4588, "longitude": 7.12602, "state": "Katsina State"}, {"city": "Damboa", "latitude": 11.15534, "longitude": 12.75638, "state": "Borno State"}, {"city": "Dambatta", "latitude": 12.435, "longitude": 8.51531, "state": "Kano State"}, {"city": "Dambam", "latitude": 11.67893, "longitude": 10.70792, "state": "Bauchi"}, {"city": "Damaturu", "latitude": 11.74697, "longitude": 11.96083, "state": "Yobe State"}, {"city": "Damasak", "latitude": 13.10518, "longitude": 12.50854, "state": "Borno State"}, {"city": "Damagum", "latitude": 11.67824, "longitude": 11.33517, "state": "Yobe State"}, {"city": "Dakingari", "latitude": 11.64809, "longitude": 4.06177, "state": "Kebbi"}, {"city": "Dadiya", "latitude": 9.61947, "longitude": 11.44118, "state": "Gombe State"}, {"city": "Dabai", "latitude": 11.47651, "longitude": 5.20625, "state": "Kebbi"}, {"city": "Chibok", "latitude": 10.86949, "longitude": 12.84657, "state": "Borno State"}, {"city": "Charanchi", "latitude": 12.67155, "longitude": 7.72929, "state": "Katsina State"}, {"city": "Tsafe", "latitude": 11.95775, "longitude": 6.92083, "state": "Zamfara State"}, {"city": "Calabar", "latitude": 4.95893, "longitude": 8.32695, "state": "Cross River State"}, {"city": "Bwari", "latitude": 9.27995, "longitude": 7.38045, "state": "FCT"}, {"city": "Burutu", "latitude": 5.35328, "longitude": 5.50826, "state": "Delta"}, {"city": "Burumburum", "latitude": 11.39106, "longitude": 8.72341, "state": "Kaduna State"}, {"city": "Bununu", "latitude": 9.88224, "longitude": 9.68058, "state": "Bauchi"}, {"city": "Dass", "latitude": 10.00065, "longitude": 9.51596, "state": "Bauchi"}, {"city": "Bunkure", "latitude": 11.69924, "longitude": 8.54127, "state": "Kano State"}, {"city": "Bungudu", "latitude": 12.26848, "longitude": 6.55288, "state": "Zamfara State"}, {"city": "Bukuru", "latitude": 9.79399, "longitude": 8.86397, "state": "Plateau State"}, {"city": "Bukkuyum", "latitude": 12.1372, "longitude": 5.46821, "state": "Zamfara State"}, {"city": "Buguma", "latitude": 4.73614, "longitude": 6.86236, "state": "Rivers State"}, {"city": "Buga", "latitude": 8.4834, "longitude": 7.32612, "state": "Nasarawa State"}, {"city": "Briyel", "latitude": 10.34764, "longitude": 11.6099, "state": "Borno State"}, {"city": "Twon-Brass", "latitude": 4.31231, "longitude": 6.24091, "state": "Bayelsa State"}, {"city": "Bornu Yassu", "latitude": 12.27503, "longitude": 12.56856, "state": "Borno State"}, {"city": "Bori", "latitude": 4.67629, "longitude": 7.36519, "state": "Rivers State"}, {"city": "Ugbokpo", "latitude": 7.65321, "longitude": 7.8841, "state": "Benue State"}, {"city": "Bonny", "latitude": 4.4516, "longitude": 7.17074, "state": "Rivers State"}, {"city": "Bomadi", "latitude": 5.16073, "longitude": 5.92375, "state": "Delta"}, {"city": "Bokkos", "latitude": 9.29921, "longitude": 8.99467, "state": "Plateau State"}, {"city": "Bokani", "latitude": 9.43333, "longitude": 5.2, "state": "Niger State"}, {"city": "Boju", "latitude": 7.35572, "longitude": 7.89303, "state": "Benue State"}, {"city": "Boje", "latitude": 6.28428, "longitude": 8.92062, "state": "Cross River State"}, {"city": "Boi", "latitude": 9.56109, "longitude": 9.50154, "state": "Bauchi"}, {"city": "Bogoro", "latitude": 9.66904, "longitude": 9.60528, "state": "Bauchi"}, {"city": "Bodinga", "latitude": 12.84413, "longitude": 5.15001, "state": "Sokoto"}, {"city": "Bode Saadu", "latitude": 8.939, "longitude": 4.78227, "state": "Kwara State"}, {"city": "Bode Osi", "latitude": 7.74874, "longitude": 4.22833, "state": "Osun State"}, {"city": "Biu", "latitude": 10.61285, "longitude": 12.19458, "state": "Borno State"}, {"city": "Mallam Fatori", "latitude": 13.6746, "longitude": 13.33952, "state": "Borno State"}, {"city": "Birniwa", "latitude": 12.7907, "longitude": 10.23614, "state": "Jigawa State"}, {"city": "Birnin Kudu", "latitude": 11.45207, "longitude": 9.47856, "state": "Jigawa State"}, {"city": "Birnin Kebbi", "latitude": 12.45389, "longitude": 4.1975, "state": "Kebbi"}, {"city": "Sofo-Birnin-Gwari", "latitude": 11.01537, "longitude": 6.78036, "state": "Kaduna State"}, {"city": "Birnin Gwari", "latitude": 10.66374, "longitude": 6.54003, "state": "Kaduna State"}, {"city": "Bin Yauri", "latitude": 10.7823, "longitude": 4.81135, "state": "Kebbi"}, {"city": "Binji", "latitude": 13.22294, "longitude": 4.90888, "state": "Sokoto"}, {"city": "Bindawa", "latitude": 12.66987, "longitude": 7.80865, "state": "Katsina State"}, {"city": "Billiri", "latitude": 9.89024, "longitude": 11.21794, "state": "Gombe State"}, {"city": "Biliri", "latitude": 9.86709, "longitude": 11.22594, "state": "Gombe State"}, {"city": "Bida", "latitude": 9.08044, "longitude": 6.0099, "state": "Niger State"}, {"city": "Bichi", "latitude": 12.23385, "longitude": 8.24063, "state": "Kano State"}, {"city": "Besse", "latitude": 11.26676, "longitude": 4.43114, "state": "Kebbi"}, {"city": "Benisheikh", "latitude": 11.80919, "longitude": 12.49151, "state": "Borno State"}, {"city": "Benin City", "latitude": 6.33815, "longitude": 5.62575, "state": "Edo State"}, {"city": "Bende", "latitude": 5.55874, "longitude": 7.63359, "state": "Abia State"}, {"city": "Bena", "latitude": 11.28444, "longitude": 5.93472, "state": "Kebbi"}, {"city": "Beli", "latitude": 7.85868, "longitude": 10.97187, "state": "Taraba State"}, {"city": "Bebeji", "latitude": 11.66768, "longitude": 8.262, "state": "Kano State"}, {"city": "Baure", "latitude": 12.83772, "longitude": 8.74513, "state": "Katsina State"}, {"city": "Bauchi", "latitude": 10.31032, "longitude": 9.84388, "state": null}, {"city": "Batsari", "latitude": 12.75551, "longitude": 7.24809, "state": "Katsina State"}, {"city": "Batagarawa", "latitude": 12.90611, "longitude": 7.60586, "state": "Katsina State"}, {"city": "Bassa", "latitude": 9.94249, "longitude": 8.74042, "state": "Plateau State"}, {"city": "Baro", "latitude": 8.61565, "longitude": 6.4185, "state": "Niger State"}, {"city": "Barkin Ladi", "latitude": 9.53812, "longitude": 8.8927, "state": "Plateau State"}, {"city": "Bara", "latitude": 10.93605, "longitude": 11.68242, "state": "Yobe State"}, {"city": "Bara", "latitude": 10.37444, "longitude": 10.72884, "state": "Gombe State"}, {"city": "Bama", "latitude": 11.52134, "longitude": 13.68952, "state": "Borno State"}, {"city": "Balle", "latitude": 13.47029, "longitude": 4.68119, "state": "Sokoto"}, {"city": "Bakura", "latitude": 12.71141, "longitude": 5.87367, "state": "Zamfara State"}, {"city": "Bakori", "latitude": 11.55559, "longitude": 7.42419, "state": "Katsina State"}, {"city": "Bajoga", "latitude": 10.85152, "longitude": 11.43169, "state": "Gombe State"}, {"city": "Baissa", "latitude": 7.23087, "longitude": 10.62444, "state": "Taraba State"}, {"city": "Bagwai", "latitude": 12.1577, "longitude": 8.1358, "state": "Kano State"}, {"city": "Bagudo", "latitude": 11.40351, "longitude": 4.22571, "state": "Kebbi"}, {"city": "Bugana", "latitude": 7.99917, "longitude": 7.58361, "state": "Kogi State"}, {"city": "Obagaji", "latitude": 7.89169, "longitude": 7.90938, "state": "Benue State"}, {"city": "Badeggi", "latitude": 9.0563, "longitude": 6.143, "state": "Niger State"}, {"city": "Badagry", "latitude": 6.41502, "longitude": 2.88132, "state": "Lagos"}, {"city": "Babura", "latitude": 12.77256, "longitude": 9.01525, "state": "Jigawa State"}, {"city": "Babban Gida", "latitude": 12.15482, "longitude": 11.7709, "state": "Yobe State"}, {"city": "Babana", "latitude": 10.42949, "longitude": 3.81495, "state": "Niger State"}, {"city": "Azare", "latitude": 11.67478, "longitude": 10.19069, "state": "Bauchi"}, {"city": "Awo-Idemili", "latitude": 5.82648, "longitude": 6.93374, "state": "Imo State"}, {"city": "Awo", "latitude": 7.76767, "longitude": 4.39528, "state": "Osun State"}, {"city": "Awka", "latitude": 6.21269, "longitude": 7.07199, "state": "Anambra"}, {"city": "Awgu", "latitude": 6.07278, "longitude": 7.47739, "state": "Enugu State"}, {"city": "Awe", "latitude": 8.10445, "longitude": 9.14011, "state": "Nasarawa State"}, {"city": "Auna", "latitude": 10.18805, "longitude": 4.72318, "state": "Niger State"}, {"city": "Augie", "latitude": 12.89027, "longitude": 4.59965, "state": "Kebbi"}, {"city": "Auchi", "latitude": 7.06756, "longitude": 6.2636, "state": "Edo State"}, {"city": "Atani", "latitude": 6.01277, "longitude": 6.74768, "state": "Anambra"}, {"city": "Askira", "latitude": 10.65086, "longitude": 12.90883, "state": "Borno State"}, {"city": "Azare", "latitude": 10.52583, "longitude": 12.29115, "state": "Borno State"}, {"city": "Asaba", "latitude": 6.19824, "longitude": 6.73187, "state": "Delta"}, {"city": "Arochukwu", "latitude": 5.38941, "longitude": 7.91235, "state": "Abia State"}, {"city": "Argungu", "latitude": 12.74482, "longitude": 4.52514, "state": "Kebbi"}, {"city": "Araromi-Opin", "latitude": 8.0652, "longitude": 5.25575, "state": "Kwara State"}, {"city": "Aramoko-Ekiti", "latitude": 7.70483, "longitude": 5.04054, "state": "Ekiti State"}, {"city": "Apomu", "latitude": 7.35156, "longitude": 4.18335, "state": "Osun State"}, {"city": "Apapa", "latitude": 6.4488, "longitude": 3.35901, "state": "Lagos"}, {"city": "Ankpa", "latitude": 7.40249, "longitude": 7.63196, "state": "Kogi State"}, {"city": "Anka", "latitude": 12.11347, "longitude": 5.92681, "state": "Zamfara State"}, {"city": "Anchau", "latitude": 10.96245, "longitude": 8.39233, "state": "Kaduna State"}, {"city": "Anaku", "latitude": 6.46875, "longitude": 6.92893, "state": "Anambra"}, {"city": "Amper", "latitude": 9.35509, "longitude": 9.70121, "state": "Plateau State"}, {"city": "Amaigbo", "latitude": 5.73016, "longitude": 7.1151, "state": "Imo State"}, {"city": "Amassoma", "latitude": 4.97032, "longitude": 6.10915, "state": "Bayelsa State"}, {"city": "Umundugba", "latitude": 5.67597, "longitude": 7.07184, "state": "Imo State"}, {"city": "Amaigbo", "latitude": 5.78917, "longitude": 7.83829, "state": "Abia State"}, {"city": "Amagunze", "latitude": 6.33063, "longitude": 7.65247, "state": "Enugu State"}, {"city": "Alkaleri", "latitude": 10.26688, "longitude": 10.33238, "state": "Bauchi"}, {"city": "Aliero", "latitude": 12.28835, "longitude": 4.47139, "state": "Kebbi"}, {"city": "Aliayabiagba", "latitude": 6.45, "longitude": 3.33333, "state": "Lagos"}, {"city": "Aliade", "latitude": 7.29627, "longitude": 8.48278, "state": "Benue State"}, {"city": "Albasu", "latitude": 11.67403, "longitude": 9.14059, "state": "Kano State"}, {"city": "Alapa", "latitude": 8.61667, "longitude": 4.38333, "state": "Oyo State"}, {"city": "Akwukwu-Igbo", "latitude": 6.35753, "longitude": 6.59066, "state": "Delta"}, {"city": "Akwete", "latitude": 4.88688, "longitude": 7.35686, "state": "Abia State"}, {"city": "Akwanga", "latitude": 8.91077, "longitude": 8.40655, "state": "Nasarawa State"}, {"city": "Akure", "latitude": 7.25256, "longitude": 5.19312, "state": "Ondo State"}, {"city": "Aku", "latitude": 6.70902, "longitude": 7.31826, "state": "Enugu State"}, {"city": "Akodo", "latitude": 6.43787, "longitude": 3.9309, "state": "Lagos"}, {"city": "Akko", "latitude": 10.28899, "longitude": 10.9732, "state": "Gombe State"}, {"city": "Ake-Eze", "latitude": 5.91677, "longitude": 7.67615, "state": "Enugu State"}, {"city": "Akanran", "latitude": 7.28075, "longitude": 4.02557, "state": "Oyo State"}, {"city": "Akamkpa", "latitude": 5.31246, "longitude": 8.35515, "state": "Cross River State"}, {"city": "Akankpa", "latitude": 5.1264, "longitude": 8.1898, "state": "Cross River State"}, {"city": "Ajingi", "latitude": 11.96826, "longitude": 9.03679, "state": "Kano State"}, {"city": "Ajaawa", "latitude": 7.93118, "longitude": 4.12654, "state": "Oyo State"}, {"city": "Ajasse Ipo", "latitude": 8.23333, "longitude": 4.81667, "state": "Kwara State"}, {"city": "Ajaokuta", "latitude": 7.56229, "longitude": 6.65497, "state": "Kogi State"}, {"city": "Ajalli", "latitude": 6.04427, "longitude": 7.20864, "state": "Anambra"}, {"city": "Ajaka", "latitude": 7.17416, "longitude": 6.82535, "state": "Kogi State"}, {"city": "Ayetoro", "latitude": 7.24281, "longitude": 3.02639, "state": "Ogun State"}, {"city": "Ayete", "latitude": 7.54363, "longitude": 3.22304, "state": "Oyo State"}, {"city": "Ahoada", "latitude": 5.0828, "longitude": 6.64981, "state": "Rivers State"}, {"city": "Agwara", "latitude": 10.70611, "longitude": 4.58125, "state": "Niger State"}, {"city": "Agulu", "latitude": 6.10045, "longitude": 7.061, "state": "Anambra"}, {"city": "Aguata", "latitude": 6.01634, "longitude": 7.08782, "state": "Anambra"}, {"city": "Akpet Central", "latitude": 5.62105, "longitude": 8.10163, "state": "Cross River State"}, {"city": "Ago-Are", "latitude": 8.50498, "longitude": 3.42125, "state": "Oyo State"}, {"city": "Ago-Amodu", "latitude": 8.62314, "longitude": 3.61419, "state": "Oyo State"}, {"city": "Agenebode", "latitude": 7.10512, "longitude": 6.69381, "state": "Edo State"}, {"city": "Agege", "latitude": 6.61563, "longitude": 3.33337, "state": "Lagos"}, {"city": "Agbor", "latitude": 6.25375, "longitude": 6.1942, "state": "Delta"}, {"city": "Tse-Agberagba", "latitude": 7.07668, "longitude": 8.66551, "state": "Benue State"}, {"city": "Agbani", "latitude": 6.30669, "longitude": 7.54862, "state": "Enugu State"}, {"city": "Agbabu", "latitude": 6.58862, "longitude": 4.8343, "state": "Ondo State"}, {"city": "Agaie", "latitude": 9.0085, "longitude": 6.31821, "state": "Niger State"}, {"city": "Afuze", "latitude": 6.96945, "longitude": 6.04254, "state": "Edo State"}, {"city": "Afon", "latitude": 8.31313, "longitude": 4.52738, "state": "Kwara State"}, {"city": "Afikpo", "latitude": 5.89258, "longitude": 7.93534, "state": "Ebonyi State"}, {"city": "Afam", "latitude": 4.79004, "longitude": 7.31187, "state": "Rivers State"}, {"city": "Afaha Offiong", "latitude": 4.86226, "longitude": 7.90626, "state": "Akwa Ibom State"}, {"city": "Adoru", "latitude": 6.97694, "longitude": 7.16262, "state": "Kogi State"}, {"city": "Ado-Odo", "latitude": 6.59546, "longitude": 2.94176, "state": "Ogun State"}, {"city": "Adogo", "latitude": 7.51004, "longitude": 6.4798, "state": "Kogi State"}, {"city": "Ado-Ekiti", "latitude": 7.62329, "longitude": 5.22087, "state": "Ekiti State"}, {"city": "Adikpo", "latitude": 6.89002, "longitude": 9.23351, "state": "Benue State"}, {"city": "Adani", "latitude": 6.73971, "longitude": 7.01117, "state": "Enugu State"}, {"city": "Achalla", "latitude": 6.33465, "longitude": 6.98863, "state": "Anambra"}, {"city": "Abuochiche", "latitude": 6.69132, "longitude": 8.94337, "state": "Cross River State"}, {"city": "Abuja", "latitude": 9.05785, "longitude": 7.49508, "state": "FCT"}, {"city": "Abudu", "latitude": 6.29489, "longitude": 6.02995, "state": "Edo State"}, {"city": "Abua", "latitude": 4.85763, "longitude": 6.64519, "state": "Rivers State"}, {"city": "Abraka", "latitude": 5.79023, "longitude": 6.10473, "state": "Delta"}, {"city": "Abonnema", "latitude": 4.73171, "longitude": 6.77223, "state": "Rivers State"}, {"city": "Aboh", "latitude": 5.54781, "longitude": 6.52588, "state": "Delta"}, {"city": "Abocho", "latitude": 7.5677, "longitude": 6.9863, "state": "Kogi State"}, {"city": "Abigi", "latitude": 6.48676, "longitude": 4.39531, "state": "Ogun State"}, {"city": "Abeokuta", "latitude": 7.15571, "longitude": 3.34509, "state": "Ogun State"}, {"city": "Abejukolo", "latitude": 7.86808, "longitude": 7.50907, "state": "Kogi State"}, {"city": "Abakaliki", "latitude": 6.32485, "longitude": 8.11368, "state": "Ebonyi State"}, {"city": "Abak", "latitude": 4.98236, "longitude": 7.78922, "state": "Akwa Ibom State"}, {"city": "Abaji", "latitude": 8.47581, "longitude": 6.94321, "state": "FCT"}, {"city": "Abagana", "latitude": 6.19031, "longitude": 6.99357, "state": "Anambra"}, {"city": "Aba", "latitude": 5.10658, "longitude": 7.36667, "state": "Abia State"}, {"city": "Obalende", "latitude": 6.44694, "longitude": 3.41528, "state": "Lagos"}, {"city": "Ajegunle", "latitude": 6.45197, "longitude": 3.33115, "state": "Lagos"}, {"city": "Aiyetoro", "latitude": 6.45917, "longitude": 3.3425, "state": "Lagos"}, {"city": "Alimosho", "latitude": 6.60656, "longitude": 3.30235, "state": "Lagos"}, {"city": "Ojota", "latitude": 6.57806, "longitude": 3.38686, "state": "Lagos"}, {"city": "Ifako", "latitude": 6.64423, "longitude": 3.32488, "state": "Lagos"}, {"city": "Akowonjo", "latitude": 6.61012, "longitude": 3.30968, "state": "Lagos"}, {"city": "Degema Hulk", "latitude": 4.76145, "longitude": 6.74957, "state": "Rivers State"}, {"city": "Yana", "latitude": 11.40724, "longitude": 10.01345, "state": "Bauchi"}, {"city": "Buni Yadi", "latitude": 11.27441, "longitude": 12.00852, "state": "Yobe State"}, {"city": "Obangede", "latitude": 7.62066, "longitude": 6.19928, "state": "Kogi State"}, {"city": "Naka", "latitude": 7.58331, "longitude": 8.2044, "state": "Benue State"}, {"city": "Ezillo", "latitude": 6.4293, "longitude": 7.81787, "state": "Ebonyi State"}, {"city": "Koguna", "latitude": 12.38137, "longitude": 8.45733, "state": "Kano State"}, {"city": "Nasko", "latitude": 10.49539, "longitude": 4.89904, "state": "Niger State"}, {"city": "Oghara", "latitude": 5.93554, "longitude": 5.6661, "state": "Delta"}, {"city": "Abat", "latitude": 4.61712, "longitude": 7.86639, "state": "Akwa Ibom State"}, {"city": "Urua Inyang", "latitude": 5.02309, "longitude": 7.53895, "state": "Akwa Ibom State"}, {"city": "Ibiaku Ntok Okpo", "latitude": 5.30857, "longitude": 7.71106, "state": "Akwa Ibom State"}, {"city": "Irrua", "latitude": 6.73634, "longitude": 6.21984, "state": "Edo State"}, {"city": "Igueben", "latitude": 6.60183, "longitude": 6.24276, "state": "Edo State"}, {"city": "Umumma", "latitude": 5.7569, "longitude": 6.94613, "state": "Imo State"}, {"city": "Akinima", "latitude": 5.08536, "longitude": 6.46633, "state": "Rivers State"}, {"city": "Umuguma", "latitude": 5.46783, "longitude": 6.96594, "state": "Imo State"}, {"city": "Sabon Garin Nangere", "latitude": 11.84945, "longitude": 11.0733, "state": "Yobe State"}, {"city": "Aguobu-Owa", "latitude": 6.37229, "longitude": 7.27178, "state": "Enugu State"}, {"city": "Ugbodo", "latitude": 6.51155, "longitude": 8.12984, "state": "Ebonyi State"}, {"city": "Onueke", "latitude": 6.15537, "longitude": 8.03735, "state": "Ebonyi State"}, {"city": "Lessel", "latitude": 7.12729, "longitude": 9.01981, "state": "Benue State"}, {"city": "Festac Town", "latitude": 6.4697, "longitude": 3.28299, "state": "Lagos"}, {"city": "Atan", "latitude": 6.89456, "longitude": 4.00715, "state": "Ogun State"}, {"city": "Okuku", "latitude": 8.01807, "longitude": 4.67253, "state": "Osun State"}, {"city": "Iyana-Ofa", "latitude": 7.50174, "longitude": 4.08164, "state": "Oyo State"}, {"city": "Mashegu", "latitude": 9.97213, "longitude": 5.77886, "state": "Niger State"}, {"city": "Bangi", "latitude": 10.83368, "longitude": 5.82688, "state": "Niger State"}, {"city": "Gawu Babangida", "latitude": 9.27827, "longitude": 6.99335, "state": "Niger State"}, {"city": "Sabon Wuse", "latitude": 9.33424, "longitude": 7.26114, "state": "Niger State"}, {"city": "Birnin Magaji", "latitude": 12.5592, "longitude": 6.89459, "state": "Zamfara State"}, {"city": "Kaura", "latitude": 9.66812, "longitude": 8.45825, "state": "Kaduna State"}, {"city": "Karu", "latitude": 9.00943, "longitude": 7.66147, "state": "Nasarawa State"}, {"city": "Akpafa", "latitude": 7.47192, "longitude": 6.14979, "state": "Kogi State"}, {"city": "Nkwo Nike", "latitude": 6.50921, "longitude": 7.51006, "state": "Enugu State"}, {"city": "Isiaka", "latitude": 5.86265, "longitude": 7.54622, "state": "Ebonyi State"}, {"city": "Obiozara", "latitude": 6.04644, "longitude": 7.77273, "state": "Ebonyi State"}, {"city": "Onuebonyi Echara", "latitude": 6.0954, "longitude": 8.15157, "state": "Ebonyi State"}, {"city": "Nwaorieubi", "latitude": 5.58182, "longitude": 7.01651, "state": "Imo State"}, {"city": "Aboh", "latitude": 5.47569, "longitude": 7.27161, "state": "Imo State"}, {"city": "Egbema", "latitude": 5.54435, "longitude": 6.7609, "state": "Imo State"}, {"city": "Isinweke", "latitude": 5.62048, "longitude": 7.34985, "state": "Imo State"}, {"city": "Nnenasa", "latitude": 5.73262, "longitude": 7.01364, "state": "Imo State"}, {"city": "Oke-Ikpe", "latitude": 4.91301, "longitude": 7.31936, "state": "Abia State"}, {"city": "Osisioma", "latitude": 5.15979, "longitude": 7.32235, "state": "Abia State"}, {"city": "Omoba", "latitude": 5.24268, "longitude": 7.40623, "state": "Abia State"}, {"city": "Okpuala-Ngwa", "latitude": 5.3571, "longitude": 7.38765, "state": "Abia State"}, {"city": "Nkwoagu Isuochi", "latitude": 5.99125, "longitude": 7.39445, "state": "Abia State"}, {"city": "Isiala Oboro", "latitude": 5.40632, "longitude": 7.56816, "state": "Abia State"}, {"city": "Ogbia", "latitude": 4.68836, "longitude": 6.31525, "state": "Bayelsa State"}, {"city": "Upenekang", "latitude": 4.57064, "longitude": 7.97955, "state": "Akwa Ibom State"}, {"city": "Ikot Edibon", "latitude": 4.77022, "longitude": 7.931, "state": "Akwa Ibom State"}, {"city": "Ikot Akpa Nkuk", "latitude": 4.87231, "longitude": 7.56459, "state": "Akwa Ibom State"}, {"city": "Eyofin", "latitude": 4.7516, "longitude": 8.23056, "state": "Akwa Ibom State"}, {"city": "Urue Offong", "latitude": 4.75275, "longitude": 8.1677, "state": "Akwa Ibom State"}, {"city": "Mabudi", "latitude": 8.73037, "longitude": 9.78512, "state": "Plateau State"}, {"city": "Tunkus", "latitude": 9.02167, "longitude": 9.61384, "state": "Plateau State"}, {"city": "Baap", "latitude": 8.94321, "longitude": 9.24126, "state": "Plateau State"}, {"city": "Kwal", "latitude": 9.37128, "longitude": 9.6192, "state": "Plateau State"}, {"city": "Boh", "latitude": 9.78187, "longitude": 11.27882, "state": "Gombe State"}, {"city": "Kanamma", "latitude": 13.09969, "longitude": 12.1079, "state": "Yobe State"}, {"city": "Khaddamari", "latitude": 11.92589, "longitude": 13.23062, "state": "Borno State"}, {"city": "Sunkani", "latitude": 8.70298, "longitude": 11.25757, "state": "Taraba State"}, {"city": "Saakpenwa", "latitude": 4.71677, "longitude": 7.263, "state": "Rivers State"}, {"city": "Nchia", "latitude": 4.79309, "longitude": 7.12061, "state": "Rivers State"}, {"city": "Rumuodomaya", "latitude": 4.89333, "longitude": 7.00228, "state": "Rivers State"}, {"city": "Chakwama", "latitude": 11.55965, "longitude": 9.66407, "state": "Jigawa State"}, {"city": "Lagos Island", "latitude": 6.46614, "longitude": 3.41838, "state": "Lagos"}, {"city": "Eti-Osa", "latitude": 6.53094, "longitude": 3.32648, "state": "Lagos"}]