[{"city": "Dv\u016fr Kr\u00e1lov\u00e9 nad Labem", "latitude": 50.43172, "longitude": 15.81402, "state": "Kr\u00e1lov\u00e9hradeck\u00fd kraj"}, {"city": "Zvole", "latitude": 49.93466, "longitude": 14.41769, "state": "Central Bohemia"}, {"city": "\u017dulov\u00e1", "latitude": 50.30933, "longitude": 17.09871, "state": "Olomouck\u00fd"}, {"city": "Zub\u0159\u00ed", "latitude": 49.46603, "longitude": 18.09249, "state": "Zl\u00edn"}, {"city": "Zru\u010d nad S\u00e1zavou", "latitude": 49.7401, "longitude": 15.10606, "state": "Central Bohemia"}, {"city": "Znojmo", "latitude": 48.8555, "longitude": 16.0488, "state": "South Moravian"}, {"city": "\u017dlutice", "latitude": 50.09192, "longitude": 13.16297, "state": "Karlovarsk\u00fd kraj"}, {"city": "\u017dlutava", "latitude": 49.19976, "longitude": 17.49037, "state": "Zl\u00edn"}, {"city": "Zlonice", "latitude": 50.2875, "longitude": 14.09214, "state": "Central Bohemia"}, {"city": "Zliv", "latitude": 49.06608, "longitude": 14.36613, "state": "Jiho\u010desk\u00fd kraj"}, {"city": "Zl\u00edn", "latitude": 49.22645, "longitude": 17.67065, "state": null}, {"city": "Zlechov", "latitude": 49.07396, "longitude": 17.37938, "state": "Zl\u00edn"}, {"city": "\u017dleby", "latitude": 49.88958, "longitude": 15.48853, "state": "Central Bohemia"}, {"city": "Zlat\u00e9 Hory", "latitude": 50.2638, "longitude": 17.39602, "state": "Olomouck\u00fd"}, {"city": "\u017di\u017ekov", "latitude": 50.08333, "longitude": 14.45, "state": "Prague"}, {"city": "\u017di\u017eelice", "latitude": 50.13192, "longitude": 15.3932, "state": "Central Bohemia"}, {"city": "\u017ditenice", "latitude": 50.55528, "longitude": 14.15665, "state": "\u00dasteck\u00fd kraj"}, {"city": "\u017dirovnice", "latitude": 49.25318, "longitude": 15.18824, "state": "Vyso\u010dina"}, {"city": "\u017dihle", "latitude": 50.04491, "longitude": 13.37502, "state": "Plze\u0148 Region"}, {"city": "\u017didlochovice", "latitude": 49.03952, "longitude": 16.61881, "state": "South Moravian"}, {"city": "\u017deravice", "latitude": 49.02288, "longitude": 17.23726, "state": "South Moravian"}, {"city": "\u017deliv", "latitude": 49.52984, "longitude": 15.22181, "state": "Vyso\u010dina"}, {"city": "\u017delezn\u00fd Brod", "latitude": 50.64274, "longitude": 15.25408, "state": "Libereck\u00fd kraj"}, {"city": "\u017deleznice", "latitude": 50.47274, "longitude": 15.38459, "state": "Kr\u00e1lov\u00e9hradeck\u00fd kraj"}, {"city": "\u017delezn\u00e1 Ruda", "latitude": 49.13743, "longitude": 13.2352, "state": "Plze\u0148 Region"}, {"city": "\u017deletava", "latitude": 49.14187, "longitude": 15.673, "state": "Vyso\u010dina"}, {"city": "\u017dele\u0161ice", "latitude": 49.11689, "longitude": 16.58137, "state": "South Moravian"}, {"city": "Zelene\u010d", "latitude": 50.13362, "longitude": 14.6607, "state": "Central Bohemia"}, {"city": "\u017debr\u00e1k", "latitude": 49.87574, "longitude": 13.89735, "state": "Central Bohemia"}, {"city": "Zdounky", "latitude": 49.22771, "longitude": 17.31899, "state": "Zl\u00edn"}, {"city": "Zd\u00edkov", "latitude": 49.08456, "longitude": 13.69738, "state": "Jiho\u010desk\u00fd kraj"}, {"city": "Zdice", "latitude": 49.91207, "longitude": 13.97747, "state": "Central Bohemia"}, {"city": "Zdiby", "latitude": 50.16799, "longitude": 14.45118, "state": "Central Bohemia"}, {"city": "\u017d\u010f\u00e1r nad S\u00e1zavou", "latitude": 49.56263, "longitude": 15.93924, "state": "Vyso\u010dina"}, {"city": "\u017d\u010f\u00e1r", "latitude": 50.54366, "longitude": 15.08034, "state": "Central Bohemia"}, {"city": "\u017dd\u00e1nice", "latitude": 49.06729, "longitude": 17.02751, "state": "South Moravian"}, {"city": "Zb\u00fd\u0161ov", "latitude": 49.15524, "longitude": 16.34951, "state": "South Moravian"}, {"city": "Zb\u016fch", "latitude": 49.6784, "longitude": 13.22564, "state": "Plze\u0148 Region"}, {"city": "Zbraslavice", "latitude": 49.81179, "longitude": 15.18319, "state": "Central Bohemia"}, {"city": "Zbraslav", "latitude": 49.22155, "longitude": 16.29415, "state": "South Moravian"}, {"city": "Zborovice", "latitude": 49.24889, "longitude": 17.28464, "state": "Zl\u00edn"}, {"city": "Zbiroh", "latitude": 49.86024, "longitude": 13.77262, "state": "Plze\u0148 Region"}, {"city": "Z\u00e1tor", "latitude": 50.03413, "longitude": 17.59296, "state": "Moravskoslezsk\u00fd"}, {"city": "\u017datec", "latitude": 50.32717, "longitude": 13.54577, "state": "\u00dasteck\u00fd kraj"}, {"city": "Zast\u00e1vka", "latitude": 49.188, "longitude": 16.3631, "state": "South Moravian"}, {"city": "Za\u0161ov\u00e1", "latitude": 49.4741, "longitude": 18.04436, "state": "Zl\u00edn"}, {"city": "Z\u00e1smuky", "latitude": 49.9547, "longitude": 15.03058, "state": "Central Bohemia"}, {"city": "\u017dandov", "latitude": 50.71394, "longitude": 14.39623, "state": "Libereck\u00fd kraj"}, {"city": "\u017damberk", "latitude": 50.08601, "longitude": 16.46738, "state": "Pardubick\u00fd"}, {"city": "Z\u00e1kupy", "latitude": 50.68475, "longitude": 14.64522, "state": "Libereck\u00fd kraj"}, {"city": "Zaje\u010dov", "latitude": 49.77435, "longitude": 13.84072, "state": "Central Bohemia"}, {"city": "Zaje\u010d\u00ed", "latitude": 48.87295, "longitude": 16.76646, "state": "South Moravian"}, {"city": "Z\u00e1horovice", "latitude": 49.02266, "longitude": 17.77922, "state": "Zl\u00edn"}, {"city": "Zadn\u00ed Mostek", "latitude": 50.4967, "longitude": 15.69804, "state": "Kr\u00e1lov\u00e9hradeck\u00fd kraj"}, {"city": "\u017dacl\u00e9\u0159", "latitude": 50.66329, "longitude": 15.91063, "state": "Kr\u00e1lov\u00e9hradeck\u00fd kraj"}, {"city": "Zabru\u0161any", "latitude": 50.60495, "longitude": 13.78748, "state": "\u00dasteck\u00fd kraj"}, {"city": "Z\u00e1b\u0159eh", "latitude": 49.8826, "longitude": 16.87223, "state": "Olomouck\u00fd"}, {"city": "\u017dab\u010dice", "latitude": 49.0116, "longitude": 16.60257, "state": "South Moravian"}, {"city": "Vy\u0161\u0161\u00ed Brod", "latitude": 48.61598, "longitude": 14.31183, "state": "Jiho\u010desk\u00fd kraj"}, {"city": "Vysok\u00e9 nad Jizerou", "latitude": 50.68559, "longitude": 15.40152, "state": "Libereck\u00fd kraj"}, {"city": "Vysok\u00e9 M\u00fdto", "latitude": 49.9532, "longitude": 16.16169, "state": "Pardubick\u00fd"}, {"city": "Vyso\u010dany", "latitude": 50.10938, "longitude": 14.51667, "state": "Prague"}, {"city": "Vy\u0161kov", "latitude": 49.27747, "longitude": 16.99897, "state": "South Moravian"}, {"city": "Vset\u00edn", "latitude": 49.33871, "longitude": 17.99619, "state": "Zl\u00edn"}, {"city": "V\u0161etaty", "latitude": 50.28187, "longitude": 14.59297, "state": "Central Bohemia"}, {"city": "V\u0161estary", "latitude": 50.2566, "longitude": 15.75983, "state": "Kr\u00e1lov\u00e9hradeck\u00fd kraj"}, {"city": "V\u0161eruby", "latitude": 49.84167, "longitude": 13.22943, "state": "Plze\u0148 Region"}, {"city": "V\u0161enory", "latitude": 49.92883, "longitude": 14.30392, "state": "Central Bohemia"}, {"city": "V\u0161emina", "latitude": 49.281, "longitude": 17.87682, "state": "Zl\u00edn"}, {"city": "Vroutek", "latitude": 50.17999, "longitude": 13.37986, "state": "\u00dasteck\u00fd kraj"}, {"city": "V\u0159esina", "latitude": 49.94581, "longitude": 18.19005, "state": "Moravskoslezsk\u00fd"}, {"city": "V\u0159esina", "latitude": 49.82418, "longitude": 18.12569, "state": "Moravskoslezsk\u00fd"}, {"city": "Vrdy", "latitude": 49.92153, "longitude": 15.47243, "state": "Central Bohemia"}, {"city": "Vrchlab\u00ed", "latitude": 50.62697, "longitude": 15.60937, "state": "Kr\u00e1lov\u00e9hradeck\u00fd kraj"}, {"city": "Vrbovec", "latitude": 48.79978, "longitude": 16.10061, "state": "South Moravian"}, {"city": "Vrbno pod Prad\u011bdem", "latitude": 50.12095, "longitude": 17.38316, "state": "Moravskoslezsk\u00fd"}, {"city": "Vrbice", "latitude": 49.88333, "longitude": 18.31667, "state": "Moravskoslezsk\u00fd"}, {"city": "Vrbice", "latitude": 48.91508, "longitude": 16.89779, "state": "South Moravian"}, {"city": "Vrb\u00e1tky", "latitude": 49.50805, "longitude": 17.19994, "state": "Olomouck\u00fd"}, {"city": "Vratimov", "latitude": 49.76995, "longitude": 18.31015, "state": "Moravskoslezsk\u00fd"}, {"city": "Vranovice", "latitude": 48.966, "longitude": 16.6066, "state": "South Moravian"}, {"city": "Vran\u00e9 nad Vltavou", "latitude": 49.93585, "longitude": 14.37706, "state": "Central Bohemia"}, {"city": "Vracov", "latitude": 48.97523, "longitude": 17.211, "state": "South Moravian"}, {"city": "Votice", "latitude": 49.64013, "longitude": 14.63809, "state": "Central Bohemia"}, {"city": "Volyn\u011b", "latitude": 49.16578, "longitude": 13.88624, "state": "Jiho\u010desk\u00fd kraj"}, {"city": "Volary", "latitude": 48.90881, "longitude": 13.88657, "state": "Jiho\u010desk\u00fd kraj"}, {"city": "Vojkovice", "latitude": 49.05138, "longitude": 16.6082, "state": "South Moravian"}, {"city": "Vod\u0148any", "latitude": 49.14789, "longitude": 14.17513, "state": "Jiho\u010desk\u00fd kraj"}, {"city": "Vnorovy", "latitude": 48.93096, "longitude": 17.3505, "state": "South Moravian"}, {"city": "Vlko\u0161", "latitude": 48.9896, "longitude": 17.16356, "state": "South Moravian"}, {"city": "Vl\u010dnov", "latitude": 49.57866, "longitude": 17.95458, "state": "Moravskoslezsk\u00fd"}, {"city": "Vl\u010dnov", "latitude": 49.0099, "longitude": 17.58183, "state": "Zl\u00edn"}, {"city": "Vla\u0161im", "latitude": 49.70632, "longitude": 14.89881, "state": "Central Bohemia"}, {"city": "Vladislav", "latitude": 49.21017, "longitude": 15.9883, "state": "Vyso\u010dina"}, {"city": "Vlachovo B\u0159ez\u00ed", "latitude": 49.08135, "longitude": 13.95842, "state": "Jiho\u010desk\u00fd kraj"}, {"city": "Vlachovice", "latitude": 49.12377, "longitude": 17.94001, "state": "Zl\u00edn"}, {"city": "Vizovice", "latitude": 49.22287, "longitude": 17.85455, "state": "Zl\u00edn"}, {"city": "V\u00edtkov", "latitude": 49.77445, "longitude": 17.74941, "state": "Moravskoslezsk\u00fd"}, {"city": "Vi\u0161\u0148ov\u00e9", "latitude": 48.98241, "longitude": 16.15025, "state": "South Moravian"}, {"city": "Vi\u0161\u0148ova", "latitude": 50.96663, "longitude": 15.02495, "state": "Libereck\u00fd kraj"}, {"city": "Vint\u00ed\u0159ov", "latitude": 50.23382, "longitude": 12.71748, "state": "Karlovarsk\u00fd kraj"}, {"city": "Vini\u010dn\u00e9 \u0160umice", "latitude": 49.21358, "longitude": 16.82541, "state": "South Moravian"}, {"city": "Vina\u0159ice", "latitude": 50.17585, "longitude": 14.09106, "state": "Central Bohemia"}, {"city": "Vimperk", "latitude": 49.05857, "longitude": 13.78286, "state": "Jiho\u010desk\u00fd kraj"}, {"city": "Vil\u00e9mov", "latitude": 50.99054, "longitude": 14.33531, "state": "\u00dasteck\u00fd kraj"}, {"city": "Vil\u00e9mov", "latitude": 49.81566, "longitude": 15.53584, "state": "Vyso\u010dina"}, {"city": "Vil\u00e9mov", "latitude": 49.53578, "longitude": 15.38347, "state": "Vyso\u010dina"}, {"city": "Vik\u00fd\u0159ovice", "latitude": 49.97792, "longitude": 17.01234, "state": "Olomouck\u00fd"}, {"city": "Vidnava", "latitude": 50.37234, "longitude": 17.18626, "state": "Olomouck\u00fd"}, {"city": "Vid\u010de", "latitude": 49.44151, "longitude": 18.09473, "state": "Zl\u00edn"}, {"city": "Veversk\u00e1 B\u00edt\u00fd\u0161ka", "latitude": 49.27591, "longitude": 16.43686, "state": "South Moravian"}, {"city": "V\u011bt\u0159n\u00ed", "latitude": 48.77425, "longitude": 14.28616, "state": "Jiho\u010desk\u00fd kraj"}, {"city": "Vestec", "latitude": 49.9805, "longitude": 14.50487, "state": "Central Bohemia"}, {"city": "Vesel\u00ed nad Moravou", "latitude": 48.95363, "longitude": 17.37648, "state": "South Moravian"}, {"city": "Vesel\u00ed nad Lu\u017enic\u00ed", "latitude": 49.1843, "longitude": 14.69734, "state": "Jiho\u010desk\u00fd kraj"}, {"city": "Ve\u0159ovice", "latitude": 49.53916, "longitude": 18.11425, "state": "Moravskoslezsk\u00fd"}, {"city": "V\u011brovany", "latitude": 49.46109, "longitude": 17.28795, "state": "Olomouck\u00fd"}, {"city": "Verne\u0159ice", "latitude": 50.66114, "longitude": 14.30114, "state": "\u00dasteck\u00fd kraj"}, {"city": "Vendryn\u011b", "latitude": 49.66662, "longitude": 18.71307, "state": "Moravskoslezsk\u00fd"}, {"city": "Velvary", "latitude": 50.28152, "longitude": 14.23616, "state": "Central Bohemia"}, {"city": "Veltrusy", "latitude": 50.27046, "longitude": 14.32857, "state": "Central Bohemia"}, {"city": "Veltruby", "latitude": 50.07059, "longitude": 15.18454, "state": "Central Bohemia"}, {"city": "Velk\u00fd \u00dajezd", "latitude": 49.57858, "longitude": 17.48347, "state": "Olomouck\u00fd"}, {"city": "Velk\u00fd T\u00fdnec", "latitude": 49.54994, "longitude": 17.33359, "state": "Olomouck\u00fd"}, {"city": "Velk\u00fd \u0160enov", "latitude": 50.99078, "longitude": 14.37428, "state": "\u00dasteck\u00fd kraj"}, {"city": "Velk\u00fd Osek", "latitude": 50.09867, "longitude": 15.18629, "state": "Central Bohemia"}, {"city": "Velk\u00fd Beranov", "latitude": 49.40504, "longitude": 15.667, "state": "Vyso\u010dina"}, {"city": "Velk\u00e9 Svato\u0148ovice", "latitude": 50.53164, "longitude": 16.02853, "state": "Kr\u00e1lov\u00e9hradeck\u00fd kraj"}, {"city": "Velk\u00e9 P\u0159\u00edlepy", "latitude": 50.1605, "longitude": 14.31447, "state": "Central Bohemia"}, {"city": "Velk\u00e9 Po\u0159\u00ed\u010d\u00ed", "latitude": 50.46177, "longitude": 16.18931, "state": "Kr\u00e1lov\u00e9hradeck\u00fd kraj"}, {"city": "Velk\u00e9 Popovice", "latitude": 49.92252, "longitude": 14.63934, "state": "Central Bohemia"}, {"city": "Velk\u00e9 Pavlovice", "latitude": 48.90469, "longitude": 16.81605, "state": "South Moravian"}, {"city": "Velk\u00e9 Opatovice", "latitude": 49.61237, "longitude": 16.67947, "state": "South Moravian"}, {"city": "Velk\u00e9 N\u011bm\u010dice", "latitude": 48.99168, "longitude": 16.67208, "state": "South Moravian"}, {"city": "Velk\u00e9 Mezi\u0159\u00ed\u010d\u00ed", "latitude": 49.35522, "longitude": 16.01224, "state": "Vyso\u010dina"}, {"city": "Velk\u00e9 Losiny", "latitude": 50.03197, "longitude": 17.04058, "state": "Olomouck\u00fd"}, {"city": "Velk\u00e9 Karlovice", "latitude": 49.36064, "longitude": 18.28355, "state": "Zl\u00edn"}, {"city": "Velk\u00e9 Ho\u0161tice", "latitude": 49.93609, "longitude": 17.9738, "state": "Moravskoslezsk\u00fd"}, {"city": "Velk\u00e9 Heraltice", "latitude": 49.97493, "longitude": 17.72879, "state": "Moravskoslezsk\u00fd"}, {"city": "Velk\u00e9 Hamry", "latitude": 50.71373, "longitude": 15.31539, "state": "Libereck\u00fd kraj"}, {"city": "Velk\u00e9 B\u0159ezno", "latitude": 50.6627, "longitude": 14.14174, "state": "\u00dasteck\u00fd kraj"}, {"city": "Velk\u00e9 B\u00edlovice", "latitude": 48.84929, "longitude": 16.89227, "state": "South Moravian"}, {"city": "Velk\u00e1 Polom", "latitude": 49.86359, "longitude": 18.09331, "state": "Moravskoslezsk\u00fd"}, {"city": "Velk\u00e1 nad Veli\u010dkou", "latitude": 48.88257, "longitude": 17.5206, "state": "South Moravian"}, {"city": "Velk\u00e1 Hle\u010fsebe", "latitude": 49.96151, "longitude": 12.66763, "state": "Karlovarsk\u00fd kraj"}, {"city": "Velk\u00e1 Dobr\u00e1", "latitude": 50.10964, "longitude": 14.0698, "state": "Central Bohemia"}, {"city": "Velk\u00e1 Byst\u0159ice", "latitude": 49.5948, "longitude": 17.36544, "state": "Olomouck\u00fd"}, {"city": "Velk\u00e1 B\u00edte\u0161", "latitude": 49.28838, "longitude": 16.22742, "state": "Vyso\u010dina"}, {"city": "Velim", "latitude": 50.05965, "longitude": 15.10711, "state": "Central Bohemia"}, {"city": "Vele\u0161\u00edn", "latitude": 48.82949, "longitude": 14.46252, "state": "Jiho\u010desk\u00fd kraj"}, {"city": "Velem\u00edn", "latitude": 50.53898, "longitude": 13.97675, "state": "\u00dasteck\u00fd kraj"}, {"city": "Velehrad", "latitude": 49.10543, "longitude": 17.39426, "state": "Zl\u00edn"}, {"city": "Vejprty", "latitude": 50.49232, "longitude": 13.03212, "state": "\u00dasteck\u00fd kraj"}, {"city": "Vejprnice", "latitude": 49.72988, "longitude": 13.27628, "state": "Plze\u0148 Region"}, {"city": "V\u010deln\u00e1", "latitude": 48.92373, "longitude": 14.45383, "state": "Jiho\u010desk\u00fd kraj"}, {"city": "Varnsdorf", "latitude": 50.91154, "longitude": 14.61824, "state": "\u00dasteck\u00fd kraj"}, {"city": "V\u00e1penn\u00e1", "latitude": 50.28338, "longitude": 17.09762, "state": "Olomouck\u00fd"}, {"city": "Vamberk", "latitude": 50.11756, "longitude": 16.29067, "state": "Kr\u00e1lov\u00e9hradeck\u00fd kraj"}, {"city": "Valtice", "latitude": 48.74069, "longitude": 16.75499, "state": "South Moravian"}, {"city": "Valdice", "latitude": 50.5835, "longitude": 15.41248, "state": "Libereck\u00fd kraj"}, {"city": "Valdice", "latitude": 50.45501, "longitude": 15.38488, "state": "Kr\u00e1lov\u00e9hradeck\u00fd kraj"}, {"city": "Vala\u0161sk\u00e9 Mezi\u0159\u00ed\u010d\u00ed", "latitude": 49.47181, "longitude": 17.97113, "state": "Zl\u00edn"}, {"city": "Vala\u0161sk\u00e9 Klobouky", "latitude": 49.14064, "longitude": 18.0076, "state": "Zl\u00edn"}, {"city": "Vala\u0161sk\u00e1 Polanka", "latitude": 49.26215, "longitude": 17.99667, "state": "Zl\u00edn"}, {"city": "Vala\u0161sk\u00e1 Byst\u0159ice", "latitude": 49.41507, "longitude": 18.10977, "state": "Zl\u00edn"}, {"city": "Vacov", "latitude": 49.13686, "longitude": 13.72911, "state": "Jiho\u010desk\u00fd kraj"}, {"city": "V\u00e1clavovice", "latitude": 49.75531, "longitude": 18.3722, "state": "Moravskoslezsk\u00fd"}, {"city": "Vacenovice", "latitude": 48.9451, "longitude": 17.17404, "state": "South Moravian"}, {"city": "\u00davaly", "latitude": 50.07394, "longitude": 14.7308, "state": "Central Bohemia"}, {"city": "\u00dast\u00ed nad Orlic\u00ed", "latitude": 49.97387, "longitude": 16.39361, "state": "Pardubick\u00fd"}, {"city": "\u00dast\u00ed nad Labem", "latitude": 50.6607, "longitude": 14.03227, "state": "\u00dasteck\u00fd kraj"}, {"city": "\u00da\u0161t\u011bk", "latitude": 50.58474, "longitude": 14.34332, "state": "\u00dasteck\u00fd kraj"}, {"city": "\u00dasov", "latitude": 49.79831, "longitude": 17.01055, "state": "Olomouck\u00fd"}, {"city": "Ur\u010dice", "latitude": 49.43045, "longitude": 17.07291, "state": "Olomouck\u00fd"}, {"city": "\u00dapice", "latitude": 50.51237, "longitude": 16.01607, "state": "Kr\u00e1lov\u00e9hradeck\u00fd kraj"}, {"city": "Uni\u010dov", "latitude": 49.77092, "longitude": 17.12144, "state": "Olomouck\u00fd"}, {"city": "Unho\u0161\u0165", "latitude": 50.08535, "longitude": 14.13007, "state": "Central Bohemia"}, {"city": "\u00dananov", "latitude": 48.90082, "longitude": 16.06351, "state": "South Moravian"}, {"city": "\u00dajezd", "latitude": 49.76397, "longitude": 17.1804, "state": "Olomouck\u00fd"}, {"city": "\u00dajezd", "latitude": 49.16809, "longitude": 17.9061, "state": "Zl\u00edn"}, {"city": "Uhl\u00ed\u0159sk\u00e9 Janovice", "latitude": 49.88019, "longitude": 15.06481, "state": "Central Bohemia"}, {"city": "Uhersk\u00fd Ostroh", "latitude": 48.98556, "longitude": 17.38984, "state": "Zl\u00edn"}, {"city": "Uhersk\u00fd Brod", "latitude": 49.02513, "longitude": 17.64715, "state": "Zl\u00edn"}, {"city": "Uhersk\u00e9 Hradi\u0161t\u011b", "latitude": 49.06975, "longitude": 17.45969, "state": "Zl\u00edn"}, {"city": "\u00dadlice", "latitude": 50.4406, "longitude": 13.45738, "state": "\u00dasteck\u00fd kraj"}, {"city": "T\u00fdn nad Vltavou", "latitude": 49.2234, "longitude": 14.42057, "state": "Jiho\u010desk\u00fd kraj"}, {"city": "T\u00fdni\u0161t\u011b nad Orlic\u00ed", "latitude": 50.15136, "longitude": 16.0777, "state": "Kr\u00e1lov\u00e9hradeck\u00fd kraj"}, {"city": "T\u00fdnec nad S\u00e1zavou", "latitude": 49.83348, "longitude": 14.58983, "state": "Central Bohemia"}, {"city": "T\u00fdnec nad Labem", "latitude": 50.04202, "longitude": 15.35836, "state": "Central Bohemia"}, {"city": "T\u00fdnec", "latitude": 48.77943, "longitude": 17.01322, "state": "South Moravian"}, {"city": "Tvrdonice", "latitude": 48.76048, "longitude": 16.99446, "state": "South Moravian"}, {"city": "Tvaro\u017en\u00e1", "latitude": 49.19177, "longitude": 16.77146, "state": "South Moravian"}, {"city": "Turnov", "latitude": 50.58356, "longitude": 15.15186, "state": "Libereck\u00fd kraj"}, {"city": "Tupesy", "latitude": 49.08427, "longitude": 17.36983, "state": "Zl\u00edn"}, {"city": "Tuchom\u011b\u0159ice", "latitude": 50.13543, "longitude": 14.28218, "state": "Central Bohemia"}, {"city": "Tuchlovice", "latitude": 50.13803, "longitude": 13.99115, "state": "Central Bohemia"}, {"city": "Trutnov", "latitude": 50.56101, "longitude": 15.9127, "state": "Kr\u00e1lov\u00e9hradeck\u00fd kraj"}, {"city": "Tr\u0161ice", "latitude": 49.54237, "longitude": 17.42483, "state": "Olomouck\u00fd"}, {"city": "Troubsko", "latitude": 49.16951, "longitude": 16.51078, "state": "South Moravian"}, {"city": "Troubky", "latitude": 49.43215, "longitude": 17.34914, "state": "Olomouck\u00fd"}, {"city": "Troubelice", "latitude": 49.81731, "longitude": 17.081, "state": "Olomouck\u00fd"}, {"city": "Trojanovice", "latitude": 49.52039, "longitude": 18.238, "state": "Moravskoslezsk\u00fd"}, {"city": "Trnava", "latitude": 49.29603, "longitude": 17.84191, "state": "Zl\u00edn"}, {"city": "Trmice", "latitude": 50.64286, "longitude": 13.99449, "state": "\u00dasteck\u00fd kraj"}, {"city": "T\u0159inec", "latitude": 49.67763, "longitude": 18.67078, "state": "Moravskoslezsk\u00fd"}, {"city": "Trhov\u00fd \u0160t\u011bp\u00e1nov", "latitude": 49.71147, "longitude": 15.01356, "state": "Central Bohemia"}, {"city": "Trhov\u00e9 Sviny", "latitude": 48.84231, "longitude": 14.63924, "state": "Jiho\u010desk\u00fd kraj"}, {"city": "T\u0159e\u0161\u0165", "latitude": 49.29092, "longitude": 15.48211, "state": "Vyso\u010dina"}, {"city": "T\u0159emo\u0161nice", "latitude": 49.86912, "longitude": 15.58002, "state": "Pardubick\u00fd"}, {"city": "T\u0159emo\u0161n\u00e1", "latitude": 49.81584, "longitude": 13.39499, "state": "Plze\u0148 Region"}, {"city": "T\u0159ebotov", "latitude": 49.97244, "longitude": 14.29127, "state": "Central Bohemia"}, {"city": "T\u0159ebo\u0148", "latitude": 49.00364, "longitude": 14.77065, "state": "Jiho\u010desk\u00fd kraj"}, {"city": "T\u0159eb\u00ed\u010d", "latitude": 49.21492, "longitude": 15.88166, "state": "Vyso\u010dina"}, {"city": "T\u0159ebenice", "latitude": 50.47632, "longitude": 13.99005, "state": "\u00dasteck\u00fd kraj"}, {"city": "T\u0159ebechovice pod Orebem", "latitude": 50.20097, "longitude": 15.99223, "state": "Kr\u00e1lov\u00e9hradeck\u00fd kraj"}, {"city": "Traplice", "latitude": 49.13088, "longitude": 17.43622, "state": "Zl\u00edn"}, {"city": "Tova\u010dov", "latitude": 49.43083, "longitude": 17.28795, "state": "Olomouck\u00fd"}, {"city": "Tou\u017eim", "latitude": 50.06049, "longitude": 12.98506, "state": "Karlovarsk\u00fd kraj"}, {"city": "Topoln\u00e1", "latitude": 49.12187, "longitude": 17.54434, "state": "Zl\u00edn"}, {"city": "Tluma\u010dov", "latitude": 49.25351, "longitude": 17.49559, "state": "Zl\u00edn"}, {"city": "Tlu\u010dn\u00e1", "latitude": 49.72425, "longitude": 13.23534, "state": "Plze\u0148 Region"}, {"city": "Ti\u0161nov", "latitude": 49.34872, "longitude": 16.42438, "state": "South Moravian"}, {"city": "Ti\u0161ice", "latitude": 50.2698, "longitude": 14.55411, "state": "Central Bohemia"}, {"city": "Tich\u00e1", "latitude": 49.56999, "longitude": 18.22148, "state": "Moravskoslezsk\u00fd"}, {"city": "T\u011b\u0161etice", "latitude": 49.59317, "longitude": 17.12607, "state": "Olomouck\u00fd"}, {"city": "T\u011b\u0161any", "latitude": 49.03956, "longitude": 16.77003, "state": "South Moravian"}, {"city": "Terez\u00edn", "latitude": 50.511, "longitude": 14.15055, "state": "\u00dasteck\u00fd kraj"}, {"city": "Teplice nad Metuj\u00ed", "latitude": 50.59332, "longitude": 16.17026, "state": "Kr\u00e1lov\u00e9hradeck\u00fd kraj"}, {"city": "Teplice", "latitude": 50.6404, "longitude": 13.82451, "state": "\u00dasteck\u00fd kraj"}, {"city": "Telnice", "latitude": 49.10187, "longitude": 16.71774, "state": "South Moravian"}, {"city": "Tel\u010d", "latitude": 49.18418, "longitude": 15.45275, "state": "Vyso\u010dina"}, {"city": "Te\u010dovice", "latitude": 49.22107, "longitude": 17.58733, "state": "Zl\u00edn"}, {"city": "Tasovice", "latitude": 48.8361, "longitude": 16.15558, "state": "South Moravian"}, {"city": "Tanvald", "latitude": 50.73735, "longitude": 15.30585, "state": "Libereck\u00fd kraj"}, {"city": "Tachov", "latitude": 49.79528, "longitude": 12.63365, "state": "Plze\u0148 Region"}, {"city": "T\u00e1bor", "latitude": 49.41441, "longitude": 14.6578, "state": "Jiho\u010desk\u00fd kraj"}, {"city": "Svratka", "latitude": 49.71066, "longitude": 16.03214, "state": "Vyso\u010dina"}, {"city": "Svoboda nad \u00dapou", "latitude": 50.62596, "longitude": 15.81648, "state": "Kr\u00e1lov\u00e9hradeck\u00fd kraj"}, {"city": "Svitavy", "latitude": 49.75594, "longitude": 16.46829, "state": "Pardubick\u00fd"}, {"city": "Svit\u00e1vka", "latitude": 49.50178, "longitude": 16.59793, "state": "South Moravian"}, {"city": "\u0160vihov", "latitude": 49.48136, "longitude": 13.28417, "state": "Plze\u0148 Region"}, {"city": "Sviadnov", "latitude": 49.68926, "longitude": 18.32762, "state": "Moravskoslezsk\u00fd"}, {"city": "Sv\u011btl\u00e1 nad S\u00e1zavou", "latitude": 49.66801, "longitude": 15.40393, "state": "Vyso\u010dina"}, {"city": "Svatava", "latitude": 50.19223, "longitude": 12.62524, "state": "Karlovarsk\u00fd kraj"}, {"city": "Su\u0161ice", "latitude": 49.23106, "longitude": 13.52018, "state": "Plze\u0148 Region"}, {"city": "\u0160umperk", "latitude": 49.96528, "longitude": 16.97061, "state": "Olomouck\u00fd"}, {"city": "\u0160umice", "latitude": 49.02858, "longitude": 17.72205, "state": "Zl\u00edn"}, {"city": "Sudom\u011b\u0159ice", "latitude": 48.86723, "longitude": 17.25676, "state": "South Moravian"}, {"city": "Sudkov", "latitude": 49.91903, "longitude": 16.94516, "state": "Olomouck\u00fd"}, {"city": "Suchohrdly", "latitude": 48.86822, "longitude": 16.09471, "state": "South Moravian"}, {"city": "Suchdol nad Lu\u017enic\u00ed", "latitude": 48.89, "longitude": 14.8772, "state": "Jiho\u010desk\u00fd kraj"}, {"city": "Suchdol", "latitude": 49.95247, "longitude": 15.16651, "state": "Central Bohemia"}, {"city": "Such\u00e1 Loz", "latitude": 48.97001, "longitude": 17.71379, "state": "Zl\u00edn"}, {"city": "Stud\u00e9nka", "latitude": 49.72342, "longitude": 18.07853, "state": "Moravskoslezsk\u00fd"}, {"city": "Studenec", "latitude": 50.55344, "longitude": 15.54936, "state": "Libereck\u00fd kraj"}, {"city": "Studen\u00e1", "latitude": 49.18516, "longitude": 15.28688, "state": "Jiho\u010desk\u00fd kraj"}, {"city": "Strunkovice nad Blanic\u00ed", "latitude": 49.08402, "longitude": 14.05522, "state": "Jiho\u010desk\u00fd kraj"}, {"city": "Strmilov", "latitude": 49.15846, "longitude": 15.19934, "state": "Jiho\u010desk\u00fd kraj"}, {"city": "St\u0159\u00ed\u017ekov", "latitude": 50.12674, "longitude": 14.49363, "state": "Prague"}, {"city": "St\u0159\u00edbro", "latitude": 49.75565, "longitude": 12.997, "state": "Plze\u0148 Region"}, {"city": "St\u0159elice", "latitude": 49.15221, "longitude": 16.50399, "state": "South Moravian"}, {"city": "Str\u00e1\u017e pod Ralskem", "latitude": 50.7028, "longitude": 14.80102, "state": "Libereck\u00fd kraj"}, {"city": "Str\u00e1\u017eov", "latitude": 49.30326, "longitude": 13.24623, "state": "Plze\u0148 Region"}, {"city": "Str\u00e1\u017enice", "latitude": 48.90102, "longitude": 17.3168, "state": "South Moravian"}, {"city": "Str\u00e1\u017e nad Nisou", "latitude": 50.79099, "longitude": 15.02683, "state": "Libereck\u00fd kraj"}, {"city": "Str\u00e1\u017en\u00e1", "latitude": 49.83104, "longitude": 17.13275, "state": "Olomouck\u00fd"}, {"city": "Str\u00e1\u017e", "latitude": 49.66878, "longitude": 12.77546, "state": "Plze\u0148 Region"}, {"city": "Stra\u0161ice", "latitude": 49.73552, "longitude": 13.75755, "state": "Plze\u0148 Region"}, {"city": "Str\u00e1n\u00ed", "latitude": 48.90216, "longitude": 17.70671, "state": "Zl\u00edn"}, {"city": "Stran\u010dice", "latitude": 49.94811, "longitude": 14.67745, "state": "Central Bohemia"}, {"city": "\u0160tramberk", "latitude": 49.59181, "longitude": 18.11741, "state": "Moravskoslezsk\u00fd"}, {"city": "Strakonice", "latitude": 49.26141, "longitude": 13.90237, "state": "Jiho\u010desk\u00fd kraj"}, {"city": "Stonava", "latitude": 49.81691, "longitude": 18.52518, "state": "Moravskoslezsk\u00fd"}, {"city": "\u0160toky", "latitude": 49.50249, "longitude": 15.58863, "state": "Vyso\u010dina"}, {"city": "Stod", "latitude": 49.63909, "longitude": 13.16474, "state": "Plze\u0148 Region"}, {"city": "Stochov", "latitude": 50.14631, "longitude": 13.96345, "state": "Central Bohemia"}, {"city": "\u0160t\u00edty", "latitude": 49.96122, "longitude": 16.76576, "state": "Olomouck\u00fd"}, {"city": "\u0160t\u00edtn\u00e1 nad Vl\u00e1\u0159\u00ed", "latitude": 49.06881, "longitude": 17.98274, "state": "Zl\u00edn"}, {"city": "\u0160t\u00edtina", "latitude": 49.91487, "longitude": 18.01245, "state": "Moravskoslezsk\u00fd"}, {"city": "St\u011b\u017eery", "latitude": 50.21572, "longitude": 15.74831, "state": "Kr\u00e1lov\u00e9hradeck\u00fd kraj"}, {"city": "\u0160t\u011bt\u00ed", "latitude": 50.45298, "longitude": 14.37421, "state": "\u00dasteck\u00fd kraj"}, {"city": "\u0160ternberk", "latitude": 49.73044, "longitude": 17.29889, "state": "Olomouck\u00fd"}, {"city": "\u0160t\u011bp\u00e1nov", "latitude": 50.16238, "longitude": 16.91702, "state": "Olomouck\u00fd"}, {"city": "\u0160t\u011bp\u00e1nov", "latitude": 49.68404, "longitude": 17.22041, "state": "Olomouck\u00fd"}, {"city": "\u0160t\u011bp\u00e1nkovice", "latitude": 49.95738, "longitude": 18.03741, "state": "Moravskoslezsk\u00fd"}, {"city": "\u0160t\u011bnovice", "latitude": 49.67051, "longitude": 13.39963, "state": "Plze\u0148 Region"}, {"city": "\u0160t\u011bchovice", "latitude": 49.85109, "longitude": 14.40543, "state": "Central Bohemia"}, {"city": "St\u011bbo\u0159ice", "latitude": 49.93708, "longitude": 17.80547, "state": "Moravskoslezsk\u00fd"}, {"city": "Star\u00fd Plzenec", "latitude": 49.69768, "longitude": 13.4735, "state": "Plze\u0148 Region"}, {"city": "Star\u00fd Kol\u00edn", "latitude": 50.00977, "longitude": 15.29388, "state": "Central Bohemia"}, {"city": "Star\u00fd Ji\u010d\u00edn", "latitude": 49.57686, "longitude": 17.96169, "state": "Moravskoslezsk\u00fd"}, {"city": "Star\u00fd Bohum\u00edn", "latitude": 49.9169, "longitude": 18.33619, "state": "Moravskoslezsk\u00fd"}, {"city": "Sta\u0159\u00ed\u010d", "latitude": 49.68594, "longitude": 18.27281, "state": "Moravskoslezsk\u00fd"}, {"city": "Star\u00e9 Nechanice", "latitude": 50.24298, "longitude": 15.61787, "state": "Kr\u00e1lov\u00e9hradeck\u00fd kraj"}, {"city": "Star\u00e9 M\u011bsto", "latitude": 50.16174, "longitude": 16.94734, "state": "Olomouck\u00fd"}, {"city": "Star\u00e9 M\u011bsto", "latitude": 49.66992, "longitude": 18.36349, "state": "Moravskoslezsk\u00fd"}, {"city": "Star\u00e9 M\u011bsto", "latitude": 49.07515, "longitude": 17.43338, "state": "Zl\u00edn"}, {"city": "Star\u00e9 K\u0159e\u010dany", "latitude": 50.95044, "longitude": 14.49617, "state": "\u00dasteck\u00fd kraj"}, {"city": "Star\u00e9 Hradi\u0161t\u011b", "latitude": 50.0654, "longitude": 15.77885, "state": "Pardubick\u00fd"}, {"city": "Sta\u0159e\u010d", "latitude": 49.19783, "longitude": 15.82791, "state": "Vyso\u010dina"}, {"city": "Star\u00e1 Ves nad Ond\u0159ejnic\u00ed", "latitude": 49.72775, "longitude": 18.1885, "state": "Moravskoslezsk\u00fd"}, {"city": "Star\u00e1 Paka", "latitude": 50.51032, "longitude": 15.49444, "state": "Kr\u00e1lov\u00e9hradeck\u00fd kraj"}, {"city": "Star\u00e1 Hu\u0165", "latitude": 49.78225, "longitude": 14.19735, "state": "Central Bohemia"}, {"city": "Sta\u0148kov", "latitude": 49.55348, "longitude": 13.06976, "state": "Plze\u0148 Region"}, {"city": "\u0160\u0165\u00e1hlavy", "latitude": 49.67555, "longitude": 13.50394, "state": "Plze\u0148 Region"}, {"city": "Stachy", "latitude": 49.10179, "longitude": 13.66659, "state": "Jiho\u010desk\u00fd kraj"}, {"city": "Srubec", "latitude": 48.94806, "longitude": 14.54131, "state": "Jiho\u010desk\u00fd kraj"}, {"city": "Spytihn\u011bv", "latitude": 49.14115, "longitude": 17.49808, "state": "Zl\u00edn"}, {"city": "\u0160pindler\u016fv Ml\u00fdn", "latitude": 50.72615, "longitude": 15.60944, "state": "Kr\u00e1lov\u00e9hradeck\u00fd kraj"}, {"city": "Sp\u00e1len\u00e9 Po\u0159\u00ed\u010d\u00ed", "latitude": 49.61371, "longitude": 13.60556, "state": "Plze\u0148 Region"}, {"city": "Solnice", "latitude": 50.20366, "longitude": 16.23762, "state": "Kr\u00e1lov\u00e9hradeck\u00fd kraj"}, {"city": "Sokolov", "latitude": 50.1813, "longitude": 12.6401, "state": "Karlovarsk\u00fd kraj"}, {"city": "Sokolnice", "latitude": 49.11392, "longitude": 16.72156, "state": "South Moravian"}, {"city": "Sobotka", "latitude": 50.46741, "longitude": 15.17619, "state": "Kr\u00e1lov\u00e9hradeck\u00fd kraj"}, {"city": "Sobot\u00edn", "latitude": 50.01039, "longitude": 17.09129, "state": "Olomouck\u00fd"}, {"city": "Sob\u011bslav", "latitude": 49.25993, "longitude": 14.71861, "state": "Jiho\u010desk\u00fd kraj"}, {"city": "Smr\u017eovka", "latitude": 50.7382, "longitude": 15.24639, "state": "Libereck\u00fd kraj"}, {"city": "Smr\u017eice", "latitude": 49.50569, "longitude": 17.10698, "state": "Olomouck\u00fd"}, {"city": "Smi\u0159ice", "latitude": 50.29978, "longitude": 15.86508, "state": "Kr\u00e1lov\u00e9hradeck\u00fd kraj"}, {"city": "Smidary", "latitude": 50.29146, "longitude": 15.47725, "state": "Kr\u00e1lov\u00e9hradeck\u00fd kraj"}, {"city": "Sme\u010dno", "latitude": 50.18844, "longitude": 14.04037, "state": "Central Bohemia"}, {"city": "Slu\u0161ovice", "latitude": 49.24782, "longitude": 17.8015, "state": "Zl\u00edn"}, {"city": "\u0160luknov", "latitude": 51.00369, "longitude": 14.45258, "state": "\u00dasteck\u00fd kraj"}, {"city": "Slavonice", "latitude": 48.99753, "longitude": 15.35154, "state": "Jiho\u010desk\u00fd kraj"}, {"city": "Slavkov u Brna", "latitude": 49.15325, "longitude": 16.87649, "state": "South Moravian"}, {"city": "Slavkov", "latitude": 49.9218, "longitude": 17.83641, "state": "Moravskoslezsk\u00fd"}, {"city": "Slavi\u010d\u00edn", "latitude": 49.08799, "longitude": 17.87349, "state": "Zl\u00edn"}, {"city": "Slatinice", "latitude": 49.56155, "longitude": 17.09992, "state": "Olomouck\u00fd"}, {"city": "Slati\u0148any", "latitude": 49.9211, "longitude": 15.81377, "state": "Pardubick\u00fd"}, {"city": "\u0160lapanice", "latitude": 49.16863, "longitude": 16.72731, "state": "South Moravian"}, {"city": "Slan\u00fd", "latitude": 50.23046, "longitude": 14.08693, "state": "Central Bohemia"}, {"city": "Skute\u010d", "latitude": 49.84347, "longitude": 15.99655, "state": "Pardubick\u00fd"}, {"city": "Skuhrov nad B\u011blou", "latitude": 50.22946, "longitude": 16.2923, "state": "Kr\u00e1lov\u00e9hradeck\u00fd kraj"}, {"city": "Skrbe\u0148", "latitude": 49.64115, "longitude": 17.1765, "state": "Olomouck\u00fd"}, {"city": "Skaln\u00e1", "latitude": 50.1703, "longitude": 12.36144, "state": "Karlovarsk\u00fd kraj"}, {"city": "\u0160itbo\u0159ice", "latitude": 49.01433, "longitude": 16.77975, "state": "South Moravian"}, {"city": "\u0160ilhe\u0159ovice", "latitude": 49.92602, "longitude": 18.27017, "state": "Moravskoslezsk\u00fd"}, {"city": "Sezimovo \u00dast\u00ed", "latitude": 49.38519, "longitude": 14.6848, "state": "Jiho\u010desk\u00fd kraj"}, {"city": "Sezemice", "latitude": 50.06651, "longitude": 15.8527, "state": "Pardubick\u00fd"}, {"city": "\u0160ev\u011bt\u00edn", "latitude": 49.10005, "longitude": 14.5722, "state": "Jiho\u010desk\u00fd kraj"}, {"city": "\u0160estajovice", "latitude": 50.10845, "longitude": 14.68013, "state": "Central Bohemia"}, {"city": "Sepekov", "latitude": 49.42865, "longitude": 14.41815, "state": "Jiho\u010desk\u00fd kraj"}, {"city": "\u0160enov", "latitude": 49.79315, "longitude": 18.37607, "state": "Moravskoslezsk\u00fd"}, {"city": "Senice na Han\u00e9", "latitude": 49.62401, "longitude": 17.08578, "state": "Olomouck\u00fd"}, {"city": "Semily", "latitude": 50.60191, "longitude": 15.33552, "state": "Libereck\u00fd kraj"}, {"city": "Sedlnice", "latitude": 49.6577, "longitude": 18.0869, "state": "Moravskoslezsk\u00fd"}, {"city": "Sedli\u0161t\u011b", "latitude": 49.71836, "longitude": 18.36869, "state": "Moravskoslezsk\u00fd"}, {"city": "Sedlice", "latitude": 49.37715, "longitude": 13.93895, "state": "Jiho\u010desk\u00fd kraj"}, {"city": "Sedlice", "latitude": 48.77401, "longitude": 14.39115, "state": "Jiho\u010desk\u00fd kraj"}, {"city": "Sedlec", "latitude": 49.96391, "longitude": 15.28846, "state": "Central Bohemia"}, {"city": "Sedl\u010dany", "latitude": 49.66057, "longitude": 14.42664, "state": "Central Bohemia"}, {"city": "Se\u010d", "latitude": 49.84694, "longitude": 15.65643, "state": "Pardubick\u00fd"}, {"city": "S\u00e1zava", "latitude": 49.87164, "longitude": 14.89674, "state": "Central Bohemia"}, {"city": "\u0160atov", "latitude": 48.79317, "longitude": 16.00992, "state": "South Moravian"}, {"city": "Satalice", "latitude": 50.12484, "longitude": 14.57191, "state": "Prague"}, {"city": "\u0160ardice", "latitude": 48.96403, "longitude": 17.02812, "state": "South Moravian"}, {"city": "\u0160anov", "latitude": 48.80089, "longitude": 16.37858, "state": "South Moravian"}, {"city": "Samot\u00ed\u0161ky", "latitude": 49.63042, "longitude": 17.32807, "state": "Olomouck\u00fd"}, {"city": "\u0160akvice", "latitude": 48.89746, "longitude": 16.71424, "state": "South Moravian"}, {"city": "Sadsk\u00e1", "latitude": 50.13596, "longitude": 14.98633, "state": "Central Bohemia"}, {"city": "Sadov", "latitude": 50.26711, "longitude": 12.89708, "state": "Karlovarsk\u00fd kraj"}, {"city": "R\u00fdma\u0159ov", "latitude": 49.93183, "longitude": 17.27177, "state": "Moravskoslezsk\u00fd"}, {"city": "Rychvald", "latitude": 49.86625, "longitude": 18.37626, "state": "Moravskoslezsk\u00fd"}, {"city": "Rychnov nad Kn\u011b\u017enou", "latitude": 50.16284, "longitude": 16.27488, "state": "Kr\u00e1lov\u00e9hradeck\u00fd kraj"}, {"city": "Rybitv\u00ed", "latitude": 50.06015, "longitude": 15.70472, "state": "Pardubick\u00fd"}, {"city": "Ryb\u00ed", "latitude": 49.60073, "longitude": 18.07592, "state": "Moravskoslezsk\u00fd"}, {"city": "Rumburk", "latitude": 50.95151, "longitude": 14.55699, "state": "\u00dasteck\u00fd kraj"}, {"city": "Rudolfov", "latitude": 48.99339, "longitude": 14.54179, "state": "Jiho\u010desk\u00fd kraj"}, {"city": "Rudn\u00edk", "latitude": 50.59517, "longitude": 15.73362, "state": "Kr\u00e1lov\u00e9hradeck\u00fd kraj"}, {"city": "Rudn\u00e1", "latitude": 50.03502, "longitude": 14.23435, "state": "Central Bohemia"}, {"city": "Ruda nad Moravou", "latitude": 49.981, "longitude": 16.87782, "state": "Olomouck\u00fd"}, {"city": "Rtyn\u011b v Podkrkono\u0161\u00ed", "latitude": 50.50523, "longitude": 16.07187, "state": "Kr\u00e1lov\u00e9hradeck\u00fd kraj"}, {"city": "Roztoky", "latitude": 50.15841, "longitude": 14.3976, "state": "Central Bohemia"}, {"city": "Roztoky", "latitude": 50.02671, "longitude": 13.86787, "state": "Central Bohemia"}, {"city": "Ro\u017enov pod Radho\u0161t\u011bm", "latitude": 49.45853, "longitude": 18.14302, "state": "Zl\u00edn"}, {"city": "Ro\u017emit\u00e1l pod T\u0159em\u0161\u00ednem", "latitude": 49.60196, "longitude": 13.8643, "state": "Central Bohemia"}, {"city": "Ro\u017e\u010falovice", "latitude": 50.30476, "longitude": 15.16962, "state": "Central Bohemia"}, {"city": "Rovensko pod Troskami", "latitude": 50.53532, "longitude": 15.25941, "state": "Libereck\u00fd kraj"}, {"city": "Rous\u00ednov", "latitude": 49.20128, "longitude": 16.88215, "state": "South Moravian"}, {"city": "Roudnice nad Labem", "latitude": 50.42528, "longitude": 14.26175, "state": "\u00dasteck\u00fd kraj"}, {"city": "Rouchovany", "latitude": 49.07036, "longitude": 16.1076, "state": "Vyso\u010dina"}, {"city": "Rotava", "latitude": 50.29627, "longitude": 12.57341, "state": "Karlovarsk\u00fd kraj"}, {"city": "Rosice", "latitude": 49.92226, "longitude": 15.95127, "state": "Pardubick\u00fd"}, {"city": "Rosice", "latitude": 49.18232, "longitude": 16.38787, "state": "South Moravian"}, {"city": "Ropice", "latitude": 49.70536, "longitude": 18.61345, "state": "Moravskoslezsk\u00fd"}, {"city": "Ronov nad Doubravou", "latitude": 49.88825, "longitude": 15.53144, "state": "Pardubick\u00fd"}, {"city": "Rokytnice v Orlick\u00fdch Hor\u00e1ch", "latitude": 50.16473, "longitude": 16.46567, "state": "Kr\u00e1lov\u00e9hradeck\u00fd kraj"}, {"city": "Rokytnice nad Jizerou", "latitude": 50.72561, "longitude": 15.43357, "state": "Libereck\u00fd kraj"}, {"city": "Rokytnice", "latitude": 49.46592, "longitude": 17.3912, "state": "Olomouck\u00fd"}, {"city": "Rokycany", "latitude": 49.7427, "longitude": 13.59459, "state": "Plze\u0148 Region"}, {"city": "Rohatec", "latitude": 48.8804, "longitude": 17.1833, "state": "South Moravian"}, {"city": "\u0158\u00ed\u010dany", "latitude": 49.99168, "longitude": 14.65427, "state": "Central Bohemia"}, {"city": "\u0158\u00ed\u010dany", "latitude": 49.21497, "longitude": 16.39362, "state": "South Moravian"}, {"city": "\u0158e\u017e", "latitude": 50.17734, "longitude": 14.35733, "state": "Central Bohemia"}, {"city": "\u0158evni\u010dov", "latitude": 50.18489, "longitude": 13.80823, "state": "Central Bohemia"}, {"city": "\u0158evnice", "latitude": 49.91395, "longitude": 14.23589, "state": "Central Bohemia"}, {"city": "\u0158epi\u0161t\u011b", "latitude": 49.73338, "longitude": 18.31707, "state": "Moravskoslezsk\u00fd"}, {"city": "\u0158ehlovice", "latitude": 50.60712, "longitude": 13.95412, "state": "\u00dasteck\u00fd kraj"}, {"city": "\u0158e\u010dany nad Labem", "latitude": 50.03589, "longitude": 15.47735, "state": "Pardubick\u00fd"}, {"city": "Rat\u00ed\u0161kovice", "latitude": 48.92002, "longitude": 17.16561, "state": "South Moravian"}, {"city": "Ratibo\u0159", "latitude": 49.36769, "longitude": 17.91499, "state": "Zl\u00edn"}, {"city": "Rataje", "latitude": 49.2713, "longitude": 17.33555, "state": "Zl\u00edn"}, {"city": "Raspenava", "latitude": 50.90415, "longitude": 15.11465, "state": "Libereck\u00fd kraj"}, {"city": "Ra\u0161kovice", "latitude": 49.61975, "longitude": 18.47286, "state": "Moravskoslezsk\u00fd"}, {"city": "Rapot\u00edn", "latitude": 50.01094, "longitude": 17.03121, "state": "Olomouck\u00fd"}, {"city": "Rakvice", "latitude": 48.85811, "longitude": 16.8133, "state": "South Moravian"}, {"city": "Rakovn\u00edk", "latitude": 50.1037, "longitude": 13.7334, "state": "Central Bohemia"}, {"city": "Rajhradice", "latitude": 49.09203, "longitude": 16.62933, "state": "South Moravian"}, {"city": "Rajhrad", "latitude": 49.09021, "longitude": 16.60388, "state": "South Moravian"}, {"city": "R\u00e1je\u010dko", "latitude": 49.39393, "longitude": 16.64497, "state": "South Moravian"}, {"city": "R\u00e1jec-Jest\u0159eb\u00ed", "latitude": 49.41094, "longitude": 16.63902, "state": "South Moravian"}, {"city": "Radvanice", "latitude": 50.56745, "longitude": 16.06172, "state": "Kr\u00e1lov\u00e9hradeck\u00fd kraj"}, {"city": "Radslavice", "latitude": 49.47817, "longitude": 17.51656, "state": "Olomouck\u00fd"}, {"city": "Radonice", "latitude": 50.29803, "longitude": 13.28464, "state": "\u00dasteck\u00fd kraj"}, {"city": "Radomy\u0161l", "latitude": 49.31634, "longitude": 13.93024, "state": "Jiho\u010desk\u00fd kraj"}, {"city": "Radnice", "latitude": 49.85677, "longitude": 13.6057, "state": "Plze\u0148 Region"}, {"city": "Radim\u011b\u0159", "latitude": 49.6985, "longitude": 16.4407, "state": "Pardubick\u00fd"}, {"city": "Py\u0161ely", "latitude": 49.87678, "longitude": 14.67713, "state": "Central Bohemia"}, {"city": "Pustim\u011b\u0159", "latitude": 49.32251, "longitude": 17.02792, "state": "South Moravian"}, {"city": "Pust\u00e1 Polom", "latitude": 49.84917, "longitude": 17.9979, "state": "Moravskoslezsk\u00fd"}, {"city": "Pten\u00ed", "latitude": 49.51163, "longitude": 16.9611, "state": "Olomouck\u00fd"}, {"city": "Ps\u00e1ry", "latitude": 49.93622, "longitude": 14.51276, "state": "Central Bohemia"}, {"city": "Prusinovice", "latitude": 49.37898, "longitude": 17.5871, "state": "Zl\u00edn"}, {"city": "Pru\u0161\u00e1nky", "latitude": 48.8284, "longitude": 16.98068, "state": "South Moravian"}, {"city": "Pr\u016fhonice", "latitude": 49.99962, "longitude": 14.55017, "state": "Central Bohemia"}, {"city": "Protiv\u00edn", "latitude": 49.19949, "longitude": 14.21717, "state": "Jiho\u010desk\u00fd kraj"}, {"city": "Protivanov", "latitude": 49.48351, "longitude": 16.83594, "state": "Olomouck\u00fd"}, {"city": "Prost\u0159edn\u00ed Be\u010dva", "latitude": 49.43609, "longitude": 18.252, "state": "Zl\u00edn"}, {"city": "Prost\u011bjov", "latitude": 49.47188, "longitude": 17.11184, "state": "Olomouck\u00fd"}, {"city": "Prosek", "latitude": 50.11525, "longitude": 14.50685, "state": "Prague"}, {"city": "Prose\u010d", "latitude": 49.8059, "longitude": 16.11621, "state": "Pardubick\u00fd"}, {"city": "Probo\u0161tov", "latitude": 50.66773, "longitude": 13.83601, "state": "\u00dasteck\u00fd kraj"}, {"city": "P\u0159\u00ed\u0161ovice", "latitude": 50.57813, "longitude": 15.0839, "state": "Libereck\u00fd kraj"}, {"city": "P\u0159imda", "latitude": 49.67488, "longitude": 12.67366, "state": "Plze\u0148 Region"}, {"city": "P\u0159\u00edkazy", "latitude": 49.6436, "longitude": 17.14337, "state": "Olomouck\u00fd"}, {"city": "P\u0159ibyslav", "latitude": 49.57684, "longitude": 15.73855, "state": "Vyso\u010dina"}, {"city": "P\u0159\u00edbram", "latitude": 49.68988, "longitude": 14.01043, "state": "Central Bohemia"}, {"city": "P\u0159\u00edbor", "latitude": 49.64094, "longitude": 18.14499, "state": "Moravskoslezsk\u00fd"}, {"city": "P\u0159e\u0161tice", "latitude": 49.57298, "longitude": 13.3335, "state": "Plze\u0148 Region"}, {"city": "P\u0159erov nad Labem", "latitude": 50.16027, "longitude": 14.82502, "state": "Central Bohemia"}, {"city": "P\u0159erov", "latitude": 49.45511, "longitude": 17.4509, "state": "Olomouck\u00fd"}, {"city": "P\u0159emyslovice", "latitude": 49.55637, "longitude": 16.95581, "state": "Olomouck\u00fd"}, {"city": "P\u0159elou\u010d", "latitude": 50.03985, "longitude": 15.56031, "state": "Pardubick\u00fd"}, {"city": "P\u0159edm\u011b\u0159ice nad Labem", "latitude": 50.25633, "longitude": 15.81556, "state": "Kr\u00e1lov\u00e9hradeck\u00fd kraj"}, {"city": "P\u0159edkl\u00e1\u0161te\u0159\u00ed", "latitude": 49.35253, "longitude": 16.40241, "state": "South Moravian"}, {"city": "Pra\u017emo", "latitude": 49.60876, "longitude": 18.48617, "state": "Moravskoslezsk\u00fd"}, {"city": "P\u0159\u00e1slavice", "latitude": 49.58568, "longitude": 17.38209, "state": "Olomouck\u00fd"}, {"city": "Prague", "latitude": 50.08804, "longitude": 14.42076, "state": null}, {"city": "Prachovice", "latitude": 49.89379, "longitude": 15.62872, "state": "Pardubick\u00fd"}, {"city": "Prachatice", "latitude": 49.01292, "longitude": 13.99752, "state": "Jiho\u010desk\u00fd kraj"}, {"city": "Pozo\u0159ice", "latitude": 49.20976, "longitude": 16.79074, "state": "South Moravian"}, {"city": "Pozlovice", "latitude": 49.12921, "longitude": 17.76925, "state": "Zl\u00edn"}, {"city": "Povrly", "latitude": 50.67276, "longitude": 14.16033, "state": "\u00dasteck\u00fd kraj"}, {"city": "Pot\u0161t\u00e1t", "latitude": 49.63693, "longitude": 17.65174, "state": "Olomouck\u00fd"}, {"city": "Postupice", "latitude": 49.72798, "longitude": 14.77722, "state": "Central Bohemia"}, {"city": "Post\u0159elmov", "latitude": 49.90756, "longitude": 16.91226, "state": "Olomouck\u00fd"}, {"city": "Post\u0159ekov", "latitude": 49.45827, "longitude": 12.80678, "state": "Plze\u0148 Region"}, {"city": "Postoloprty", "latitude": 50.35979, "longitude": 13.70291, "state": "\u00dasteck\u00fd kraj"}, {"city": "Po\u0159\u00ed\u010d\u00ed nad S\u00e1zavou", "latitude": 49.83895, "longitude": 14.67446, "state": "Central Bohemia"}, {"city": "Po\u0159\u00ed\u010dany", "latitude": 50.10806, "longitude": 14.91818, "state": "Central Bohemia"}, {"city": "Popovice", "latitude": 49.05255, "longitude": 17.52712, "state": "Zl\u00edn"}, {"city": "Ponikl\u00e1", "latitude": 50.66152, "longitude": 15.46329, "state": "Libereck\u00fd kraj"}, {"city": "Pomez\u00ed", "latitude": 49.71026, "longitude": 16.31729, "state": "Pardubick\u00fd"}, {"city": "Poln\u00e1", "latitude": 49.487, "longitude": 15.71881, "state": "Vyso\u010dina"}, {"city": "Poli\u010dka", "latitude": 49.71465, "longitude": 16.26543, "state": "Pardubick\u00fd"}, {"city": "Police nad Metuj\u00ed", "latitude": 50.53687, "longitude": 16.2335, "state": "Kr\u00e1lov\u00e9hradeck\u00fd kraj"}, {"city": "Pole\u0161ovice", "latitude": 49.0339, "longitude": 17.34064, "state": "Zl\u00edn"}, {"city": "Polepy", "latitude": 50.50563, "longitude": 14.26447, "state": "\u00dasteck\u00fd kraj"}, {"city": "Poho\u0159elice", "latitude": 48.98119, "longitude": 16.52445, "state": "South Moravian"}, {"city": "Podol\u00ed", "latitude": 49.19042, "longitude": 16.72084, "state": "South Moravian"}, {"city": "Podiv\u00edn", "latitude": 48.82554, "longitude": 16.84822, "state": "South Moravian"}, {"city": "Pod\u011bbrady", "latitude": 50.14242, "longitude": 15.11881, "state": "Central Bohemia"}, {"city": "Podbo\u0159any", "latitude": 50.22937, "longitude": 13.41192, "state": "\u00dasteck\u00fd kraj"}, {"city": "Po\u010d\u00e1tky", "latitude": 49.2602, "longitude": 15.24022, "state": "Vyso\u010dina"}, {"city": "Pob\u011b\u017eovice", "latitude": 49.51029, "longitude": 12.80261, "state": "Plze\u0148 Region"}, {"city": "Pilsen", "latitude": 49.74747, "longitude": 13.37759, "state": "Plze\u0148 Region"}, {"city": "Plumlov", "latitude": 49.46614, "longitude": 17.01502, "state": "Olomouck\u00fd"}, {"city": "Plesn\u00e1", "latitude": 50.2207, "longitude": 12.34669, "state": "Karlovarsk\u00fd kraj"}, {"city": "Plavy", "latitude": 50.70324, "longitude": 15.31736, "state": "Libereck\u00fd kraj"}, {"city": "Plasy", "latitude": 49.93449, "longitude": 13.39035, "state": "Plze\u0148 Region"}, {"city": "Pl\u00e1nice", "latitude": 49.38993, "longitude": 13.47106, "state": "Plze\u0148 Region"}, {"city": "Pla\u0148any", "latitude": 50.0501, "longitude": 15.02944, "state": "Central Bohemia"}, {"city": "Plan\u00e1 nad Lu\u017enic\u00ed", "latitude": 49.35444, "longitude": 14.70147, "state": "Jiho\u010desk\u00fd kraj"}, {"city": "Plan\u00e1", "latitude": 49.86816, "longitude": 12.74378, "state": "Plze\u0148 Region"}, {"city": "P\u00ed\u0161\u0165", "latitude": 49.97857, "longitude": 18.19349, "state": "Moravskoslezsk\u00fd"}, {"city": "P\u00edsek", "latitude": 49.55924, "longitude": 18.80231, "state": "Moravskoslezsk\u00fd"}, {"city": "P\u00edsek", "latitude": 49.3088, "longitude": 14.1475, "state": "Jiho\u010desk\u00fd kraj"}, {"city": "P\u00edse\u010dn\u00e1", "latitude": 50.27303, "longitude": 17.25373, "state": "Olomouck\u00fd"}, {"city": "Piln\u00edkov", "latitude": 50.53247, "longitude": 15.8202, "state": "Kr\u00e1lov\u00e9hradeck\u00fd kraj"}, {"city": "Pet\u0159vald", "latitude": 49.831, "longitude": 18.3894, "state": "Moravskoslezsk\u00fd"}, {"city": "Pet\u0159vald", "latitude": 49.70872, "longitude": 18.15719, "state": "Moravskoslezsk\u00fd"}, {"city": "Petrovice u Karvin\u00e9", "latitude": 49.89587, "longitude": 18.54779, "state": "Moravskoslezsk\u00fd"}, {"city": "Petrovice", "latitude": 49.55426, "longitude": 14.33737, "state": "Central Bohemia"}, {"city": "Petrov", "latitude": 48.88196, "longitude": 17.2781, "state": "South Moravian"}, {"city": "Peruc", "latitude": 50.3425, "longitude": 13.95986, "state": "\u00dasteck\u00fd kraj"}, {"city": "Per\u0161tejn", "latitude": 50.38166, "longitude": 13.1102, "state": "\u00dasteck\u00fd kraj"}, {"city": "P\u011bn\u010d\u00edn", "latitude": 50.68769, "longitude": 15.23593, "state": "Libereck\u00fd kraj"}, {"city": "Pelh\u0159imov", "latitude": 49.43134, "longitude": 15.22336, "state": "Vyso\u010dina"}, {"city": "Pe\u010dky", "latitude": 50.09043, "longitude": 15.03017, "state": "Central Bohemia"}, {"city": "Pecka", "latitude": 50.48034, "longitude": 15.60822, "state": "Kr\u00e1lov\u00e9hradeck\u00fd kraj"}, {"city": "Pchery", "latitude": 50.19378, "longitude": 14.11782, "state": "Central Bohemia"}, {"city": "Pavl\u00edkov", "latitude": 50.05599, "longitude": 13.73636, "state": "Central Bohemia"}, {"city": "Paskov", "latitude": 49.73179, "longitude": 18.29037, "state": "Moravskoslezsk\u00fd"}, {"city": "Paseka", "latitude": 49.79644, "longitude": 17.22276, "state": "Olomouck\u00fd"}, {"city": "Pardubice", "latitude": 50.04075, "longitude": 15.77659, "state": "Pardubick\u00fd"}, {"city": "Palkovice", "latitude": 49.63467, "longitude": 18.31508, "state": "Moravskoslezsk\u00fd"}, {"city": "Pacov", "latitude": 49.47076, "longitude": 15.00168, "state": "Vyso\u010dina"}, {"city": "Otrokovice", "latitude": 49.20934, "longitude": 17.53944, "state": "Zl\u00edn"}, {"city": "Otnice", "latitude": 49.08642, "longitude": 16.81443, "state": "South Moravian"}, {"city": "Otice", "latitude": 49.91684, "longitude": 17.86982, "state": "Moravskoslezsk\u00fd"}, {"city": "Otaslavice", "latitude": 49.38833, "longitude": 17.07108, "state": "Olomouck\u00fd"}, {"city": "Ostro\u017esk\u00e1 Nov\u00e1 Ves", "latitude": 49.00434, "longitude": 17.43632, "state": "Zl\u00edn"}, {"city": "Ostro\u017esk\u00e1 Lhota", "latitude": 48.97559, "longitude": 17.46751, "state": "Zl\u00edn"}, {"city": "Ostrov u Macochy", "latitude": 49.38236, "longitude": 16.76268, "state": "South Moravian"}, {"city": "Ostrov", "latitude": 50.30592, "longitude": 12.93907, "state": "Karlovarsk\u00fd kraj"}, {"city": "Ostrom\u011b\u0159", "latitude": 50.37246, "longitude": 15.54949, "state": "Kr\u00e1lov\u00e9hradeck\u00fd kraj"}, {"city": "Ostravice", "latitude": 49.5351, "longitude": 18.39164, "state": "Moravskoslezsk\u00fd"}, {"city": "Ostrava", "latitude": 49.83465, "longitude": 18.28204, "state": "Moravskoslezsk\u00fd"}, {"city": "Ostopovice", "latitude": 49.161, "longitude": 16.54548, "state": "South Moravian"}, {"city": "Osoblaha", "latitude": 50.27517, "longitude": 17.71523, "state": "Moravskoslezsk\u00fd"}, {"city": "Oslavany", "latitude": 49.12335, "longitude": 16.33653, "state": "South Moravian"}, {"city": "Oskava", "latitude": 49.89523, "longitude": 17.13214, "state": "Olomouck\u00fd"}, {"city": "Os\u00edk", "latitude": 49.84355, "longitude": 16.28467, "state": "Pardubick\u00fd"}, {"city": "Osek nad Be\u010dvou", "latitude": 49.51121, "longitude": 17.52829, "state": "Olomouck\u00fd"}, {"city": "Osek", "latitude": 50.62115, "longitude": 13.69274, "state": "\u00dasteck\u00fd kraj"}, {"city": "Osek", "latitude": 49.77594, "longitude": 13.5906, "state": "Plze\u0148 Region"}, {"city": "Ose\u010dn\u00e1", "latitude": 50.69489, "longitude": 14.92138, "state": "Libereck\u00fd kraj"}, {"city": "Orlov\u00e1", "latitude": 49.84527, "longitude": 18.43011, "state": "Moravskoslezsk\u00fd"}, {"city": "O\u0159echov", "latitude": 49.11118, "longitude": 16.52329, "state": "South Moravian"}, {"city": "Opo\u010dno", "latitude": 50.26742, "longitude": 16.1148, "state": "Kr\u00e1lov\u00e9hradeck\u00fd kraj"}, {"city": "Opava", "latitude": 49.93866, "longitude": 17.90257, "state": "Moravskoslezsk\u00fd"}, {"city": "Opatovice nad Labem", "latitude": 50.14541, "longitude": 15.79045, "state": "Pardubick\u00fd"}, {"city": "Opatov", "latitude": 49.825, "longitude": 16.50458, "state": "Pardubick\u00fd"}, {"city": "Opa\u0159any", "latitude": 49.39678, "longitude": 14.48137, "state": "Jiho\u010desk\u00fd kraj"}, {"city": "Ond\u0159ejov", "latitude": 49.90461, "longitude": 14.7842, "state": "Central Bohemia"}, {"city": "Ol\u0161any", "latitude": 49.96509, "longitude": 16.85894, "state": "Olomouck\u00fd"}, {"city": "Olov\u00ed", "latitude": 50.25113, "longitude": 12.55877, "state": "Karlovarsk\u00fd kraj"}, {"city": "Olomouc", "latitude": 49.59552, "longitude": 17.25175, "state": "Olomouck\u00fd"}, {"city": "Ole\u0161nice", "latitude": 49.55755, "longitude": 16.42169, "state": "South Moravian"}, {"city": "Old\u0159i\u0161ov", "latitude": 49.9913, "longitude": 17.96074, "state": "Moravskoslezsk\u00fd"}, {"city": "Olbramovice", "latitude": 48.9848, "longitude": 16.40239, "state": "South Moravian"}, {"city": "Okrouhlice", "latitude": 49.62991, "longitude": 15.49083, "state": "Vyso\u010dina"}, {"city": "Ok\u0159\u00ed\u0161ky", "latitude": 49.24539, "longitude": 15.76959, "state": "Vyso\u010dina"}, {"city": "Ohrazenice", "latitude": 50.59765, "longitude": 15.12596, "state": "Libereck\u00fd kraj"}, {"city": "Odry", "latitude": 49.66255, "longitude": 17.83084, "state": "Moravskoslezsk\u00fd"}, {"city": "Odolena Voda", "latitude": 50.23341, "longitude": 14.41078, "state": "Central Bohemia"}, {"city": "Obrnice", "latitude": 50.50498, "longitude": 13.6954, "state": "\u00dasteck\u00fd kraj"}, {"city": "Obecnice", "latitude": 49.71615, "longitude": 13.94731, "state": "Central Bohemia"}, {"city": "N\u00fdrsko", "latitude": 49.29387, "longitude": 13.14353, "state": "Plze\u0148 Region"}, {"city": "N\u00fd\u0159any", "latitude": 49.71145, "longitude": 13.21185, "state": "Plze\u0148 Region"}, {"city": "Nymburk", "latitude": 50.18605, "longitude": 15.04167, "state": "Central Bohemia"}, {"city": "N\u00fddek", "latitude": 49.65609, "longitude": 18.75687, "state": "Moravskoslezsk\u00fd"}, {"city": "Nov\u00fd Mal\u00edn", "latitude": 49.94262, "longitude": 17.03191, "state": "Olomouck\u00fd"}, {"city": "Nov\u00fd Kn\u00edn", "latitude": 49.788, "longitude": 14.29355, "state": "Central Bohemia"}, {"city": "Nov\u00fd Ji\u010d\u00edn", "latitude": 49.59438, "longitude": 18.01028, "state": "Moravskoslezsk\u00fd"}, {"city": "Nov\u00fd Hrozenkov", "latitude": 49.33697, "longitude": 18.19793, "state": "Zl\u00edn"}, {"city": "Nov\u00fd Byd\u017eov", "latitude": 50.2415, "longitude": 15.49082, "state": "Kr\u00e1lov\u00e9hradeck\u00fd kraj"}, {"city": "Nov\u00fd Bor", "latitude": 50.75761, "longitude": 14.55555, "state": "Libereck\u00fd kraj"}, {"city": "Novosedly", "latitude": 48.83704, "longitude": 16.49273, "state": "South Moravian"}, {"city": "Novosedlice", "latitude": 50.65633, "longitude": 13.82304, "state": "\u00dasteck\u00fd kraj"}, {"city": "Nov\u00e9 Vesel\u00ed", "latitude": 49.51976, "longitude": 15.90853, "state": "Vyso\u010dina"}, {"city": "Nov\u00e9 Syrovice", "latitude": 49.01763, "longitude": 15.77345, "state": "Vyso\u010dina"}, {"city": "Nov\u00e9 Stra\u0161ec\u00ed", "latitude": 50.15272, "longitude": 13.90043, "state": "Central Bohemia"}, {"city": "Nov\u00e9 Sedlo", "latitude": 50.20647, "longitude": 12.738, "state": "Karlovarsk\u00fd kraj"}, {"city": "Nov\u00e9 M\u011bsto pod Smrkem", "latitude": 50.92491, "longitude": 15.22943, "state": "Libereck\u00fd kraj"}, {"city": "Nov\u00e9 M\u011bsto na Morav\u011b", "latitude": 49.56144, "longitude": 16.07418, "state": "Vyso\u010dina"}, {"city": "Nov\u00e9 M\u011bsto nad Metuj\u00ed", "latitude": 50.34456, "longitude": 16.15147, "state": "Kr\u00e1lov\u00e9hradeck\u00fd kraj"}, {"city": "Nov\u00e9 M\u011bsto", "latitude": 50.07829, "longitude": 14.42089, "state": "Prague"}, {"city": "Nov\u00e9 Hrady", "latitude": 48.78963, "longitude": 14.77839, "state": "Jiho\u010desk\u00fd kraj"}, {"city": "Nov\u00e1 V\u010delnice", "latitude": 49.23935, "longitude": 15.0726, "state": "Jiho\u010desk\u00fd kraj"}, {"city": "Nov\u00e1 Role", "latitude": 50.27092, "longitude": 12.78422, "state": "Karlovarsk\u00fd kraj"}, {"city": "Nov\u00e1 Paka", "latitude": 50.49449, "longitude": 15.51503, "state": "Kr\u00e1lov\u00e9hradeck\u00fd kraj"}, {"city": "Nov\u00e1 Cerekev", "latitude": 49.41723, "longitude": 15.11675, "state": "Vyso\u010dina"}, {"city": "Nov\u00e1 Byst\u0159ice", "latitude": 49.01926, "longitude": 15.10316, "state": "Jiho\u010desk\u00fd kraj"}, {"city": "Nosislav", "latitude": 49.0138, "longitude": 16.65431, "state": "South Moravian"}, {"city": "Ni\u017ebor", "latitude": 49.99995, "longitude": 14.00237, "state": "Central Bohemia"}, {"city": "Nivnice", "latitude": 48.97465, "longitude": 17.64757, "state": "Zl\u00edn"}, {"city": "Nezv\u011bstice", "latitude": 49.64043, "longitude": 13.51962, "state": "Plze\u0148 Region"}, {"city": "Nezamyslice", "latitude": 49.32543, "longitude": 17.17326, "state": "Olomouck\u00fd"}, {"city": "Neveklov", "latitude": 49.75373, "longitude": 14.53291, "state": "Central Bohemia"}, {"city": "Netvo\u0159ice", "latitude": 49.81569, "longitude": 14.51827, "state": "Central Bohemia"}, {"city": "Netolice", "latitude": 49.0493, "longitude": 14.197, "state": "Jiho\u010desk\u00fd kraj"}, {"city": "Nesovice", "latitude": 49.15111, "longitude": 17.08095, "state": "South Moravian"}, {"city": "Neratovice", "latitude": 50.25926, "longitude": 14.51759, "state": "Central Bohemia"}, {"city": "Nepomuk", "latitude": 49.48616, "longitude": 13.58225, "state": "Plze\u0148 Region"}, {"city": "N\u011bm\u010dice nad Hanou", "latitude": 49.34181, "longitude": 17.20596, "state": "Olomouck\u00fd"}, {"city": "Nemanice", "latitude": 49.43655, "longitude": 12.72053, "state": "Plze\u0148 Region"}, {"city": "Nelahozeves", "latitude": 50.26148, "longitude": 14.29881, "state": "Central Bohemia"}, {"city": "Nejdek", "latitude": 50.32242, "longitude": 12.72936, "state": "Karlovarsk\u00fd kraj"}, {"city": "Nehvizdy", "latitude": 50.13056, "longitude": 14.72993, "state": "Central Bohemia"}, {"city": "Nedv\u011bdice", "latitude": 49.45702, "longitude": 16.33406, "state": "South Moravian"}, {"city": "Neda\u0161ov", "latitude": 49.10778, "longitude": 18.07036, "state": "Zl\u00edn"}, {"city": "Nedakonice", "latitude": 49.03159, "longitude": 17.38141, "state": "Zl\u00edn"}, {"city": "Nechanice", "latitude": 50.23737, "longitude": 15.63276, "state": "Kr\u00e1lov\u00e9hradeck\u00fd kraj"}, {"city": "N\u00e1vs\u00ed u Jablunkova", "latitude": 49.5872, "longitude": 18.75907, "state": "Moravskoslezsk\u00fd"}, {"city": "Nasavrky", "latitude": 49.8445, "longitude": 15.80461, "state": "Pardubick\u00fd"}, {"city": "Napajedla", "latitude": 49.17156, "longitude": 17.51194, "state": "Zl\u00edn"}, {"city": "N\u00e1m\u011b\u0161\u0165 na Han\u00e9", "latitude": 49.60213, "longitude": 17.06539, "state": "Olomouck\u00fd"}, {"city": "N\u00e1m\u011b\u0161\u0165 nad Oslavou", "latitude": 49.20726, "longitude": 16.15849, "state": "Vyso\u010dina"}, {"city": "N\u00e1klo", "latitude": 49.65462, "longitude": 17.12969, "state": "Olomouck\u00fd"}, {"city": "N\u00e1chod", "latitude": 50.4167, "longitude": 16.16289, "state": "Kr\u00e1lov\u00e9hradeck\u00fd kraj"}, {"city": "Na\u010deradec", "latitude": 49.61018, "longitude": 14.90633, "state": "Central Bohemia"}, {"city": "M\u00fdto", "latitude": 49.78904, "longitude": 13.73461, "state": "Plze\u0148 Region"}, {"city": "Mut\u011bnice", "latitude": 48.90413, "longitude": 17.02917, "state": "South Moravian"}, {"city": "Muka\u0159ov", "latitude": 49.99115, "longitude": 14.74155, "state": "Central Bohemia"}, {"city": "M\u0161eno", "latitude": 50.43809, "longitude": 14.6325, "state": "Central Bohemia"}, {"city": "Mr\u00e1kov", "latitude": 49.40314, "longitude": 12.9512, "state": "Plze\u0148 Region"}, {"city": "Moutnice", "latitude": 49.04924, "longitude": 16.73741, "state": "South Moravian"}, {"city": "Mosty u Jablunkova", "latitude": 49.52737, "longitude": 18.75417, "state": "Moravskoslezsk\u00fd"}, {"city": "Mostkovice", "latitude": 49.47215, "longitude": 17.05212, "state": "Olomouck\u00fd"}, {"city": "Mostek", "latitude": 50.48623, "longitude": 15.69622, "state": "Kr\u00e1lov\u00e9hradeck\u00fd kraj"}, {"city": "Most", "latitude": 50.50301, "longitude": 13.63617, "state": "\u00dasteck\u00fd kraj"}, {"city": "Mo\u0159kov", "latitude": 49.53684, "longitude": 18.05968, "state": "Moravskoslezsk\u00fd"}, {"city": "Moravsk\u00fd \u017di\u017ekov", "latitude": 48.83285, "longitude": 16.9314, "state": "South Moravian"}, {"city": "Moravsk\u00fd P\u00edsek", "latitude": 48.99016, "longitude": 17.33269, "state": "South Moravian"}, {"city": "Moravsk\u00fd Krumlov", "latitude": 49.04893, "longitude": 16.31169, "state": "South Moravian"}, {"city": "Moravsk\u00fd Beroun", "latitude": 49.79374, "longitude": 17.44212, "state": "Olomouck\u00fd"}, {"city": "Moravsk\u00e9 Bud\u011bjovice", "latitude": 49.05209, "longitude": 15.80864, "state": "Vyso\u010dina"}, {"city": "Moravsk\u00e1 T\u0159ebov\u00e1", "latitude": 49.75793, "longitude": 16.66426, "state": "Pardubick\u00fd"}, {"city": "Moravsk\u00e1 Nov\u00e1 Ves", "latitude": 48.80304, "longitude": 17.01371, "state": "South Moravian"}, {"city": "Mor\u00e1vka", "latitude": 49.59607, "longitude": 18.52471, "state": "Moravskoslezsk\u00fd"}, {"city": "Moravi\u010dany", "latitude": 49.75694, "longitude": 16.96042, "state": "Olomouck\u00fd"}, {"city": "Moravany", "latitude": 50.00095, "longitude": 15.94071, "state": "Pardubick\u00fd"}, {"city": "Moravany", "latitude": 49.1478, "longitude": 16.58026, "state": "South Moravian"}, {"city": "Mokr\u00e9 Lazce", "latitude": 49.90462, "longitude": 18.02954, "state": "Moravskoslezsk\u00fd"}, {"city": "Mokr\u00e1 Hora", "latitude": 49.26176, "longitude": 16.59107, "state": "South Moravian"}, {"city": "Mohelno", "latitude": 49.11412, "longitude": 16.19022, "state": "Vyso\u010dina"}, {"city": "Mohelnice", "latitude": 49.77698, "longitude": 16.91946, "state": "Olomouck\u00fd"}, {"city": "Mod\u0159ice", "latitude": 49.11928, "longitude": 16.60446, "state": "South Moravian"}, {"city": "Mod\u0159any", "latitude": 50.01116, "longitude": 14.4096, "state": "Prague"}, {"city": "Mn\u00ed\u0161ek pod Brdy", "latitude": 49.8665, "longitude": 14.26176, "state": "Central Bohemia"}, {"city": "Mn\u00ed\u0161ek", "latitude": 50.83163, "longitude": 15.0563, "state": "Libereck\u00fd kraj"}, {"city": "Mnichovo Hradi\u0161t\u011b", "latitude": 50.5272, "longitude": 14.97134, "state": "Central Bohemia"}, {"city": "Mnichovice", "latitude": 49.93601, "longitude": 14.70907, "state": "Central Bohemia"}, {"city": "Mlad\u00e9 Buky", "latitude": 50.60643, "longitude": 15.83348, "state": "Kr\u00e1lov\u00e9hradeck\u00fd kraj"}, {"city": "Mlad\u00e1 Vo\u017eice", "latitude": 49.53313, "longitude": 14.80857, "state": "Jiho\u010desk\u00fd kraj"}, {"city": "Mlad\u00e1 Boleslav", "latitude": 50.41135, "longitude": 14.90318, "state": "Central Bohemia"}, {"city": "Mist\u0159ice", "latitude": 49.08668, "longitude": 17.53597, "state": "Zl\u00edn"}, {"city": "Mirovice", "latitude": 49.51555, "longitude": 14.03582, "state": "Jiho\u010desk\u00fd kraj"}, {"city": "Mirotice", "latitude": 49.42908, "longitude": 14.03697, "state": "Jiho\u010desk\u00fd kraj"}, {"city": "Miro\u0161ov", "latitude": 49.68782, "longitude": 13.65807, "state": "Plze\u0148 Region"}, {"city": "Miroslav", "latitude": 48.94767, "longitude": 16.31252, "state": "South Moravian"}, {"city": "Mi\u0159etice", "latitude": 49.84126, "longitude": 15.88472, "state": "Pardubick\u00fd"}, {"city": "Mimo\u0148", "latitude": 50.65869, "longitude": 14.72474, "state": "Libereck\u00fd kraj"}, {"city": "Milovice", "latitude": 50.22596, "longitude": 14.88863, "state": "Central Bohemia"}, {"city": "Milotice", "latitude": 48.95528, "longitude": 17.14241, "state": "South Moravian"}, {"city": "Mil\u00edn", "latitude": 49.63192, "longitude": 14.046, "state": "Central Bohemia"}, {"city": "Mil\u00edkov", "latitude": 49.58565, "longitude": 18.71943, "state": "Moravskoslezsk\u00fd"}, {"city": "Milevsko", "latitude": 49.45089, "longitude": 14.36, "state": "Jiho\u010desk\u00fd kraj"}, {"city": "Mikulovice", "latitude": 50.29854, "longitude": 17.32155, "state": "Olomouck\u00fd"}, {"city": "Mikulov", "latitude": 48.80556, "longitude": 16.6378, "state": "South Moravian"}, {"city": "Mikul\u010dice", "latitude": 48.81643, "longitude": 17.05107, "state": "South Moravian"}, {"city": "Mikul\u00e1\u0161ovice", "latitude": 50.96507, "longitude": 14.36368, "state": "\u00dasteck\u00fd kraj"}, {"city": "Mezim\u011bst\u00ed", "latitude": 50.62461, "longitude": 16.24207, "state": "Kr\u00e1lov\u00e9hradeck\u00fd kraj"}, {"city": "Mezibo\u0159i", "latitude": 50.62115, "longitude": 13.5987, "state": "\u00dasteck\u00fd kraj"}, {"city": "Metylovice", "latitude": 49.60666, "longitude": 18.33911, "state": "Moravskoslezsk\u00fd"}, {"city": "M\u011bsto Tou\u0161kov", "latitude": 49.77587, "longitude": 13.25108, "state": "Plze\u0148 Region"}, {"city": "M\u011bsto Libav\u00e1", "latitude": 49.72162, "longitude": 17.52013, "state": "Olomouck\u00fd"}, {"city": "M\u011bsto Albrechtice", "latitude": 50.16294, "longitude": 17.57481, "state": "Moravskoslezsk\u00fd"}, {"city": "Tepl\u00e1", "latitude": 49.97997, "longitude": 12.86432, "state": "Karlovarsk\u00fd kraj"}, {"city": "M\u011bstec Kr\u00e1lov\u00e9", "latitude": 50.20718, "longitude": 15.29758, "state": "Central Bohemia"}, {"city": "M\u011bste\u010dko Trn\u00e1vka", "latitude": 49.70926, "longitude": 16.72744, "state": "Pardubick\u00fd"}, {"city": "M\u011b\u0161ice", "latitude": 50.19799, "longitude": 14.51992, "state": "Central Bohemia"}, {"city": "Merkl\u00edn", "latitude": 50.32808, "longitude": 12.8635, "state": "Karlovarsk\u00fd kraj"}, {"city": "Merkl\u00edn", "latitude": 49.56043, "longitude": 13.1979, "state": "Plze\u0148 Region"}, {"city": "M\u011b\u0159\u00edn", "latitude": 49.39321, "longitude": 15.88381, "state": "Vyso\u010dina"}, {"city": "M\u011bn\u00edn", "latitude": 49.0824, "longitude": 16.69424, "state": "South Moravian"}, {"city": "M\u011bln\u00edk", "latitude": 50.3505, "longitude": 14.47411, "state": "Central Bohemia"}, {"city": "Medlov", "latitude": 49.78754, "longitude": 17.06261, "state": "Olomouck\u00fd"}, {"city": "Meclov", "latitude": 49.50556, "longitude": 12.88082, "state": "Plze\u0148 Region"}, {"city": "M\u011b\u010d\u00edn", "latitude": 49.48009, "longitude": 13.40289, "state": "Plze\u0148 Region"}, {"city": "M\u011bcholupy", "latitude": 50.26666, "longitude": 13.53737, "state": "\u00dasteck\u00fd kraj"}, {"city": "Markvartovice", "latitude": 49.90595, "longitude": 18.23602, "state": "Moravskoslezsk\u00fd"}, {"city": "Mari\u00e1nsk\u00e9 L\u00e1zn\u011b", "latitude": 49.96459, "longitude": 12.70118, "state": "Karlovarsk\u00fd kraj"}, {"city": "Man\u011bt\u00edn", "latitude": 49.99177, "longitude": 13.23319, "state": "Plze\u0148 Region"}, {"city": "Mal\u0161ice", "latitude": 49.36391, "longitude": 14.57868, "state": "Jiho\u010desk\u00fd kraj"}, {"city": "Malonty", "latitude": 48.68611, "longitude": 14.57678, "state": "Jiho\u010desk\u00fd kraj"}, {"city": "Mal\u00e9 Svato\u0148ovice", "latitude": 50.53395, "longitude": 16.04978, "state": "Kr\u00e1lov\u00e9hradeck\u00fd kraj"}, {"city": "Mal\u00e1 Strana", "latitude": 50.08774, "longitude": 14.40449, "state": "Prague"}, {"city": "Mal\u00e1 Sk\u00e1la", "latitude": 50.64631, "longitude": 15.19543, "state": "Libereck\u00fd kraj"}, {"city": "Majet\u00edn", "latitude": 49.49808, "longitude": 17.33314, "state": "Olomouck\u00fd"}, {"city": "Machov", "latitude": 50.49927, "longitude": 16.2769, "state": "Kr\u00e1lov\u00e9hradeck\u00fd kraj"}, {"city": "Lysice", "latitude": 49.4516, "longitude": 16.53716, "state": "South Moravian"}, {"city": "Lys\u00e1 nad Labem", "latitude": 50.20143, "longitude": 14.83281, "state": "Central Bohemia"}, {"city": "Lu\u017en\u00e1", "latitude": 50.12377, "longitude": 13.77004, "state": "Central Bohemia"}, {"city": "Lu\u017eice", "latitude": 48.84098, "longitude": 17.07104, "state": "South Moravian"}, {"city": "Lu\u017eec nad Vltavou", "latitude": 50.32138, "longitude": 14.40022, "state": "Central Bohemia"}, {"city": "Lu\u017ee", "latitude": 49.89341, "longitude": 16.0285, "state": "Pardubick\u00fd"}, {"city": "Lut\u00edn", "latitude": 49.55845, "longitude": 17.13572, "state": "Olomouck\u00fd"}, {"city": "Lu\u0161t\u011bnice", "latitude": 50.32296, "longitude": 14.93667, "state": "Central Bohemia"}, {"city": "Lukov", "latitude": 49.29027, "longitude": 17.72959, "state": "Zl\u00edn"}, {"city": "Lukavice", "latitude": 50.06029, "longitude": 16.48207, "state": "Pardubick\u00fd"}, {"city": "Lukavec", "latitude": 49.56541, "longitude": 14.99041, "state": "Vyso\u010dina"}, {"city": "Luka nad Jihlavou", "latitude": 49.37403, "longitude": 15.70194, "state": "Vyso\u010dina"}, {"city": "Luha\u010dovice", "latitude": 49.09982, "longitude": 17.75747, "state": "Zl\u00edn"}, {"city": "Ludge\u0159ovice", "latitude": 49.89042, "longitude": 18.24008, "state": "Moravskoslezsk\u00fd"}, {"city": "Lu\u010dany nad Nisou", "latitude": 50.74136, "longitude": 15.22046, "state": "Libereck\u00fd kraj"}, {"city": "Luby", "latitude": 50.25248, "longitude": 12.40595, "state": "Karlovarsk\u00fd kraj"}, {"city": "Lubenec", "latitude": 50.13207, "longitude": 13.31319, "state": "\u00dasteck\u00fd kraj"}, {"city": "Lovosice", "latitude": 50.51504, "longitude": 14.05103, "state": "\u00dasteck\u00fd kraj"}, {"city": "Louny", "latitude": 50.35699, "longitude": 13.79667, "state": "\u00dasteck\u00fd kraj"}, {"city": "Lou\u010dovice", "latitude": 48.62019, "longitude": 14.25747, "state": "Jiho\u010desk\u00fd kraj"}, {"city": "Lou\u010dn\u00e1 nad Desnou", "latitude": 50.07433, "longitude": 17.09052, "state": "Olomouck\u00fd"}, {"city": "Lou\u010de\u0148", "latitude": 50.28537, "longitude": 15.02049, "state": "Central Bohemia"}, {"city": "Lo\u0161tice", "latitude": 49.7447, "longitude": 16.92892, "state": "Olomouck\u00fd"}, {"city": "Lom u Mostu", "latitude": 50.59328, "longitude": 13.65729, "state": "\u00dasteck\u00fd kraj"}, {"city": "Lomnice nad Popelkou", "latitude": 50.53062, "longitude": 15.37341, "state": "Libereck\u00fd kraj"}, {"city": "Lomnice nad Lu\u017enic\u00ed", "latitude": 49.08468, "longitude": 14.71727, "state": "Jiho\u010desk\u00fd kraj"}, {"city": "Lomnice", "latitude": 50.21174, "longitude": 12.63267, "state": "Karlovarsk\u00fd kraj"}, {"city": "Lomnice", "latitude": 49.40462, "longitude": 16.41359, "state": "South Moravian"}, {"city": "Loket", "latitude": 50.186, "longitude": 12.75405, "state": "Karlovarsk\u00fd kraj"}, {"city": "Lod\u011bnice", "latitude": 49.99486, "longitude": 14.15785, "state": "Central Bohemia"}, {"city": "Lochovice", "latitude": 49.85318, "longitude": 13.98126, "state": "Central Bohemia"}, {"city": "Litv\u00ednovice", "latitude": 48.96207, "longitude": 14.45146, "state": "Jiho\u010desk\u00fd kraj"}, {"city": "Litv\u00ednov", "latitude": 50.6042, "longitude": 13.61812, "state": "\u00dasteck\u00fd kraj"}, {"city": "Litovel", "latitude": 49.70121, "longitude": 17.07615, "state": "Olomouck\u00fd"}, {"city": "Litomy\u0161l", "latitude": 49.86809, "longitude": 16.31298, "state": "Pardubick\u00fd"}, {"city": "Litom\u011b\u0159ice", "latitude": 50.53348, "longitude": 14.1318, "state": "\u00dasteck\u00fd kraj"}, {"city": "Li\u0161ov", "latitude": 49.01597, "longitude": 14.60838, "state": "Jiho\u010desk\u00fd kraj"}, {"city": "Lip\u016fvka", "latitude": 49.33933, "longitude": 16.55313, "state": "South Moravian"}, {"city": "Lipt\u00e1l", "latitude": 49.29051, "longitude": 17.92177, "state": "Zl\u00edn"}, {"city": "Lipovec", "latitude": 49.38394, "longitude": 16.80583, "state": "South Moravian"}, {"city": "Lipov", "latitude": 48.90495, "longitude": 17.46171, "state": "South Moravian"}, {"city": "Lipn\u00edk nad Be\u010dvou", "latitude": 49.52721, "longitude": 17.58594, "state": "Olomouck\u00fd"}, {"city": "L\u00edpa", "latitude": 49.55418, "longitude": 15.54465, "state": "Vyso\u010dina"}, {"city": "L\u00edn\u011b", "latitude": 49.69472, "longitude": 13.25693, "state": "Plze\u0148 Region"}, {"city": "Lide\u010dko", "latitude": 49.20303, "longitude": 18.0513, "state": "Zl\u00edn"}, {"city": "Lichnov", "latitude": 50.00786, "longitude": 17.6264, "state": "Moravskoslezsk\u00fd"}, {"city": "Lichnov (o. Nov\u00fd Ji\u010d\u00edn)", "latitude": 49.56423, "longitude": 18.16898, "state": "Moravskoslezsk\u00fd"}, {"city": "Libu\u0161\u00edn", "latitude": 50.16819, "longitude": 14.05458, "state": "Central Bohemia"}, {"city": "Libouchec", "latitude": 50.75854, "longitude": 14.04071, "state": "\u00dasteck\u00fd kraj"}, {"city": "Libochovice", "latitude": 50.40626, "longitude": 14.04439, "state": "\u00dasteck\u00fd kraj"}, {"city": "Libi\u0161", "latitude": 50.27417, "longitude": 14.5024, "state": "Central Bohemia"}, {"city": "Libice nad Cidlinou", "latitude": 50.12677, "longitude": 15.1782, "state": "Central Bohemia"}, {"city": "L\u00edbeznice", "latitude": 50.19198, "longitude": 14.49357, "state": "Central Bohemia"}, {"city": "Lib\u011b\u0161ice", "latitude": 50.56886, "longitude": 14.28906, "state": "\u00dasteck\u00fd kraj"}, {"city": "Liberec", "latitude": 50.76711, "longitude": 15.05619, "state": "Libereck\u00fd kraj"}, {"city": "Libe\u0148", "latitude": 50.10819, "longitude": 14.47457, "state": "Prague"}, {"city": "Lib\u010dice nad Vltavou", "latitude": 50.19778, "longitude": 14.36385, "state": "Central Bohemia"}, {"city": "Libavsk\u00e9 \u00dadol\u00ed", "latitude": 50.12887, "longitude": 12.55249, "state": "Karlovarsk\u00fd kraj"}, {"city": "Lib\u00e1\u0148", "latitude": 50.37542, "longitude": 15.21684, "state": "Kr\u00e1lov\u00e9hradeck\u00fd kraj"}, {"city": "Lhenice", "latitude": 48.99479, "longitude": 14.1498, "state": "Jiho\u010desk\u00fd kraj"}, {"city": "Letovice", "latitude": 49.54709, "longitude": 16.57357, "state": "South Moravian"}, {"city": "Letonice", "latitude": 49.17726, "longitude": 16.95913, "state": "South Moravian"}, {"city": "Letohrad", "latitude": 50.0358, "longitude": 16.49879, "state": "Pardubick\u00fd"}, {"city": "Let\u0148any", "latitude": 50.13333, "longitude": 14.51667, "state": "Prague"}, {"city": "Le\u0161tina", "latitude": 49.86879, "longitude": 16.92748, "state": "Olomouck\u00fd"}, {"city": "Le\u0161n\u00e1", "latitude": 49.52055, "longitude": 17.93004, "state": "Zl\u00edn"}, {"city": "Lene\u0161ice", "latitude": 50.37516, "longitude": 13.7659, "state": "\u00dasteck\u00fd kraj"}, {"city": "Lelekovice", "latitude": 49.29144, "longitude": 16.57874, "state": "South Moravian"}, {"city": "Lednice", "latitude": 48.79992, "longitude": 16.80339, "state": "South Moravian"}, {"city": "Ledenice", "latitude": 48.93329, "longitude": 14.61886, "state": "Jiho\u010desk\u00fd kraj"}, {"city": "Lede\u010d nad S\u00e1zavou", "latitude": 49.69517, "longitude": 15.27772, "state": "Vyso\u010dina"}, {"city": "L\u00e1zn\u011b Kyn\u017evart", "latitude": 50.01058, "longitude": 12.62474, "state": "Karlovarsk\u00fd kraj"}, {"city": "L\u00e1zn\u011b B\u011blohrad", "latitude": 50.42874, "longitude": 15.58269, "state": "Kr\u00e1lov\u00e9hradeck\u00fd kraj"}, {"city": "Lan\u017ehot", "latitude": 48.72443, "longitude": 16.96695, "state": "South Moravian"}, {"city": "L\u00e1ny", "latitude": 50.12471, "longitude": 13.95041, "state": "Central Bohemia"}, {"city": "Lan\u0161kroun", "latitude": 49.91217, "longitude": 16.6119, "state": "Pardubick\u00fd"}, {"city": "Kyn\u0161perk nad Oh\u0159\u00ed", "latitude": 50.11893, "longitude": 12.53027, "state": "Karlovarsk\u00fd kraj"}, {"city": "Kyjov", "latitude": 49.01018, "longitude": 17.12253, "state": "South Moravian"}, {"city": "Kvasiny", "latitude": 50.2125, "longitude": 16.26323, "state": "Kr\u00e1lov\u00e9hradeck\u00fd kraj"}, {"city": "Kvasice", "latitude": 49.24223, "longitude": 17.46974, "state": "Zl\u00edn"}, {"city": "Kutn\u00e1 Hora", "latitude": 49.94839, "longitude": 15.26816, "state": "Central Bohemia"}, {"city": "Ku\u0159im", "latitude": 49.29852, "longitude": 16.53144, "state": "South Moravian"}, {"city": "Kun\u017eak", "latitude": 49.12119, "longitude": 15.19028, "state": "Jiho\u010desk\u00fd kraj"}, {"city": "Kunvald", "latitude": 50.12927, "longitude": 16.49996, "state": "Pardubick\u00fd"}, {"city": "Kun\u0161t\u00e1t", "latitude": 49.50645, "longitude": 16.51722, "state": "South Moravian"}, {"city": "Kunovice", "latitude": 49.04499, "longitude": 17.47011, "state": "Zl\u00edn"}, {"city": "Kun\u00edn", "latitude": 49.63377, "longitude": 17.98965, "state": "Moravskoslezsk\u00fd"}, {"city": "Kun\u010dina", "latitude": 49.79455, "longitude": 16.62763, "state": "Pardubick\u00fd"}, {"city": "Kun\u010dice pod Ond\u0159ejn\u00edkem", "latitude": 49.5507, "longitude": 18.26113, "state": "Moravskoslezsk\u00fd"}, {"city": "Kryry", "latitude": 50.17437, "longitude": 13.4266, "state": "\u00dasteck\u00fd kraj"}, {"city": "Krupka", "latitude": 50.68449, "longitude": 13.85815, "state": "\u00dasteck\u00fd kraj"}, {"city": "Krumv\u00ed\u0159", "latitude": 48.98901, "longitude": 16.91027, "state": "South Moravian"}, {"city": "Krouna", "latitude": 49.7724, "longitude": 16.02674, "state": "Pardubick\u00fd"}, {"city": "Krom\u011b\u0159\u00ed\u017e", "latitude": 49.29785, "longitude": 17.39312, "state": "Zl\u00edn"}, {"city": "Krnov", "latitude": 50.08967, "longitude": 17.70385, "state": "Moravskoslezsk\u00fd"}, {"city": "Krmel\u00edn", "latitude": 49.72914, "longitude": 18.23541, "state": "Moravskoslezsk\u00fd"}, {"city": "Krucemburk", "latitude": 49.68841, "longitude": 15.85207, "state": "Vyso\u010dina"}, {"city": "K\u0159i\u017eanov", "latitude": 49.38858, "longitude": 16.1096, "state": "Vyso\u010dina"}, {"city": "K\u0159inec", "latitude": 50.26449, "longitude": 15.13782, "state": "Central Bohemia"}, {"city": "K\u0159e\u0161ice", "latitude": 50.52259, "longitude": 14.2145, "state": "\u00dasteck\u00fd kraj"}, {"city": "K\u0159epice", "latitude": 48.99986, "longitude": 16.71989, "state": "South Moravian"}, {"city": "K\u0159enovice", "latitude": 49.14216, "longitude": 16.82932, "state": "South Moravian"}, {"city": "K\u0159em\u017ee", "latitude": 48.90497, "longitude": 14.30568, "state": "Jiho\u010desk\u00fd kraj"}, {"city": "Krava\u0159e", "latitude": 49.93203, "longitude": 18.00472, "state": "Moravskoslezsk\u00fd"}, {"city": "Kr\u00e1sn\u00e1 L\u00edpa", "latitude": 50.91303, "longitude": 14.50999, "state": "\u00dasteck\u00fd kraj"}, {"city": "Kr\u00e1sn\u00e1 L\u00edpa", "latitude": 50.48378, "longitude": 13.3575, "state": "\u00dasteck\u00fd kraj"}, {"city": "Kr\u00e1sn\u00e1 Hora nad Vltavou", "latitude": 49.60461, "longitude": 14.27742, "state": "Central Bohemia"}, {"city": "Kraslice", "latitude": 50.32372, "longitude": 12.51747, "state": "Karlovarsk\u00fd kraj"}, {"city": "Kr\u00e1l\u016fv Dv\u016fr", "latitude": 49.94981, "longitude": 14.03445, "state": "Central Bohemia"}, {"city": "Kralupy nad Vltavou", "latitude": 50.24107, "longitude": 14.31149, "state": "Central Bohemia"}, {"city": "Kralovice", "latitude": 49.98192, "longitude": 13.48747, "state": "Plze\u0148 Region"}, {"city": "Kr\u00e1l\u00edky", "latitude": 50.08384, "longitude": 16.76054, "state": "Pardubick\u00fd"}, {"city": "Kralice na Han\u00e9", "latitude": 49.46296, "longitude": 17.18048, "state": "Olomouck\u00fd"}, {"city": "Kozmice", "latitude": 49.9128, "longitude": 18.15584, "state": "Moravskoslezsk\u00fd"}, {"city": "Kozlovice", "latitude": 49.5904, "longitude": 18.25656, "state": "Moravskoslezsk\u00fd"}, {"city": "Ko\u017elany", "latitude": 49.99389, "longitude": 13.54107, "state": "Plze\u0148 Region"}, {"city": "Kov\u00e1\u0159sk\u00e1", "latitude": 50.43821, "longitude": 13.05388, "state": "\u00dasteck\u00fd kraj"}, {"city": "Kov\u00e1\u0159ov", "latitude": 49.5176, "longitude": 14.27809, "state": "Jiho\u010desk\u00fd kraj"}, {"city": "Kout na \u0160umav\u011b", "latitude": 49.40255, "longitude": 13.00208, "state": "Plze\u0148 Region"}, {"city": "Kou\u0159im", "latitude": 50.00306, "longitude": 14.97703, "state": "Central Bohemia"}, {"city": "Kostice", "latitude": 48.74685, "longitude": 16.97869, "state": "South Moravian"}, {"city": "Kostelec na Han\u00e9", "latitude": 49.51398, "longitude": 17.05824, "state": "Olomouck\u00fd"}, {"city": "Kostelec nad Orlic\u00ed", "latitude": 50.12267, "longitude": 16.21319, "state": "Kr\u00e1lov\u00e9hradeck\u00fd kraj"}, {"city": "Kostelec nad Labem", "latitude": 50.22653, "longitude": 14.58552, "state": "Central Bohemia"}, {"city": "Kostelec nad \u010cern\u00fdmi Lesy", "latitude": 49.99403, "longitude": 14.85922, "state": "Central Bohemia"}, {"city": "Ko\u0161\u0165any", "latitude": 50.65507, "longitude": 13.75554, "state": "\u00dasteck\u00fd kraj"}, {"city": "Ko\u0161\u0165\u00e1lov", "latitude": 50.57165, "longitude": 15.40403, "state": "Libereck\u00fd kraj"}, {"city": "Kosova Hora", "latitude": 49.65414, "longitude": 14.47173, "state": "Central Bohemia"}, {"city": "Kosmonosy", "latitude": 50.4385, "longitude": 14.93, "state": "Central Bohemia"}, {"city": "Kory\u010dany", "latitude": 49.10639, "longitude": 17.16433, "state": "Zl\u00edn"}, {"city": "Ko\u0159enov", "latitude": 50.75926, "longitude": 15.36532, "state": "Libereck\u00fd kraj"}, {"city": "Kop\u0159ivnice", "latitude": 49.59947, "longitude": 18.1448, "state": "Moravskoslezsk\u00fd"}, {"city": "Kopidlno", "latitude": 50.33085, "longitude": 15.27029, "state": "Kr\u00e1lov\u00e9hradeck\u00fd kraj"}, {"city": "Konice", "latitude": 49.5903, "longitude": 16.88911, "state": "Olomouck\u00fd"}, {"city": "Komorn\u00ed Lhotka", "latitude": 49.65811, "longitude": 18.52777, "state": "Moravskoslezsk\u00fd"}, {"city": "Kom\u00e1rov", "latitude": 49.8065, "longitude": 13.85636, "state": "Central Bohemia"}, {"city": "Kolinec", "latitude": 49.29895, "longitude": 13.439, "state": "Plze\u0148 Region"}, {"city": "Kol\u00edn", "latitude": 50.02806, "longitude": 15.1998, "state": "Central Bohemia"}, {"city": "Kokory", "latitude": 49.49482, "longitude": 17.37544, "state": "Olomouck\u00fd"}, {"city": "Kojet\u00edn", "latitude": 49.35179, "longitude": 17.30207, "state": "Olomouck\u00fd"}, {"city": "Kobyl\u00ed", "latitude": 48.93286, "longitude": 16.89159, "state": "South Moravian"}, {"city": "Kobe\u0159ice", "latitude": 49.98548, "longitude": 18.05212, "state": "Moravskoslezsk\u00fd"}, {"city": "Kn\u011b\u017epole", "latitude": 49.09855, "longitude": 17.51671, "state": "Zl\u00edn"}, {"city": "Kn\u011b\u017emost", "latitude": 50.48917, "longitude": 15.03829, "state": "Central Bohemia"}, {"city": "Kn\u011b\u017eice", "latitude": 49.27078, "longitude": 15.67216, "state": "Vyso\u010dina"}, {"city": "Kn\u011b\u017edub", "latitude": 48.88666, "longitude": 17.39546, "state": "South Moravian"}, {"city": "Klobuky", "latitude": 50.29401, "longitude": 13.98748, "state": "Central Bohemia"}, {"city": "Klobouky", "latitude": 48.99609, "longitude": 16.86298, "state": "South Moravian"}, {"city": "Klimkovice", "latitude": 49.78809, "longitude": 18.12585, "state": "Moravskoslezsk\u00fd"}, {"city": "Klen\u010d\u00ed pod \u010cerchovem", "latitude": 49.43484, "longitude": 12.81473, "state": "Plze\u0148 Region"}, {"city": "Klecany", "latitude": 50.17599, "longitude": 14.41148, "state": "Central Bohemia"}, {"city": "Klatovy", "latitude": 49.39552, "longitude": 13.29505, "state": "Plze\u0148 Region"}, {"city": "Kl\u00e1\u0161terec nad Oh\u0159\u00ed", "latitude": 50.3886, "longitude": 13.18342, "state": "\u00dasteck\u00fd kraj"}, {"city": "Kl\u00e1\u0161ter", "latitude": 49.96762, "longitude": 12.87623, "state": "Karlovarsk\u00fd kraj"}, {"city": "Kladruby", "latitude": 49.71498, "longitude": 12.98232, "state": "Plze\u0148 Region"}, {"city": "Kladno", "latitude": 50.14734, "longitude": 14.10285, "state": "Central Bohemia"}, {"city": "Kel\u010d", "latitude": 49.47844, "longitude": 17.81533, "state": "Zl\u00edn"}, {"city": "Kdyn\u011b", "latitude": 49.39077, "longitude": 13.03968, "state": "Plze\u0148 Region"}, {"city": "Kbely", "latitude": 50.13333, "longitude": 14.55, "state": "Prague"}, {"city": "Kazn\u011bjov", "latitude": 49.89313, "longitude": 13.38295, "state": "Plze\u0148 Region"}, {"city": "Katovice", "latitude": 49.27348, "longitude": 13.83035, "state": "Jiho\u010desk\u00fd kraj"}, {"city": "Ka\u0161persk\u00e9 Hory", "latitude": 49.14289, "longitude": 13.55616, "state": "Plze\u0148 Region"}, {"city": "Kasejovice", "latitude": 49.4627, "longitude": 13.7406, "state": "Plze\u0148 Region"}, {"city": "Karvin\u00e1", "latitude": 49.854, "longitude": 18.54169, "state": "Moravskoslezsk\u00fd"}, {"city": "Karolinka", "latitude": 49.35128, "longitude": 18.24006, "state": "Zl\u00edn"}, {"city": "Karlovy Vary", "latitude": 50.23271, "longitude": 12.87117, "state": "Karlovarsk\u00fd kraj"}, {"city": "Karlovice", "latitude": 50.10564, "longitude": 17.44563, "state": "Moravskoslezsk\u00fd"}, {"city": "Karl\u00edn", "latitude": 50.09272, "longitude": 14.44711, "state": "Prague"}, {"city": "Karda\u0161ova \u0158e\u010dice", "latitude": 49.18478, "longitude": 14.85315, "state": "Jiho\u010desk\u00fd kraj"}, {"city": "Kaplice", "latitude": 48.73881, "longitude": 14.49449, "state": "Jiho\u010desk\u00fd kraj"}, {"city": "Kamenn\u00fd \u00dajezd", "latitude": 48.89753, "longitude": 14.44638, "state": "Jiho\u010desk\u00fd kraj"}, {"city": "Kamenn\u00fd P\u0159\u00edvoz", "latitude": 49.86299, "longitude": 14.50339, "state": "Central Bohemia"}, {"city": "Kamenn\u00e9 \u017dehrovice", "latitude": 50.12697, "longitude": 14.01809, "state": "Central Bohemia"}, {"city": "Kamenick\u00fd \u0160enov", "latitude": 50.77359, "longitude": 14.47287, "state": "Libereck\u00fd kraj"}, {"city": "Kamenice nad Lipou", "latitude": 49.30303, "longitude": 15.07519, "state": "Vyso\u010dina"}, {"city": "Kamenice", "latitude": 49.90151, "longitude": 14.58242, "state": "Central Bohemia"}, {"city": "Kamenice", "latitude": 49.36659, "longitude": 15.78023, "state": "Vyso\u010dina"}, {"city": "K\u00e1jov", "latitude": 48.81082, "longitude": 14.25859, "state": "Jiho\u010desk\u00fd kraj"}, {"city": "Kada\u0148", "latitude": 50.38333, "longitude": 13.26667, "state": "\u00dasteck\u00fd kraj"}, {"city": "Ka\u010dice", "latitude": 50.16261, "longitude": 13.98815, "state": "Central Bohemia"}, {"city": "Josef\u016fv D\u016fl", "latitude": 50.78191, "longitude": 15.23146, "state": "Libereck\u00fd kraj"}, {"city": "Jistebn\u00edk", "latitude": 49.754, "longitude": 18.13063, "state": "Moravskoslezsk\u00fd"}, {"city": "Jistebnice", "latitude": 49.48553, "longitude": 14.5276, "state": "Jiho\u010desk\u00fd kraj"}, {"city": "Jirny", "latitude": 50.11578, "longitude": 14.69923, "state": "Central Bohemia"}, {"city": "Jirkov", "latitude": 50.49979, "longitude": 13.44769, "state": "\u00dasteck\u00fd kraj"}, {"city": "Ji\u0159\u00edkov", "latitude": 50.99514, "longitude": 14.5691, "state": "\u00dasteck\u00fd kraj"}, {"city": "Jind\u0159ich\u016fv Hradec", "latitude": 49.14404, "longitude": 15.00301, "state": "Jiho\u010desk\u00fd kraj"}, {"city": "Jind\u0159ichov", "latitude": 50.25184, "longitude": 17.51903, "state": "Moravskoslezsk\u00fd"}, {"city": "Jince", "latitude": 49.78624, "longitude": 13.97867, "state": "Central Bohemia"}, {"city": "Jimramov", "latitude": 49.63719, "longitude": 16.22632, "state": "Vyso\u010dina"}, {"city": "J\u00edlov\u00e9 u Prahy", "latitude": 49.89545, "longitude": 14.49333, "state": "Central Bohemia"}, {"city": "J\u00edlov\u00e9", "latitude": 50.76082, "longitude": 14.10383, "state": "\u00dasteck\u00fd kraj"}, {"city": "Jilemnice", "latitude": 50.6089, "longitude": 15.50653, "state": "Libereck\u00fd kraj"}, {"city": "Jihlava", "latitude": 49.3961, "longitude": 15.59124, "state": "Vyso\u010dina"}, {"city": "Ji\u010d\u00edn", "latitude": 50.43723, "longitude": 15.35162, "state": "Kr\u00e1lov\u00e9hradeck\u00fd kraj"}, {"city": "Jevi\u0161ovice", "latitude": 48.98736, "longitude": 15.98992, "state": "South Moravian"}, {"city": "Jev\u00ed\u010dko", "latitude": 49.6322, "longitude": 16.71125, "state": "Pardubick\u00fd"}, {"city": "Jesen\u00edk nad Odrou", "latitude": 49.61194, "longitude": 17.90526, "state": "Moravskoslezsk\u00fd"}, {"city": "Jesen\u00edk", "latitude": 50.22937, "longitude": 17.20464, "state": "Olomouck\u00fd"}, {"city": "Jesenice", "latitude": 50.09703, "longitude": 13.46948, "state": "Central Bohemia"}, {"city": "Jesenice", "latitude": 49.96814, "longitude": 14.5135, "state": "Central Bohemia"}, {"city": "Jene\u010d", "latitude": 50.0873, "longitude": 14.21482, "state": "Central Bohemia"}, {"city": "Jemnice", "latitude": 49.01898, "longitude": 15.56994, "state": "Vyso\u010dina"}, {"city": "Jedovnice", "latitude": 49.34453, "longitude": 16.75595, "state": "South Moravian"}, {"city": "Jedlov\u00e1", "latitude": 49.661, "longitude": 16.30608, "state": "Pardubick\u00fd"}, {"city": "Javorn\u00edk", "latitude": 50.39077, "longitude": 17.00272, "state": "Olomouck\u00fd"}, {"city": "Jaro\u0161ov nad Ne\u017e\u00e1rkou", "latitude": 49.18989, "longitude": 15.06734, "state": "Jiho\u010desk\u00fd kraj"}, {"city": "Jaroslavice", "latitude": 48.75657, "longitude": 16.23351, "state": "South Moravian"}, {"city": "Jarom\u011b\u0159ice nad Rokytnou", "latitude": 49.09408, "longitude": 15.89331, "state": "Vyso\u010dina"}, {"city": "Jarom\u011b\u0159ice", "latitude": 49.62556, "longitude": 16.75185, "state": "Pardubick\u00fd"}, {"city": "Jarom\u011b\u0159", "latitude": 50.3562, "longitude": 15.92136, "state": "Kr\u00e1lov\u00e9hradeck\u00fd kraj"}, {"city": "Janov nad Nisou", "latitude": 50.77204, "longitude": 15.16913, "state": "Libereck\u00fd kraj"}, {"city": "Janovice nad \u00dahlavou", "latitude": 49.34515, "longitude": 13.21813, "state": "Plze\u0148 Region"}, {"city": "Janovice", "latitude": 49.62141, "longitude": 18.40602, "state": "Moravskoslezsk\u00fd"}, {"city": "Jalub\u00ed", "latitude": 49.11626, "longitude": 17.42788, "state": "Zl\u00edn"}, {"city": "Jakartovice", "latitude": 49.9151, "longitude": 17.684, "state": "Moravskoslezsk\u00fd"}, {"city": "J\u00e1chymov", "latitude": 50.35846, "longitude": 12.93465, "state": "Karlovarsk\u00fd kraj"}, {"city": "Jablunkov", "latitude": 49.57672, "longitude": 18.76458, "state": "Moravskoslezsk\u00fd"}, {"city": "Jabl\u016fnka", "latitude": 49.38355, "longitude": 17.95021, "state": "Zl\u00edn"}, {"city": "Jablonn\u00e9 v Podje\u0161t\u011bd\u00ed", "latitude": 50.76528, "longitude": 14.76052, "state": "Libereck\u00fd kraj"}, {"city": "Jablonn\u00e9 nad Orlic\u00ed", "latitude": 50.02964, "longitude": 16.60059, "state": "Pardubick\u00fd"}, {"city": "Jablonec nad Nisou", "latitude": 50.72431, "longitude": 15.17108, "state": "Libereck\u00fd kraj"}, {"city": "Jablonec nad Jizerou", "latitude": 50.70347, "longitude": 15.42959, "state": "Libereck\u00fd kraj"}, {"city": "Ivanovice na Han\u00e9", "latitude": 49.30542, "longitude": 17.09343, "state": "South Moravian"}, {"city": "Ivan\u010dice", "latitude": 49.10144, "longitude": 16.37752, "state": "South Moravian"}, {"city": "H\u00fdskov", "latitude": 49.99072, "longitude": 14.05055, "state": "Central Bohemia"}, {"city": "Hvozdn\u00e1", "latitude": 49.24848, "longitude": 17.75163, "state": "Zl\u00edn"}, {"city": "Hustope\u010de Nad Be\u010dvou", "latitude": 49.53053, "longitude": 17.86994, "state": "Olomouck\u00fd"}, {"city": "Hustope\u010de", "latitude": 48.94085, "longitude": 16.73762, "state": "South Moravian"}, {"city": "Husinec", "latitude": 49.05496, "longitude": 13.98697, "state": "Jiho\u010desk\u00fd kraj"}, {"city": "Humpolec", "latitude": 49.54152, "longitude": 15.35932, "state": "Vyso\u010dina"}, {"city": "Hul\u00edn", "latitude": 49.31689, "longitude": 17.46374, "state": "Zl\u00edn"}, {"city": "Hukvaldy", "latitude": 49.62381, "longitude": 18.22189, "state": "Moravskoslezsk\u00fd"}, {"city": "Hudlice", "latitude": 49.96096, "longitude": 13.97063, "state": "Central Bohemia"}, {"city": "Hru\u0161ovany u Brna", "latitude": 49.03863, "longitude": 16.59429, "state": "South Moravian"}, {"city": "Hru\u0161ovany nad Jevi\u0161ovkou", "latitude": 48.82991, "longitude": 16.40271, "state": "South Moravian"}, {"city": "Hru\u0161ky", "latitude": 48.79272, "longitude": 16.97404, "state": "South Moravian"}, {"city": "Hroznov\u00e1 Lhota", "latitude": 48.90784, "longitude": 17.41697, "state": "South Moravian"}, {"city": "Hrozn\u011bt\u00edn", "latitude": 50.3094, "longitude": 12.8718, "state": "Karlovarsk\u00fd kraj"}, {"city": "Hrotovice", "latitude": 49.1077, "longitude": 16.06067, "state": "Vyso\u010dina"}, {"city": "Hronov", "latitude": 50.47968, "longitude": 16.1823, "state": "Kr\u00e1lov\u00e9hradeck\u00fd kraj"}, {"city": "Hromnice", "latitude": 49.84907, "longitude": 13.44146, "state": "Plze\u0148 Region"}, {"city": "Hroch\u016fv T\u00fdnec", "latitude": 49.95946, "longitude": 15.91054, "state": "Pardubick\u00fd"}, {"city": "Hrob", "latitude": 50.65919, "longitude": 13.72676, "state": "\u00dasteck\u00fd kraj"}, {"city": "H\u0159ebe\u010d", "latitude": 50.13595, "longitude": 14.16446, "state": "Central Bohemia"}, {"city": "Hrd\u011bjovice", "latitude": 49.01893, "longitude": 14.47857, "state": "Jiho\u010desk\u00fd kraj"}, {"city": "Hranice", "latitude": 50.30459, "longitude": 12.17577, "state": "Karlovarsk\u00fd kraj"}, {"city": "Hranice", "latitude": 49.54796, "longitude": 17.73469, "state": "Olomouck\u00fd"}, {"city": "Hradi\u0161tko", "latitude": 49.86828, "longitude": 14.40935, "state": "Central Bohemia"}, {"city": "Hr\u00e1dek nad Nisou", "latitude": 50.85279, "longitude": 14.84455, "state": "Libereck\u00fd kraj"}, {"city": "Hr\u00e1dek", "latitude": 49.71316, "longitude": 13.65296, "state": "Plze\u0148 Region"}, {"city": "Hr\u00e1dek", "latitude": 49.61661, "longitude": 18.7372, "state": "Moravskoslezsk\u00fd"}, {"city": "Hr\u00e1dek", "latitude": 49.26127, "longitude": 13.4985, "state": "Plze\u0148 Region"}, {"city": "Hradec nad Svitavou", "latitude": 49.71143, "longitude": 16.48058, "state": "Pardubick\u00fd"}, {"city": "Hradec Kr\u00e1lov\u00e9", "latitude": 50.20923, "longitude": 15.83277, "state": "Kr\u00e1lov\u00e9hradeck\u00fd kraj"}, {"city": "Hradec nad Moravic\u00ed", "latitude": 49.87042, "longitude": 17.87843, "state": "Moravskoslezsk\u00fd"}, {"city": "Hrabyn\u011b", "latitude": 49.88249, "longitude": 18.05483, "state": "Moravskoslezsk\u00fd"}, {"city": "Hovor\u010dovice", "latitude": 50.17866, "longitude": 14.51789, "state": "Central Bohemia"}, {"city": "Hovorany", "latitude": 48.95493, "longitude": 16.99346, "state": "South Moravian"}, {"city": "Hov\u011bz\u00ed", "latitude": 49.30365, "longitude": 18.06062, "state": "Zl\u00edn"}, {"city": "Hostou\u0148", "latitude": 49.55971, "longitude": 12.77147, "state": "Plze\u0148 Region"}, {"city": "Hostomice", "latitude": 50.5877, "longitude": 13.80803, "state": "\u00dasteck\u00fd kraj"}, {"city": "Hostomice", "latitude": 49.82526, "longitude": 14.0456, "state": "Central Bohemia"}, {"city": "Ho\u0161\u0165ka", "latitude": 50.48859, "longitude": 14.335, "state": "\u00dasteck\u00fd kraj"}, {"city": "Hostivice", "latitude": 50.08158, "longitude": 14.25856, "state": "Central Bohemia"}, {"city": "Hostinn\u00e9", "latitude": 50.54066, "longitude": 15.72334, "state": "Kr\u00e1lov\u00e9hradeck\u00fd kraj"}, {"city": "Host\u011bradice", "latitude": 48.95006, "longitude": 16.25931, "state": "South Moravian"}, {"city": "Hostavice", "latitude": 50.09283, "longitude": 14.55822, "state": "Prague"}, {"city": "Ho\u0161\u0165\u00e1lkov\u00e1", "latitude": 49.35467, "longitude": 17.86944, "state": "Zl\u00edn"}, {"city": "Hor\u0161ovsk\u00fd T\u00fdn", "latitude": 49.52965, "longitude": 12.94405, "state": "Plze\u0148 Region"}, {"city": "Ho\u0159ovice", "latitude": 49.83597, "longitude": 13.90268, "state": "Central Bohemia"}, {"city": "Horom\u011b\u0159ice", "latitude": 50.13173, "longitude": 14.33879, "state": "Central Bohemia"}, {"city": "Horn\u00ed T\u011brlicko", "latitude": 49.75177, "longitude": 18.4829, "state": "Moravskoslezsk\u00fd"}, {"city": "Horn\u00ed Such\u00e1", "latitude": 49.7978, "longitude": 18.48189, "state": "Moravskoslezsk\u00fd"}, {"city": "Horn\u00ed Stropnice", "latitude": 48.76124, "longitude": 14.73502, "state": "Jiho\u010desk\u00fd kraj"}, {"city": "Horn\u00ed \u0160t\u011bp\u00e1nov", "latitude": 49.54901, "longitude": 16.79078, "state": "Olomouck\u00fd"}, {"city": "Horn\u00ed Sloupnice", "latitude": 49.92138, "longitude": 16.33948, "state": "Pardubick\u00fd"}, {"city": "Horn\u00ed Slavkov", "latitude": 50.13863, "longitude": 12.80758, "state": "Karlovarsk\u00fd kraj"}, {"city": "Horn\u00ed Po\u010dernice", "latitude": 50.1121, "longitude": 14.61036, "state": "Prague"}, {"city": "Horn\u00ed Po\u010daply", "latitude": 50.4244, "longitude": 14.38993, "state": "Central Bohemia"}, {"city": "Horn\u00ed Plan\u00e1", "latitude": 48.76736, "longitude": 14.03257, "state": "Jiho\u010desk\u00fd kraj"},