[{"city": "Aceitunas", "latitude": 18.44328, "longitude": -67.0649, "state": "Moca"}, {"city": "Adjuntas", "latitude": 18.16274, "longitude": -66.72212, "state": null}, {"city": "Aguada", "latitude": 18.37939, "longitude": -67.18824, "state": null}, {"city": "Aguadilla", "latitude": 18.42745, "longitude": -67.15407, "state": null}, {"city": "Aguas Buenas", "latitude": 18.2569, "longitude": -66.10294, "state": null}, {"city": "Aguas Claras", "latitude": 18.25273, "longitude": -65.6535, "state": "Ceiba"}, {"city": "Aguilita", "latitude": 18.0233, "longitude": -66.53462, "state": "Juana D\u00edaz"}, {"city": "Aibonito", "latitude": 18.13996, "longitude": -66.266, "state": null}, {"city": "A\u00f1asco", "latitude": 18.28273, "longitude": -67.13962, "state": null}, {"city": "Animas", "latitude": 18.4455, "longitude": -66.6349, "state": "Arecibo"}, {"city": "Ant\u00f3n Ruiz", "latitude": 18.18524, "longitude": -65.8085, "state": "Humacao"}, {"city": "Arecibo", "latitude": 18.47245, "longitude": -66.71573, "state": null}, {"city": "Arroyo", "latitude": 17.9658, "longitude": -66.06128, "state": null}, {"city": "Bairoa", "latitude": 18.25912, "longitude": -66.04044, "state": "Caguas"}, {"city": "Bajadero", "latitude": 18.42661, "longitude": -66.68323, "state": "Arecibo"}, {"city": "Bajandas", "latitude": 18.15774, "longitude": -65.78155, "state": "Humacao"}, {"city": "Barahona", "latitude": 18.35134, "longitude": -66.44545, "state": "Morovis"}, {"city": "Barceloneta", "latitude": 18.4505, "longitude": -66.53851, "state": null}, {"city": "Barranquitas", "latitude": 18.18662, "longitude": -66.30628, "state": null}, {"city": "Bartolo", "latitude": 18.36134, "longitude": -65.8385, "state": "R\u00edo Grande"}, {"city": "Bayam\u00f3n", "latitude": 18.39856, "longitude": -66.15572, "state": null}, {"city": "Bayamon", "latitude": 18.17774, "longitude": -66.11322, "state": "Cidra"}, {"city": "Benitez", "latitude": 18.27357, "longitude": -65.87905, "state": "Can\u00f3vanas"}, {"city": "Boquer\u00f3n", "latitude": 18.02691, "longitude": -67.16907, "state": "Cabo Rojo"}, {"city": "Boqueron", "latitude": 18.20746, "longitude": -65.8485, "state": "Las Piedras"}, {"city": "Brenas", "latitude": 18.46717, "longitude": -66.341, "state": "Vega Alta"}, {"city": "Buena Vista", "latitude": 17.99635, "longitude": -66.05183, "state": "Arroyo"}, {"city": "Bufalo", "latitude": 18.41828, "longitude": -66.57323, "state": "Barceloneta"}, {"city": "Caban", "latitude": 18.44328, "longitude": -67.13601, "state": "Aguadilla"}, {"city": "Cabo Rojo", "latitude": 18.08663, "longitude": -67.14573, "state": null}, {"city": "Cacao", "latitude": 18.43661, "longitude": -66.93712, "state": "Quebradillas"}, {"city": "Caguas", "latitude": 18.23412, "longitude": -66.0485, "state": null}, {"city": "Campanilla", "latitude": 18.42134, "longitude": -66.23683, "state": "Toa Baja"}, {"city": "Campo Rico", "latitude": 18.33717, "longitude": -65.89794, "state": "Can\u00f3vanas"}, {"city": "Camuy", "latitude": 18.48383, "longitude": -66.8449, "state": null}, {"city": "Candelaria", "latitude": 18.40411, "longitude": -66.20878, "state": "Toa Baja"}, {"city": "Candelaria Arenas", "latitude": 18.41717, "longitude": -66.21739, "state": "Toa Baja"}, {"city": "Candelero Arriba", "latitude": 18.10191, "longitude": -65.83683, "state": "Humacao"}, {"city": "Canovanas", "latitude": 18.3751, "longitude": -65.89934, "state": "Can\u00f3vanas"}, {"city": "Capitanejo", "latitude": 18.01454, "longitude": -66.53372, "state": "Juana D\u00edaz"}, {"city": "Carolina", "latitude": 18.38078, "longitude": -65.95739, "state": null}, {"city": "Carrizales", "latitude": 18.48189, "longitude": -66.7899, "state": "Hatillo"}, {"city": "Cata\u00f1o", "latitude": 18.44134, "longitude": -66.11822, "state": null}, {"city": "Cayey", "latitude": 18.11191, "longitude": -66.166, "state": null}, {"city": "Cayuco", "latitude": 18.29106, "longitude": -66.73934, "state": "Utuado"}, {"city": "Ceiba", "latitude": 18.26412, "longitude": -65.6485, "state": null}, {"city": "Ceiba", "latitude": 18.44634, "longitude": -66.35073, "state": "Vega Alta"}, {"city": "Celada", "latitude": 18.27162, "longitude": -65.966, "state": "Gurabo"}, {"city": "Central Aguirre", "latitude": 17.95358, "longitude": -66.22294, "state": "Salinas"}, {"city": "Ciales", "latitude": 18.33606, "longitude": -66.46878, "state": null}, {"city": "Cidra", "latitude": 18.17579, "longitude": -66.16128, "state": null}, {"city": "Coamo", "latitude": 18.07996, "longitude": -66.35795, "state": null}, {"city": "Coco", "latitude": 18.00719, "longitude": -66.25933, "state": "Salinas"}, {"city": "Comer\u00edo", "latitude": 18.21801, "longitude": -66.226, "state": null}, {"city": "Comunas", "latitude": 18.08719, "longitude": -65.84377, "state": "Yabucoa"}, {"city": "Coqu\u00ed", "latitude": 17.97413, "longitude": -66.22711, "state": "Salinas"}, {"city": "Coraz\u00f3n", "latitude": 17.99274, "longitude": -66.08489, "state": "Guayama"}, {"city": "Corcovado", "latitude": 18.45856, "longitude": -66.77629, "state": "Hatillo"}, {"city": "Corozal", "latitude": 18.34106, "longitude": -66.31684, "state": null}, {"city": "Coto Laurel", "latitude": 18.04969, "longitude": -66.55128, "state": "Ponce"}, {"city": "Coto Norte", "latitude": 18.43078, "longitude": -66.43989, "state": "Vega Baja"}, {"city": "Culebra", "latitude": 18.30301, "longitude": -65.30099, "state": null}, {"city": "Daguao", "latitude": 18.22635, "longitude": -65.68322, "state": "Naguabo"}, {"city": "Dorado", "latitude": 18.45883, "longitude": -66.26767, "state": null}, {"city": "Duque", "latitude": 18.23669, "longitude": -65.74172, "state": "Naguabo"}, {"city": "El Mang\u00f3", "latitude": 18.23412, "longitude": -65.87961, "state": "Juncos"}, {"city": "El Negro", "latitude": 18.03747, "longitude": -65.85127, "state": "Yabucoa"}, {"city": "El Ojo", "latitude": 18.00385, "longitude": -66.39156, "state": "Santa Isabel"}, {"city": "Emajagua", "latitude": 18.00052, "longitude": -65.88266, "state": "Maunabo"}, {"city": "Esperanza", "latitude": 18.09719, "longitude": -65.47071, "state": "Vieques"}, {"city": "Espino", "latitude": 18.27634, "longitude": -67.11935, "state": "A\u00f1asco"}, {"city": "Estancias de Florida", "latitude": 18.36662, "longitude": -66.56962, "state": "Florida"}, {"city": "Fajardo", "latitude": 18.32579, "longitude": -65.65238, "state": null}, {"city": "Florida", "latitude": 18.36245, "longitude": -66.56128, "state": null}, {"city": "Franquez", "latitude": 18.34023, "longitude": -66.42767, "state": "Morovis"}, {"city": "Fuig", "latitude": 17.98774, "longitude": -66.91601, "state": "Gu\u00e1nica"}, {"city": "G. L. Garcia", "latitude": 18.12746, "longitude": -66.10405, "state": "Cayey"}, {"city": "Galateo", "latitude": 18.36245, "longitude": -66.25878, "state": "Toa Alta"}, {"city": "Garrochales", "latitude": 18.45356, "longitude": -66.56628, "state": "Barceloneta"}, {"city": "Gu\u00e1nica", "latitude": 17.97163, "longitude": -66.90795, "state": null}, {"city": "Guayabal", "latitude": 18.08135, "longitude": -66.50128, "state": "Juana D\u00edaz"}, {"city": "Guayama", "latitude": 17.98413, "longitude": -66.11378, "state": null}, {"city": "Guayanilla", "latitude": 18.01913, "longitude": -66.79184, "state": null}, {"city": "Guaynabo", "latitude": 18.35745, "longitude": -66.111, "state": null}, {"city": "Gurabo", "latitude": 18.2544, "longitude": -65.97294, "state": null}, {"city": "H. Rivera Colon", "latitude": 18.34773, "longitude": -66.27378, "state": "Toa Alta"}, {"city": "Hatillo", "latitude": 18.48633, "longitude": -66.82545, "state": null}, {"city": "Hato Candal", "latitude": 18.37439, "longitude": -65.78711, "state": "R\u00edo Grande"}, {"city": "Hormigueros", "latitude": 18.13968, "longitude": -67.1274, "state": null}, {"city": "Imbery", "latitude": 18.43689, "longitude": -66.55239, "state": "Barceloneta"}, {"city": "Indios", "latitude": 17.99413, "longitude": -66.81934, "state": "Guayanilla"}, {"city": "Ingenio", "latitude": 18.44217, "longitude": -66.226, "state": "Toa Baja"}, {"city": "Humacao", "latitude": 18.14968, "longitude": -65.82738, "state": null}, {"city": "Isabel Segunda", "latitude": 18.14913, "longitude": -65.44266, "state": "Vieques"}, {"city": "Isabela", "latitude": 18.50078, "longitude": -67.02435, "state": null}, {"city": "Jagual", "latitude": 18.16163, "longitude": -65.99544, "state": "San Lorenzo"}, {"city": "Jauca", "latitude": 17.96913, "longitude": -66.36572, "state": "Santa Isabel"}, {"city": "Jayuya", "latitude": 18.21857, "longitude": -66.59156, "state": null}, {"city": "Jobos", "latitude": 17.95524, "longitude": -66.16544, "state": "Guayama"}, {"city": "Juana D\u00edaz", "latitude": 18.05246, "longitude": -66.50656, "state": null}, {"city": "Juncal", "latitude": 18.31384, "longitude": -66.91907, "state": "San Sebasti\u00e1n"}, {"city": "Juncos", "latitude": 18.22746, "longitude": -65.921, "state": null}, {"city": "La Alianza", "latitude": 18.39745, "longitude": -66.6024, "state": "Arecibo"}, {"city": "La Dolores", "latitude": 18.3755, "longitude": -65.85572, "state": "R\u00edo Grande"}, {"city": "La Fermina", "latitude": 18.17551, "longitude": -65.8535, "state": "Las Piedras"}, {"city": "La Luisa", "latitude": 18.44884, "longitude": -66.50989, "state": "Manat\u00ed"}, {"city": "La Parguera", "latitude": 17.97497, "longitude": -67.04657, "state": "Lajas"}, {"city": "La Playa", "latitude": 18.28745, "longitude": -67.18685, "state": "A\u00f1asco"}, {"city": "La Plena", "latitude": 18.04663, "longitude": -66.20461, "state": "Salinas"}, {"city": "Lajas", "latitude": 18.04996, "longitude": -67.05934, "state": null}, {"city": "Lamboglia", "latitude": 17.98136, "longitude": -65.98572, "state": "Patillas"}, {"city": "Lares", "latitude": 18.29467, "longitude": -66.87712, "state": null}, {"city": "Las Marias", "latitude": 18.29328, "longitude": -67.14629, "state": "A\u00f1asco"}, {"city": "Las Mar\u00edas", "latitude": 18.2519, "longitude": -66.99212, "state": null}, {"city": "Las Ochenta", "latitude": 17.98469, "longitude": -66.31795, "state": "Salinas"}, {"city": "Las Ollas", "latitude": 18.014, "longitude": -66.421, "state": "Santa Isabel"}, {"city": "Las Piedras", "latitude": 18.18301, "longitude": -65.86627, "state": null}, {"city": "Levittown", "latitude": 18.44995, "longitude": -66.18156, "state": "Toa Baja"}, {"city": "Liborio Negron Torres", "latitude": 18.04302, "longitude": -66.9424, "state": "Sabana Grande"}, {"city": "Lluveras", "latitude": 18.0383, "longitude": -66.90462, "state": "Sabana Grande"}, {"city": "Lo\u00edza", "latitude": 18.43134, "longitude": -65.88016, "state": null}, {"city": "Los Llanos", "latitude": 18.05524, "longitude": -66.40573, "state": "Coamo"}, {"city": "Luis Llorens Torres", "latitude": 18.05691, "longitude": -66.52684, "state": "Juana D\u00edaz"}, {"city": "Luis M. Cintron", "latitude": 18.29968, "longitude": -65.63849, "state": "Fajardo"}, {"city": "Luquillo", "latitude": 18.37245, "longitude": -65.71655, "state": null}, {"city": "Luyando", "latitude": 18.36439, "longitude": -67.1574, "state": "Aguada"}, {"city": "Magas Arriba", "latitude": 18.01746, "longitude": -66.76906, "state": "Guayanilla"}, {"city": "Manat\u00ed", "latitude": 18.42745, "longitude": -66.49212, "state": null}, {"city": "Maria Antonia", "latitude": 17.9783, "longitude": -66.88934, "state": "Gu\u00e1nica"}, {"city": "Mariano Col\u00f3n", "latitude": 18.0233, "longitude": -66.33239, "state": "Coamo"}, {"city": "Maricao", "latitude": 18.18079, "longitude": -66.9799, "state": null}, {"city": "Martorell", "latitude": 18.07607, "longitude": -65.89822, "state": "Yabucoa"}, {"city": "Maunabo", "latitude": 18.00719, "longitude": -65.89933, "state": null}, {"city": "Miranda", "latitude": 18.38662, "longitude": -66.38378, "state": "Vega Baja"}, {"city": "Moca", "latitude": 18.39467, "longitude": -67.11324, "state": null}, {"city": "Monserrate", "latitude": 18.43661, "longitude": -66.35961, "state": "Vega Baja"}, {"city": "Monte Grande", "latitude": 18.08746, "longitude": -67.1074, "state": "Cabo Rojo"}, {"city": "Mora", "latitude": 18.463, "longitude": -67.03268, "state": "Isabela"}, {"city": "Morovis", "latitude": 18.32578, "longitude": -66.40656, "state": null}, {"city": "Mucarabones", "latitude": 18.39078, "longitude": -66.216, "state": "Toa Alta"}, {"city": "Mayag\u00fcez", "latitude": 18.20107, "longitude": -67.13962, "state": null}, {"city": "Naguabo", "latitude": 18.21162, "longitude": -65.73488, "state": null}, {"city": "Naranjito", "latitude": 18.30079, "longitude": -66.24489, "state": null}, {"city": "Olimpo", "latitude": 18.00191, "longitude": -66.10822, "state": "Guayama"}, {"city": "Orocovis", "latitude": 18.2269, "longitude": -66.391, "state": null}, {"city": "P\u00e1jaros", "latitude": 18.36856, "longitude": -66.21683, "state": "Toa Alta"}, {"city": "Palmarejo", "latitude": 18.06802, "longitude": -66.32545, "state": "Coamo"}, {"city": "Palmarejo", "latitude": 18.04024, "longitude": -67.07685, "state": "Lajas"}, {"city": "Palmas", "latitude": 17.98719, "longitude": -66.02544, "state": "Arroyo"}, {"city": "Palmer", "latitude": 18.37051, "longitude": -65.77405, "state": "R\u00edo Grande"}, {"city": "Palo Seco", "latitude": 18.00747, "longitude": -65.93683, "state": "Maunabo"}, {"city": "Palomas", "latitude": 18.23246, "longitude": -66.25628, "state": "Comer\u00edo"}, {"city": "Palomas", "latitude": 18.01358, "longitude": -66.87323, "state": "Yauco"}, {"city": "Parcelas La Milagrosa", "latitude": 18.17079, "longitude": -66.18822, "state": "Cidra"}, {"city": "Parcelas Nuevas", "latitude": 18.14024, "longitude": -66.17239, "state": "Cidra"}, {"city": "Parcelas Pe\u00f1uelas", "latitude": 17.99885, "longitude": -66.34128, "state": "Santa Isabel"}, {"city": "Pastos", "latitude": 18.11774, "longitude": -66.25878, "state": "Aibonito"}, {"city": "Patillas", "latitude": 18.00635, "longitude": -66.01572, "state": null}, {"city": "Pe\u00f1a Pobre", "latitude": 18.21551, "longitude": -65.82211, "state": "Naguabo"}, {"city": "Pe\u00f1uelas", "latitude": 18.05635, "longitude": -66.72156, "state": null}, {"city": "Piedra Gorda", "latitude": 18.43411, "longitude": -66.88768, "state": "Camuy"}, {"city": "Playa Fortuna", "latitude": 18.37967, "longitude": -65.74516, "state": "Luquillo"}, {"city": "Playita", "latitude": 18.04469, "longitude": -65.90738, "state": "Yabucoa"}, {"city": "Playita Cortada", "latitude": 17.98497, "longitude": -66.43906, "state": "Santa Isabel"}, {"city": "Pole Ojea", "latitude": 17.97496, "longitude": -67.18518, "state": "Cabo Rojo"}, {"city": "Ponce", "latitude": 18.01031, "longitude": -66.62398, "state": null}, {"city": "Potala Pastillo", "latitude": 17.99135, "longitude": -66.49656, "state": "Juana D\u00edaz"}, {"city": "Pueblito del Rio", "latitude": 18.22801, "longitude": -65.86294, "state": "Las Piedras"}, {"city": "Puerto Real", "latitude": 18.07496, "longitude": -67.18712, "state": "Cabo Rojo"}, {"city": "Punta Santiago", "latitude": 18.16635, "longitude": -65.74822, "state": "Humacao"}, {"city": "Quebrada", "latitude": 18.35662, "longitude": -66.83212, "state": "Camuy"}, {"city": "Quebradillas", "latitude": 18.47383, "longitude": -66.93851, "state": null}, {"city": "Rafael Capo", "latitude": 18.40717, "longitude": -66.78212, "state": "Hatillo"}, {"city": "Rafael Gonzalez", "latitude": 18.42745, "longitude": -66.78684, "state": "Hatillo"}, {"city": "Rafael Hernandez", "latitude": 18.47133, "longitude": -67.07907, "state": "Aguadilla"}, {"city": "Ramos", "latitude": 18.33967, "longitude": -65.71266, "state": "Luquillo"}, {"city": "Rinc\u00f3n", "latitude": 18.34023, "longitude": -67.2499, "state": null}, {"city": "R\u00edo Blanco", "latitude": 18.21829, "longitude": -65.7885, "state": "Naguabo"}, {"city": "R\u00edo Ca\u00f1as Abajo", "latitude": 18.0383, "longitude": -66.46767, "state": "Juana D\u00edaz"}, {"city": "R\u00edo Grande", "latitude": 18.38023, "longitude": -65.83127, "state": null}, {"city": "R\u00edo Lajas", "latitude": 18.39467, "longitude": -66.26767, "state": "Dorado"}, {"city": "Rosa Sanchez", "latitude": 18.06163, "longitude": -65.9135, "state": "Yabucoa"}, {"city": "Sabana", "latitude": 18.46078, "longitude": -66.3585, "state": "Vega Baja"}, {"city": "Sabana Eneas", "latitude": 18.08607, "longitude": -67.08101, "state": "San Germ\u00e1n"}, {"city": "Sabana Grande", "latitude": 18.07774, "longitude": -66.96045, "state": null}, {"city": "Sabana Hoyos", "latitude": 18.43384, "longitude": -66.61378, "state": "Arecibo"}, {"city": "Sabana Seca", "latitude": 18.42689, "longitude": -66.18461, "state": "Toa Baja"}, {"city": "Salinas", "latitude": 17.97747, "longitude": -66.29795, "state": null}, {"city": "San Antonio", "latitude": 18.49217, "longitude": -67.09851, "state": "Aguadilla"}, {"city": "San Antonio", "latitude": 18.44884, "longitude": -66.30267, "state": "Dorado"}, {"city": "San Antonio", "latitude": 18.45161, "longitude": -66.94962, "state": "Quebradillas"}, {"city": "San Germ\u00e1n", "latitude": 18.08163, "longitude": -67.0449, "state": null}, {"city": "San Isidro", "latitude": 18.39217, "longitude": -65.88544, "state": "Can\u00f3vanas"}, {"city": "San Jos\u00e9", "latitude": 18.39828, "longitude": -66.25572, "state": "Toa Baja"}, {"city": "San Juan", "latitude": 18.46633, "longitude": -66.10572, "state": null}, {"city": "San Lorenzo", "latitude": 18.1894, "longitude": -65.961, "state": null}, {"city": "San Sebasti\u00e1n", "latitude": 18.33662, "longitude": -66.99018, "state": null}, {"city": "Santa Barbara", "latitude": 18.39356, "longitude": -65.91878, "state": "Can\u00f3vanas"}, {"city": "Santa Clara", "latitude": 18.21857, "longitude": -66.12878, "state": "Aguas Buenas"}, {"city": "Santa Isabel", "latitude": 17.96608, "longitude": -66.40489, "state": null}, {"city": "Santo Domingo", "latitude": 18.0633, "longitude": -66.7524, "state": "Pe\u00f1uelas"}, {"city": "Stella", "latitude": 18.32189, "longitude": -67.24685, "state": "Rinc\u00f3n"}, {"city": "Su\u00e1rez", "latitude": 18.43022, "longitude": -65.8535, "state": "Lo\u00edza"}, {"city": "Sumidero", "latitude": 18.21857, "longitude": -66.12878, "state": "Aguas Buenas"}, {"city": "Tallaboa", "latitude": 17.99497, "longitude": -66.71629, "state": "Pe\u00f1uelas"}, {"city": "Tallaboa Alta", "latitude": 18.05107, "longitude": -66.70017, "state": "Pe\u00f1uelas"}, {"city": "Tierras Nuevas Poniente", "latitude": 18.46189, "longitude": -66.4885, "state": "Manat\u00ed"}, {"city": "Toa Alta", "latitude": 18.38828, "longitude": -66.24822, "state": null}, {"city": "Toa Baja", "latitude": 18.44384, "longitude": -66.25961, "state": null}, {"city": "Trujillo Alto", "latitude": 18.35467, "longitude": -66.00739, "state": null}, {"city": "Utuado", "latitude": 18.26551, "longitude": -66.70045, "state": null}, {"city": "V\u00e1zquez", "latitude": 18.0658, "longitude": -66.2385, "state": "Salinas"}, {"city": "Vega Alta", "latitude": 18.41217, "longitude": -66.33128, "state": null}, {"city": "Vega Baja", "latitude": 18.44439, "longitude": -66.38767, "state": null}, {"city": "Vieques", "latitude": 18.42495, "longitude": -65.83294, "state": "Lo\u00edza"}, {"city": "Villalba", "latitude": 18.12718, "longitude": -66.49212, "state": null}, {"city": "Yabucoa", "latitude": 18.05052, "longitude": -65.87933, "state": null}, {"city": "Yauco", "latitude": 18.03496, "longitude": -66.8499, "state": null}, {"city": "Yaurel", "latitude": 18.02691, "longitude": -66.05711, "state": "Arroyo"}]