[{"city": "Trinity", "latitude": 17.30037, "longitude": -62.77584, "state": "Trinity Palmetto Point"}, {"city": "Sandy Point Town", "latitude": 17.35908, "longitude": -62.84858, "state": "Saint Anne Sandy Point"}, {"city": "Saint Paul\u2019s", "latitude": 17.40605, "longitude": -62.83562, "state": "Saint Paul Capesterre"}, {"city": "Nicola Town", "latitude": 17.37956, "longitude": -62.75318, "state": "Christ Church Nichola Town"}, {"city": "Newcastle", "latitude": 17.2, "longitude": -62.58333, "state": "Saint James Windwa"}, {"city": "Monkey Hill", "latitude": 17.32327, "longitude": -62.72914, "state": "Saint Peter Basseterre"}, {"city": "Middle Island", "latitude": 17.3259, "longitude": -62.81055, "state": null}, {"city": "Market Shop", "latitude": 17.13218, "longitude": -62.57267, "state": "Saint George Gingerland"}, {"city": "Fig Tree", "latitude": 17.12623, "longitude": -62.60265, "state": "Saint John Figtree"}, {"city": "Dieppe Bay Town", "latitude": 17.41473, "longitude": -62.8139, "state": "Saint John Capesterre"}, {"city": "Cotton Ground", "latitude": 17.16667, "longitude": -62.61667, "state": "Saint Thomas Lowland"}, {"city": "Charlestown", "latitude": 17.13333, "longitude": -62.61667, "state": "Saint Paul Charlestown"}, {"city": "Cayon", "latitude": 17.35, "longitude": -62.73333, "state": "Saint Mary Cayon"}, {"city": "Basseterre", "latitude": 17.2955, "longitude": -62.72499, "state": "Saint George Basseterre"}]