[{"city": "Yala", "latitude": 0.09438, "longitude": 34.53602, "state": "Siaya County"}, {"city": "Wundanyi", "latitude": -3.39642, "longitude": 38.35729, "state": "Taita Taveta"}, {"city": "Wote", "latitude": -1.78079, "longitude": 37.62882, "state": "Makueni County"}, {"city": "Witu", "latitude": -2.38892, "longitude": 40.43827, "state": "Lamu"}, {"city": "Webuye", "latitude": 0.6004, "longitude": 34.77119, "state": "Bungoma County"}, {"city": "Watamu", "latitude": -3.35335, "longitude": 40.02095, "state": "Kilifi County"}, {"city": "Wanguru", "latitude": -0.68393, "longitude": 37.35701, "state": "Kirinyaga County"}, {"city": "Wamunyu", "latitude": -1.40983, "longitude": 37.56358, "state": "Machakos County"}, {"city": "Wamba", "latitude": 0.98016, "longitude": 37.32349, "state": "Samburu County"}, {"city": "Wajir", "latitude": 1.7471, "longitude": 40.05732, "state": "Wajir County"}, {"city": "Voi", "latitude": -3.39605, "longitude": 38.55609, "state": "Taita Taveta"}, {"city": "Vipingo", "latitude": -3.81466, "longitude": 39.81282, "state": "Kilifi County"}, {"city": "Ukunda", "latitude": -4.2929, "longitude": 39.56404, "state": "Kwale County"}, {"city": "Ogunja", "latitude": 0.19019, "longitude": 34.29916, "state": "Siaya County"}, {"city": "Turbo", "latitude": 0.63367, "longitude": 35.04815, "state": "Uasin Gishu County"}, {"city": "Tinganga", "latitude": -1.13033, "longitude": 36.81358, "state": "Kiambu County"}, {"city": "Timau", "latitude": 0.0835, "longitude": 37.23925, "state": "Meru County"}, {"city": "Thika", "latitude": -1.03326, "longitude": 37.06933, "state": "Nairobi County"}, {"city": "Taveta", "latitude": -3.39879, "longitude": 37.68336, "state": "Taita Taveta"}, {"city": "Tarbaj", "latitude": 2.2085, "longitude": 40.11812, "state": "Wajir County"}, {"city": "Tala", "latitude": -1.26849, "longitude": 37.32186, "state": "Machakos County"}, {"city": "Takaungu", "latitude": -3.6835, "longitude": 39.85687, "state": "Kilifi County"}, {"city": "Tabaka", "latitude": -0.74743, "longitude": 34.66682, "state": "Kisii County"}, {"city": "Sultan Hamud", "latitude": -2.02042, "longitude": 37.37212, "state": "Makueni County"}, {"city": "Subukia", "latitude": -0.01644, "longitude": 36.20927, "state": "Nakuru County"}, {"city": "South Kinangop", "latitude": -0.7264, "longitude": 36.65258, "state": "Nyandarua County"}, {"city": "Sotik", "latitude": -0.69069, "longitude": 35.11102, "state": "Bomet County"}, {"city": "Sondu", "latitude": -0.3906, "longitude": 35.01266, "state": "Kericho County"}, {"city": "Sololo", "latitude": 3.56392, "longitude": 38.64321, "state": null}, {"city": "Sirisia", "latitude": 0.75471, "longitude": 34.50351, "state": "Bungoma County"}, {"city": "Sindo", "latitude": -0.54061, "longitude": 34.16891, "state": "Homa Bay County"}, {"city": "Simba", "latitude": -2.15792, "longitude": 37.59166, "state": "Kajiado County"}, {"city": "Siakago", "latitude": -0.57728, "longitude": 37.63996, "state": "Embu County"}, {"city": "Shimoni", "latitude": -4.64756, "longitude": 39.38175, "state": "Kwale County"}, {"city": "Shianda", "latitude": 0.31943, "longitude": 34.57352, "state": "Kakamega County"}, {"city": "Serem", "latitude": 0.07717, "longitude": 34.85473, "state": "Vihiga County"}, {"city": "Sega", "latitude": 0.25365, "longitude": 34.22784, "state": "Siaya County"}, {"city": "Sawa Sawa", "latitude": -4.47166, "longitude": 39.48463, "state": "Kwale County"}, {"city": "Sagana", "latitude": -0.66806, "longitude": 37.20875, "state": "Kirinyaga County"}, {"city": "Saba Saba", "latitude": -0.87592, "longitude": 37.14324, "state": "Murang'A"}, {"city": "Runyenjes", "latitude": -0.42304, "longitude": 37.57043, "state": "Embu County"}, {"city": "Rumuruti", "latitude": 0.2725, "longitude": 36.53806, "state": "Laikipia"}, {"city": "Ruiru", "latitude": -1.14665, "longitude": 36.96087, "state": "Kiambu County"}, {"city": "Rongo", "latitude": -0.75675, "longitude": 34.59833, "state": "Migori County"}, {"city": "Rongai", "latitude": -0.17344, "longitude": 35.86313, "state": "Nakuru County"}, {"city": "Rombo", "latitude": -3.04631, "longitude": 37.69539, "state": "Kajiado County"}, {"city": "Rironi", "latitude": -1.15116, "longitude": 36.63555, "state": "Kiambu County"}, {"city": "Ramu", "latitude": 3.93147, "longitude": 41.22295, "state": "Mandera County"}, {"city": "Rabuor", "latitude": -0.14989, "longitude": 34.82584, "state": "Kisumu County"}, {"city": "Pumwani", "latitude": -1.28333, "longitude": 36.85, "state": "Nairobi County"}, {"city": "Oyugis", "latitude": -0.50974, "longitude": 34.73067, "state": "Homa Bay County"}, {"city": "Othaya", "latitude": -0.54655, "longitude": 36.93178, "state": "Nyeri County"}, {"city": "Ortum", "latitude": 1.43735, "longitude": 35.35629, "state": "West Pokot County"}, {"city": "Olulung\u2019a", "latitude": -1.00268, "longitude": 35.66336, "state": "Narok County"}, {"city": "Oloitokitok", "latitude": -2.92724, "longitude": 37.5103, "state": "Kajiado County"}, {"city": "Ol Joro Orok", "latitude": -0.07473, "longitude": 36.36288, "state": "Nyandarua County"}, {"city": "Olenguruone", "latitude": -0.5861, "longitude": 35.68769, "state": "Nakuru County"}, {"city": "Ogembo", "latitude": -0.80116, "longitude": 34.72579, "state": "Kisii County"}, {"city": "Nyeri", "latitude": -0.42013, "longitude": 36.94759, "state": "Nyeri County"}, {"city": "Nyangusu", "latitude": -0.93263, "longitude": 34.84421, "state": "Kisii County"}, {"city": "Nyandiwa", "latitude": -0.72265, "longitude": 34.0591, "state": "Homa Bay County"}, {"city": "Nyamira", "latitude": -0.56333, "longitude": 34.93583, "state": "Nyamira county"}, {"city": "Nyambunwa", "latitude": -0.67783, "longitude": 34.70722, "state": "Kisii County"}, {"city": "Nyahururu", "latitude": 0.03813, "longitude": 36.36339, "state": "Laikipia"}, {"city": "Nunguni", "latitude": -1.79324, "longitude": 37.36276, "state": "Makueni County"}, {"city": "North Horr", "latitude": 3.32205, "longitude": 37.07032, "state": "Marsabit County"}, {"city": "Nkubu", "latitude": -0.06929, "longitude": 37.66618, "state": "Meru County"}, {"city": "Njoro", "latitude": -0.33024, "longitude": 35.94445, "state": "Nakuru County"}, {"city": "Ngong", "latitude": -1.3527, "longitude": 36.6699, "state": "Kajiado County"}, {"city": "Ngewa", "latitude": -1.09196, "longitude": 36.8659, "state": "Kiambu County"}, {"city": "Ntulelei", "latitude": -1.09573, "longitude": 36.08559, "state": "Narok County"}, {"city": "Ndori", "latitude": -0.07892, "longitude": 34.36329, "state": "Siaya County"}, {"city": "Ndhiwa", "latitude": -0.73148, "longitude": 34.36785, "state": "Homa Bay County"}, {"city": "Naro Moru", "latitude": -0.16357, "longitude": 37.01773, "state": "Nyeri County"}, {"city": "Narok", "latitude": -1.08083, "longitude": 35.87111, "state": "Narok County"}, {"city": "Nanyuki", "latitude": 0.00624, "longitude": 37.07398, "state": "Laikipia"}, {"city": "Nandi Hills", "latitude": 0.10366, "longitude": 35.18426, "state": "Nandi"}, {"city": "Nambare", "latitude": 0.45813, "longitude": 34.25353, "state": "Busia County"}, {"city": "Nakuru", "latitude": -0.30719, "longitude": 36.07225, "state": "Nakuru County"}, {"city": "Naivasha", "latitude": -0.71383, "longitude": 36.43261, "state": "Nakuru County"}, {"city": "Nairobi", "latitude": -1.28333, "longitude": 36.81667, "state": "Nairobi County"}, {"city": "Nairagi Enkare", "latitude": -1.04444, "longitude": 36.16314, "state": "Narok County"}, {"city": "Mwingi", "latitude": -0.93605, "longitude": 38.05955, "state": "Kitui County"}, {"city": "Mweiga", "latitude": -0.31977, "longitude": 36.90194, "state": "Nyeri County"}, {"city": "Mwatate", "latitude": -3.505, "longitude": 38.37722, "state": "Taita Taveta"}, {"city": "Murang\u2019a", "latitude": -0.72104, "longitude": 37.15259, "state": "Murang'A"}, {"city": "Mumias", "latitude": 0.33474, "longitude": 34.48796, "state": "Kakamega County"}, {"city": "Mulot", "latitude": -0.93752, "longitude": 35.42162, "state": "Bomet County"}, {"city": "Muhoroni", "latitude": -0.15816, "longitude": 35.19645, "state": "Kisumu County"}, {"city": "Mtito Andei", "latitude": -2.68987, "longitude": 38.16687, "state": "Makueni County"}, {"city": "Msambweni", "latitude": -4.4619, "longitude": 39.48265, "state": "Kwale County"}, {"city": "Moyale", "latitude": 3.52661, "longitude": 39.0561, "state": "Marsabit County"}, {"city": "Mosoriot", "latitude": 0.32059, "longitude": 35.17599, "state": "Nandi"}, {"city": "Mosocho", "latitude": -0.58864, "longitude": 34.73379, "state": "Kisii County"}, {"city": "Mombasa", "latitude": -4.05466, "longitude": 39.66359, "state": "Mombasa County"}, {"city": "Molo", "latitude": -0.24849, "longitude": 35.73194, "state": "Nakuru County"}, {"city": "Mokowe", "latitude": -2.23679, "longitude": 40.84555, "state": "Lamu"}, {"city": "Mogonga", "latitude": -0.86478, "longitude": 34.76285, "state": "Kisii County"}, {"city": "Mogotio", "latitude": -0.02236, "longitude": 35.96124, "state": "Baringo"}, {"city": "Keringet", "latitude": -0.46758, "longitude": 35.68185, "state": "Nakuru County"}, {"city": "Mitunguu", "latitude": -0.10886, "longitude": 37.7826, "state": "Meru County"}, {"city": "Migori", "latitude": -1.06343, "longitude": 34.47313, "state": "Migori County"}, {"city": "Meru", "latitude": 0.04626, "longitude": 37.65587, "state": "Meru County"}, {"city": "Merti", "latitude": 1.06725, "longitude": 38.6662, "state": "Isiolo County"}, {"city": "Mbita", "latitude": -0.42492, "longitude": 34.20736, "state": "Homa Bay County"}, {"city": "Mbale", "latitude": 0.08213, "longitude": 34.72139, "state": "Vihiga County"}, {"city": "Mazeras", "latitude": -3.96426, "longitude": 39.5498, "state": "Kwale County"}, {"city": "Mau Narok", "latitude": -0.60661, "longitude": 36.00836, "state": "Nakuru County"}, {"city": "Maua", "latitude": 0.2332, "longitude": 37.94086, "state": "Meru County"}, {"city": "Matuu", "latitude": -1.1454, "longitude": 37.54671, "state": "Machakos County"}, {"city": "Matunda", "latitude": 0.84443, "longitude": 35.13716, "state": "Uasin Gishu County"}, {"city": "Masii", "latitude": -1.46127, "longitude": 37.43849, "state": "Machakos County"}, {"city": "Maseno", "latitude": -0.00661, "longitude": 34.60004, "state": "Kisumu County"}, {"city": "Masalani", "latitude": -1.69746, "longitude": 40.12186, "state": "Tana River County"}, {"city": "Marsabit", "latitude": 2.33468, "longitude": 37.99086, "state": "Marsabit County"}, {"city": "Marigat", "latitude": 0.47119, "longitude": 35.98638, "state": "Baringo"}, {"city": "Mariakani", "latitude": -3.86261, "longitude": 39.47458, "state": "Kilifi County"}, {"city": "Marereni", "latitude": -2.86041, "longitude": 40.15057, "state": "Kilifi County"}, {"city": "Maralal", "latitude": 1.09667, "longitude": 36.69806, "state": "Samburu County"}, {"city": "Maragua", "latitude": -0.79602, "longitude": 37.13292, "state": "Murang'A"}, {"city": "Mandera", "latitude": 3.93726, "longitude": 41.85688, "state": "Mandera County"}, {"city": "Malindi", "latitude": -3.21799, "longitude": 40.11692, "state": "Kilifi County"}, {"city": "Malikisi", "latitude": 0.67694, "longitude": 34.42167, "state": "Bungoma County"}, {"city": "Malava", "latitude": 0.44714, "longitude": 34.85387, "state": "Kakamega County"}, {"city": "Malaba", "latitude": 0.63513, "longitude": 34.28165, "state": "Busia County"}, {"city": "Makutano", "latitude": 1.25881, "longitude": 35.09569, "state": "West Pokot County"}, {"city": "Makutano", "latitude": -1.41187, "longitude": 37.47088, "state": "Machakos County"}, {"city": "Makueni Boma", "latitude": -1.80388, "longitude": 37.62405, "state": "Makueni County"}, {"city": "Makindu", "latitude": -2.27808, "longitude": 37.81867, "state": "Makueni County"}, {"city": "Majengo", "latitude": 0.04944, "longitude": 34.72476, "state": "Vihiga County"}, {"city": "Magena Marabu", "latitude": -0.91383, "longitude": 34.79623, "state": "Kisii County"}, {"city": "Magadi", "latitude": -1.90122, "longitude": 36.287, "state": "Kajiado County"}, {"city": "Mado Gashi", "latitude": 0.73112, "longitude": 39.17388, "state": "Garissa County"}, {"city": "Mackinnon Road", "latitude": -3.72332, "longitude": 39.03019, "state": "Kwale County"}, {"city": "Machakos", "latitude": -1.52233, "longitude": 37.26521, "state": "Machakos County"}, {"city": "Lunga-Lunga", "latitude": -4.55276, "longitude": 39.12363, "state": "Kwale County"}, {"city": "Kipkelion", "latitude": -0.19982, "longitude": 35.46735, "state": "Kericho County"}, {"city": "Lugulu", "latitude": 0.39337, "longitude": 34.30399, "state": "Busia County"}, {"city": "Luanda", "latitude": 0.31354, "longitude": 34.07146, "state": "Busia County"}, {"city": "Luanda", "latitude": 0.02333, "longitude": 34.58661, "state": "Vihiga County"}, {"city": "Londiani", "latitude": -0.16552, "longitude": 35.59359, "state": "Kericho County"}, {"city": "Lolgorien", "latitude": -1.22906, "longitude": 34.80711, "state": "Narok County"}, {"city": "Lokichokio", "latitude": 4.20771, "longitude": 34.35378, "state": "Turkana County"}, {"city": "Lokichar", "latitude": 2.38116, "longitude": 35.65123, "state": "Turkana County"}, {"city": "Lodwar", "latitude": 3.11988, "longitude": 35.59642, "state": "Turkana County"}, {"city": "Litein", "latitude": -0.58249, "longitude": 35.18969, "state": "Kericho County"}, {"city": "Limuru", "latitude": -1.1136, "longitude": 36.64205, "state": "Kiambu County"}, {"city": "Lare", "latitude": 0.33727, "longitude": 37.93749, "state": "Meru County"}, {"city": "Ongata Rongai", "latitude": -1.3953, "longitude": 36.764, "state": "Kajiado County"}, {"city": "Lamu", "latitude": -2.27169, "longitude": 40.90201, "state": null}, {"city": "Laisamis", "latitude": 1.5932, "longitude": 37.80595, "state": "Marsabit County"}, {"city": "Kwale", "latitude": -4.17375, "longitude": 39.45206, "state": "Kwale County"}, {"city": "Kutus", "latitude": -0.57534, "longitude": 37.3269, "state": "Kirinyaga County"}, {"city": "Konza", "latitude": -1.73947, "longitude": 37.13195, "state": "Machakos County"}, {"city": "Kitui", "latitude": -1.36696, "longitude": 38.01055, "state": "Kitui County"}, {"city": "Kithimani", "latitude": -1.18483, "longitude": 37.44685, "state": "Machakos County"}, {"city": "Kithii", "latitude": -1.39897, "longitude": 37.31378, "state": "Machakos County"}, {"city": "Kitale", "latitude": 1.01572, "longitude": 35.00622, "state": "Trans Nzoia"}, {"city": "Kisumu", "latitude": -0.10221, "longitude": 34.76171, "state": "Kisumu County"}, {"city": "Kisii", "latitude": -0.68174, "longitude": 34.76666, "state": "Kisii County"}, {"city": "Kiserian", "latitude": -1.4275, "longitude": 36.6865, "state": "Kajiado County"}, {"city": "Kiriaini", "latitude": -0.87917, "longitude": 36.88736, "state": "Murang'A"}, {"city": "Kipini", "latitude": -2.52565, "longitude": 40.5262, "state": "Tana River County"}, {"city": "Kinoi", "latitude": -1.6558, "longitude": 37.37454, "state": "Machakos County"}, {"city": "Kinna", "latitude": 0.31883, "longitude": 38.20499, "state": "Isiolo County"}, {"city": "Kinango", "latitude": -4.13723, "longitude": 39.31528, "state": "Kwale County"}, {"city": "Kihancha", "latitude": -1.19347, "longitude": 34.61967, "state": "Migori County"}, {"city": "Kiminini", "latitude": 0.89284, "longitude": 34.92468, "state": "Trans Nzoia"}, {"city": "Kimilili", "latitude": 0.78775, "longitude": 34.71562, "state": "Bungoma County"}, {"city": "Kimende", "latitude": -0.98294, "longitude": 36.63091, "state": "Kiambu County"}, {"city": "Kimbimbi", "latitude": -0.62233, "longitude": 37.36482, "state": "Kirinyaga County"}, {"city": "Kimana", "latitude": -2.79884, "longitude": 37.53708, "state": "Kajiado County"}, {"city": "Kilifi", "latitude": -3.63045, "longitude": 39.84992, "state": "Kilifi County"}, {"city": "Kilgoris", "latitude": -1.00819, "longitude": 34.87809, "state": "Narok County"}, {"city": "Kikuyu", "latitude": -1.24627, "longitude": 36.66291, "state": "Kiambu County"}, {"city": "Kikima", "latitude": -1.66208, "longitude": 37.4469, "state": "Makueni County"}, {"city": "Kijabe", "latitude": -0.93334, "longitude": 36.57233, "state": "Nakuru County"}, {"city": "Kiirua", "latitude": 0.12079, "longitude": 37.55953, "state": "Meru County"}, {"city": "Kiganjo", "latitude": -0.39626, "longitude": 37.00006, "state": "Nyeri County"}, {"city": "Kibwezi", "latitude": -2.40935, "longitude": 37.96631, "state": "Makueni County"}, {"city": "Kianyaga", "latitude": -0.49546, "longitude": 37.35027, "state": "Kirinyaga County"}, {"city": "Kiambu", "latitude": -1.17139, "longitude": 36.83556, "state": "Kiambu County"}, {"city": "Khwisero", "latitude": 0.17124, "longitude": 34.59466, "state": "Kakamega County"}, {"city": "Kerugoya", "latitude": -0.49887, "longitude": 37.28031, "state": "Kirinyaga County"}, {"city": "Keroka", "latitude": -0.77612, "longitude": 34.94678, "state": "Nyamira county"}, {"city": "Kericho", "latitude": -0.36774, "longitude": 35.28314, "state": "Kericho County"}, {"city": "Kenyenya", "latitude": -0.88754, "longitude": 34.73204, "state": "Kisii County"}, {"city": "Kendu Bay", "latitude": -0.3618, "longitude": 34.65272, "state": "Homa Bay County"}, {"city": "Kebirigo", "latitude": -0.60292, "longitude": 34.96124, "state": "Nyamira county"}, {"city": "Karuri", "latitude": -1.17641, "longitude": 36.7564, "state": "Kiambu County"}, {"city": "Karuri", "latitude": -0.7, "longitude": 37.18333, "state": "Murang'A"}, {"city": "Karatina", "latitude": -0.4841, "longitude": 37.12662, "state": "Nyeri County"}, {"city": "Kapsowar", "latitude": 0.9789, "longitude": 35.55854, "state": "Elegeyo-Marakwet"}, {"city": "Kapsoit", "latitude": -0.31984, "longitude": 35.21845, "state": "Kericho County"}, {"city": "Kapsabet", "latitude": 0.20387, "longitude": 35.105, "state": "Nandi"}, {"city": "Kapkatet", "latitude": -0.62966, "longitude": 35.19441, "state": "Kericho County"}, {"city": "Kapenguria", "latitude": 1.23889, "longitude": 35.11194, "state": "West Pokot County"}, {"city": "Kapcherop", "latitude": 1.04026, "longitude": 35.32121, "state": "Trans Nzoia"}, {"city": "Kangundo", "latitude": -1.30342, "longitude": 37.34813, "state": "Machakos County"}, {"city": "Kangema", "latitude": -0.68553, "longitude": 36.96463, "state": "Murang'A"}, {"city": "Kangare", "latitude": -0.79569, "longitude": 36.8813, "state": "Murang'A"}, {"city": "Kaloleni", "latitude": -3.81413, "longitude": 39.63144, "state": "Kilifi County"}, {"city": "Kakuma", "latitude": 3.71363, "longitude": 34.8572, "state": "Turkana County"}, {"city": "Kakamega", "latitude": 0.28422, "longitude": 34.75229, "state": "Kakamega County"}, {"city": "Kajiado", "latitude": -1.85238, "longitude": 36.77683, "state": "Kajiado County"}, {"city": "Kagumo", "latitude": -0.47335, "longitude": 37.23737, "state": "Kirinyaga County"}, {"city": "Kagio", "latitude": -0.62482, "longitude": 37.25551, "state": "Kirinyaga County"}, {"city": "Kavati", "latitude": -1.23403, "longitude": 37.91571, "state": "Kitui County"}, {"city": "Kabarnet", "latitude": 0.49194, "longitude": 35.74303, "state": "Baringo"}, {"city": "Jebilat", "latitude": -0.69356, "longitude": 35.07132, "state": "Nyamira county"}, {"city": "Iten", "latitude": 0.67028, "longitude": 35.50806, "state": "Elegeyo-Marakwet"}, {"city": "Isiolo", "latitude": 0.35462, "longitude": 37.58218, "state": "Isiolo County"}, {"city": "Isinya", "latitude": -1.6792, "longitude": 36.85056, "state": "Kajiado County"}, {"city": "Isebania", "latitude": -1.22511, "longitude": 34.46385, "state": "Migori County"}, {"city": "Ikinu", "latitude": -1.10804, "longitude": 36.79161, "state": "Kiambu County"}, {"city": "Ijara", "latitude": -1.59517, "longitude": 40.51444, "state": "Garissa County"}, {"city": "Homa Bay", "latitude": -0.52731, "longitude": 34.45714, "state": "Homa Bay County"}, {"city": "Hola", "latitude": -1.48256, "longitude": 40.03341, "state": "Tana River County"}, {"city": "Moi\u2018s Bridge", "latitude": 0.87178, "longitude": 35.12213, "state": "Uasin Gishu County"}, {"city": "Habaswein", "latitude": 1.01659, "longitude": 39.49122, "state": "Wajir County"}, {"city": "Gongoni", "latitude": -3.03668, "longitude": 40.13748, "state": "Kilifi County"}, {"city": "Githunguri", "latitude": -1.05754, "longitude": 36.77625, "state": "Kiambu County"}, {"city": "Githiga A", "latitude": -1.08693, "longitude": 36.73405, "state": "Kiambu County"}, {"city": "Giriftu", "latitude": 2.00039, "longitude": 39.75191, "state": "Wajir County"}, {"city": "Gilgil", "latitude": -0.50397, "longitude": 36.31845, "state": "Nakuru County"}, {"city": "Upper Gilgil", "latitude": -0.21209, "longitude": 36.27248, "state": "Nyandarua County"}, {"city": "Gazi", "latitude": -4.42402, "longitude": 39.50588, "state": "Kwale County"}, {"city": "Gatundu", "latitude": -1.05, "longitude": 36.9, "state": "Kiambu County"}, {"city": "Garsen", "latitude": -2.26645, "longitude": 40.10975, "state": "Tana River County"}, {"city": "Garissa", "latitude": -0.45275, "longitude": 39.64601, "state": "Garissa County"}, {"city": "Garba Tula", "latitude": 0.53392, "longitude": 38.51878, "state": "Isiolo County"}, {"city": "Faza", "latitude": -2.05604, "longitude": 41.11184, "state": "Lamu"}, {"city": "Embu", "latitude": -0.53987, "longitude": 37.45743, "state": "Embu County"}, {"city": "Emali", "latitude": -2.08033, "longitude": 37.47202, "state": "Makueni County"}, {"city": "El Wak", "latitude": 2.80922, "longitude": 40.92885, "state": "Mandera County"}, {"city": "Eldoret", "latitude": 0.52036, "longitude": 35.26993, "state": "Uasin Gishu County"}, {"city": "Eldama Ravine", "latitude": 0.05196, "longitude": 35.72734, "state": "Baringo"}, {"city": "Elburgon", "latitude": -0.30037, "longitude": 35.80935, "state": "Nakuru County"}, {"city": "Dundori", "latitude": -0.2519, "longitude": 36.23641, "state": "Nakuru County"}, {"city": "Dadaab", "latitude": 0.05244, "longitude": 40.30855, "state": "Garissa County"}, {"city": "Chwele", "latitude": 0.76239, "longitude": 34.54852, "state": "Bungoma County"}, {"city": "Chuka", "latitude": -0.33316, "longitude": 37.64587, "state": "Tharaka - Nithi"}, {"city": "Chogoria", "latitude": -0.22954, "longitude": 37.62732, "state": "Tharaka - Nithi"}, {"city": "Cheptai", "latitude": 0.79975, "longitude": 34.4778, "state": "Bungoma County"}, {"city": "Chepareria", "latitude": 1.30583, "longitude": 35.20365, "state": "West Pokot County"}, {"city": "Chavakali", "latitude": 0.11768, "longitude": 34.73339, "state": "Vihiga County"}, {"city": "Butere", "latitude": 0.20694, "longitude": 34.49006, "state": "Kakamega County"}, {"city": "Busia", "latitude": 0.46005, "longitude": 34.11169, "state": "Busia County"}, {"city": "Burnt Forest", "latitude": 0.21684, "longitude": 35.4325, "state": "Uasin Gishu County"}, {"city": "Bura", "latitude": -1.09431, "longitude": 39.94185, "state": "Garissa County"}, {"city": "Port Victoria", "latitude": 0.09809, "longitude": 33.97248, "state": "Busia County"}, {"city": "Bungoma", "latitude": 0.5635, "longitude": 34.56055, "state": "Bungoma County"}, {"city": "Bondo", "latitude": 0.23522, "longitude": 34.28086, "state": "Siaya County"}, {"city": "Bondo", "latitude": -0.0962, "longitude": 34.27322, "state": "Siaya County"}, {"city": "Bomet", "latitude": -0.78129, "longitude": 35.34156, "state": "Bomet County"}, {"city": "Baringo", "latitude": 0.46667, "longitude": 35.96667, "state": null}, {"city": "Baraton", "latitude": 0.25517, "longitude": 35.0827, "state": "Nandi"}, {"city": "Baragoi", "latitude": 1.78398, "longitude": 36.78597, "state": "Samburu County"}, {"city": "Bamba", "latitude": -3.54099, "longitude": 39.52268, "state": "Kilifi County"}, {"city": "Bahati", "latitude": -0.15407, "longitude": 36.14634, "state": "Nakuru County"}, {"city": "Awendo", "latitude": -0.90711, "longitude": 34.52895, "state": "Migori County"}, {"city": "Awasi", "latitude": -0.16769, "longitude": 35.08239, "state": "Kisumu County"}, {"city": "Athi River", "latitude": -1.4563, "longitude": 36.97826, "state": "Machakos County"}, {"city": "Archers Post", "latitude": 0.63967, "longitude": 37.66596, "state": "Samburu County"}, {"city": "Amagoru", "latitude": 0.63157, "longitude": 34.32773, "state": "Busia County"}, {"city": "Ahero", "latitude": -0.17359, "longitude": 34.9189, "state": "Kisumu County"}, {"city": "Siaya", "latitude": 0.0607, "longitude": 34.28806, "state": "Siaya County"}, {"city": "Takaba", "latitude": 3.35528, "longitude": 40.22278, "state": "Mandera County"}, {"city": "Maji Mazuri", "latitude": -0.01966, "longitude": 35.69138, "state": "Baringo"}, {"city": "Timboroa", "latitude": 0.0855, "longitude": 35.53021, "state": null}, {"city": "Mukurwe-ini", "latitude": -0.56092, "longitude": 37.04759, "state": "Nyeri County"}, {"city": "Ol Kalou", "latitude": -0.27088, "longitude": 36.37917, "state": "Nyandarua County"}, {"city": "Kitengela", "latitude": -1.47612, "longitude": 36.96144, "state": "Kajiado County"}, {"city": "Juja", "latitude": -1.10148, "longitude": 37.0132, "state": "Kiambu County"}, {"city": "Lang'ata", "latitude": -1.3666, "longitude": 36.73324, "state": "Nairobi County"}, {"city": "Usenge", "latitude": -0.06731, "longitude": 34.0566, "state": "Siaya County"}, {"city": "Endarasha", "latitude": -0.3055, "longitude": 36.79596, "state": "Nyeri County"}, {"city": "Ndunyu Njeru", "latitude": -0.54592, "longitude": 36.56182, "state": "Nyandarua County"}, {"city": "Bungoma", "latitude": 0.58333, "longitude": 34.58333, "state": "Bungoma County"}, {"city": "Mlolongo", "latitude": -1.39639, "longitude": 36.94028, "state": "Machakos County"}, {"city": "Lafey", "latitude": 3.15106, "longitude": 41.18577, "state": "Mandera County"}, {"city": "Banissa", "latitude": 3.94102, "longitude": 40.34248, "state": "Mandera County"}, {"city": "Loiyangalani", "latitude": 2.74439, "longitude": 36.7146, "state": "Marsabit County"}, {"city": "Mpeketoni", "latitude": -2.38913, "longitude": 40.69812, "state": "Lamu"}, {"city": "Funyula", "latitude": 0.27878, "longitude": 34.11869, "state": "Busia County"}, {"city": "Marimanti", "latitude": -0.15457, "longitude": 37.97625, "state": "Tharaka - Nithi"}, {"city": "Kapsokwony", "latitude": 0.85222, "longitude": 34.70194, "state": "Bungoma County"}, {"city": "Mtwapa", "latitude": -3.93938, "longitude": 39.74877, "state": "Kilifi County"}, {"city": "Awendo", "latitude": -0.5, "longitude": 34.4, "state": "Homa Bay County"}, {"city": "Sori", "latitude": -0.8409, "longitude": 34.15978, "state": "Migori County"}, {"city": "Kawaida", "latitude": -1.14639, "longitude": 36.7598, "state": "Kiambu County"}, {"city": "Kesses", "latitude": 0.30206, "longitude": 35.31441, "state": "Uasin Gishu County"}, {"city": "Kathwana", "latitude": -0.33139, "longitude": 37.86861, "state": "Tharaka - Nithi"}, {"city": "Ol Kalau South Settlement", "latitude": -0.27444, "longitude": 36.33999, "state": "Nyandarua County"}, {"city": "Maai Mahiu", "latitude": -0.98855, "longitude": 36.58537, "state": "Nakuru County"}, {"city": "Kiboko", "latitude": -2.21053, "longitude": 37.72026, "state": "Makueni County"}, {"city": "Maungu", "latitude": -3.55813, "longitude": 38.74908, "state": "Taita Taveta"}, {"city": "Kiambur", "latitude": 0.40778, "longitude": 36.29533, "state": "Laikipia"}, {"city": "Katito", "latitude": -0.26934, "longitude": 34.97197, "state": "Kisumu County"}, {"city": "Kampi Ya Moto", "latitude": -0.12429, "longitude": 35.93957, "state": "Nakuru County"}, {"city": "Mairo Inya", "latitude": 0.02538, "longitude": 36.40865, "state": "Nyandarua County"}, {"city": "Kasuku", "latitude": -0.13103, "longitude": 36.37886, "state": "Nyandarua County"}, {"city": "Engineer", "latitude": -0.60538, "longitude": 36.57629, "state": "Nyandarua County"}, {"city": "Chaka", "latitude": -0.35973, "longitude": 37.00002, "state": "Nyeri County"}, {"city": "Kenol", "latitude": -0.9373, "longitude": 37.12275, "state": "Murang'A"}, {"city": "Samburu", "latitude": -3.7947, "longitude": 39.26368, "state": "Kwale County"}, {"city": "Bura", "latitude": -1.19326, "longitude": 39.84049, "state": "Tana River County"}, {"city": "Ol Donyo", "latitude": -1.084, "longitude": 37.25274, "state": "Machakos County"}, {"city": "Githunguri", "latitude": -1.29996, "longitude": 36.99047, "state": "Machakos County"}, {"city": "Eldas", "latitude": 2.49184, "longitude": 39.56653, "state": "Wajir County"}, {"city": "Bute", "latitude": 3.35875, "longitude": 39.41968, "state": "Wajir County"}, {"city": "Muhuru", "latitude": -0.99862, "longitude": 34.09614, "state": "Migori County"}, {"city": "Nyansiongo", "latitude": -0.7596, "longitude": 35.0148, "state": "Nyamira county"}, {"city": "Rodi", "latitude": -0.62457, "longitude": 34.503, "state": "Homa Bay County"}, {"city": "Ewuaso", "latitude": -1.14856, "longitude": 36.49712, "state": "Kajiado County"}, {"city": "Muchorwi", "latitude": -0.3299, "longitude": 35.68751, "state": "Nakuru County"}, {"city": "Karuga", "latitude": 0.03843, "longitude": 36.29279, "state": "Laikipia"}, {"city": "Suguta", "latitude": 0.82495, "longitude": 36.68928, "state": "Samburu County"}, {"city": "Wiyumiririe", "latitude": -0.07732, "longitude": 36.57959, "state": "Laikipia"}, {"city": "Kinungi", "latitude": -0.80415, "longitude": 36.53133, "state": "Nakuru County"}, {"city": "Isineti", "latitude": -2.73555, "longitude": 37.50673, "state": "Kajiado County"}, {"city": "Illasit", "latitude": -2.95887, "longitude": 37.57112, "state": "Kajiado County"}, {"city": "Il", "latitude": -2.09761, "longitude": 36.79224, "state": "Kajiado County"}, {"city": "Brooke", "latitude": -0.33408, "longitude": 35.32537, "state": "Kericho County"}, {"city": "Kainuk", "latitude": 1.77442, "longitude": 35.50641, "state": "Turkana County"}, {"city": "Mai", "latitude": -0.98169, "longitude": 36.58642, "state": "Nakuru County"}, {"city": "Khayega", "latitude": 0.20888, "longitude": 34.77078, "state": "Kakamega County"}]