[{"city": "Roodepoort", "latitude": -26.1625, "longitude": 27.8725, "state": "Gauteng"}, {"city": "Zoar", "latitude": -33.4956, "longitude": 21.44373, "state": "Western Cape"}, {"city": "Zeerust", "latitude": -25.53695, "longitude": 26.07512, "state": "North West"}, {"city": "Zastron", "latitude": -30.30225, "longitude": 27.08395, "state": "Orange Free State"}, {"city": "Wolmaransstad", "latitude": -27.1974, "longitude": 25.98311, "state": "North West"}, {"city": "White River", "latitude": -25.33177, "longitude": 31.01166, "state": "Mpumalanga"}, {"city": "Emalahleni", "latitude": -25.87133, "longitude": 29.23323, "state": "Mpumalanga"}, {"city": "Winburg", "latitude": -28.51805, "longitude": 27.00933, "state": "Orange Free State"}, {"city": "Willowvale", "latitude": -32.26588, "longitude": 28.50727, "state": "Eastern Cape"}, {"city": "Willowmore", "latitude": -33.29265, "longitude": 23.48954, "state": "Eastern Cape"}, {"city": "Williston", "latitude": -31.34048, "longitude": 20.91544, "state": "Northern Cape"}, {"city": "Wilderness", "latitude": -33.99385, "longitude": 22.57574, "state": "Western Cape"}, {"city": "Whittlesea", "latitude": -32.17588, "longitude": 26.82437, "state": "Eastern Cape"}, {"city": "Westonaria", "latitude": -26.31905, "longitude": 27.6486, "state": "Gauteng"}, {"city": "Wesselsbron", "latitude": -27.8549, "longitude": 26.36583, "state": "Orange Free State"}, {"city": "Wesley", "latitude": -33.31949, "longitude": 27.33962, "state": "Eastern Cape"}, {"city": "Welkom", "latitude": -27.97742, "longitude": 26.73506, "state": "Orange Free State"}, {"city": "Wartburg", "latitude": -29.43184, "longitude": 30.57567, "state": "KwaZulu-Natal"}, {"city": "Warrenton", "latitude": -28.11396, "longitude": 24.84753, "state": "Northern Cape"}, {"city": "Bela Bela", "latitude": -24.88333, "longitude": 28.28333, "state": "Limpopo"}, {"city": "Wakkerstroom", "latitude": -27.35493, "longitude": 30.14384, "state": "Mpumalanga"}, {"city": "Arniston", "latitude": -34.66739, "longitude": 20.23086, "state": "Western Cape"}, {"city": "Vryheid", "latitude": -27.76952, "longitude": 30.79165, "state": "KwaZulu-Natal"}, {"city": "Vryburg", "latitude": -26.95659, "longitude": 24.7284, "state": "North West"}, {"city": "Vredefort", "latitude": -27.00805, "longitude": 27.3646, "state": "Orange Free State"}, {"city": "Vrede", "latitude": -27.42573, "longitude": 29.16585, "state": "Orange Free State"}, {"city": "Volksrust", "latitude": -27.36541, "longitude": 29.88175, "state": "Mpumalanga"}, {"city": "Virginia", "latitude": -28.10391, "longitude": 26.86593, "state": "Orange Free State"}, {"city": "Villiers", "latitude": -27.03026, "longitude": 28.60061, "state": "Orange Free State"}, {"city": "Viljoenskroon", "latitude": -27.20841, "longitude": 26.94855, "state": "Orange Free State"}, {"city": "Victoria West", "latitude": -31.40364, "longitude": 23.11461, "state": "Northern Cape"}, {"city": "Vereeniging", "latitude": -26.67313, "longitude": 27.92615, "state": "Gauteng"}, {"city": "Venterstad", "latitude": -30.77619, "longitude": 25.79923, "state": "Eastern Cape"}, {"city": "Ventersdorp", "latitude": -26.31401, "longitude": 26.82223, "state": "North West"}, {"city": "Ventersburg", "latitude": -28.08561, "longitude": 27.13814, "state": "Orange Free State"}, {"city": "Van Wyksvlei", "latitude": -30.35101, "longitude": 21.82498, "state": "Northern Cape"}, {"city": "Vanderbijlpark", "latitude": -26.71171, "longitude": 27.83795, "state": "Gauteng"}, {"city": "Utrecht", "latitude": -27.65862, "longitude": 30.32166, "state": "KwaZulu-Natal"}, {"city": "Upington", "latitude": -28.44776, "longitude": 21.25612, "state": "Northern Cape"}, {"city": "Mthatha", "latitude": -31.58893, "longitude": 28.78443, "state": "Eastern Cape"}, {"city": "eMkhomazi", "latitude": -30.20672, "longitude": 30.79641, "state": "KwaZulu-Natal"}, {"city": "Ulundi", "latitude": -28.33523, "longitude": 31.41617, "state": "KwaZulu-Natal"}, {"city": "Kariega", "latitude": -33.75562, "longitude": 25.40074, "state": "Eastern Cape"}, {"city": "Ugie", "latitude": -31.19809, "longitude": 28.23351, "state": "Eastern Cape"}, {"city": "Tzaneen", "latitude": -23.83322, "longitude": 30.16351, "state": "Limpopo"}, {"city": "Tyusha", "latitude": -32.76494, "longitude": 27.318, "state": "Eastern Cape"}, {"city": "Tugela Ferry", "latitude": -28.74649, "longitude": 30.45126, "state": "KwaZulu-Natal"}, {"city": "Tsomo", "latitude": -32.03679, "longitude": 27.81994, "state": "Eastern Cape"}, {"city": "Tsolo", "latitude": -31.30781, "longitude": 28.75541, "state": "Eastern Cape"}, {"city": "Trompsburg", "latitude": -30.03363, "longitude": 25.78041, "state": "Orange Free State"}, {"city": "Thulamahashi", "latitude": -24.72459, "longitude": 31.19939, "state": "Limpopo"}, {"city": "Thohoyandou", "latitude": -22.94564, "longitude": 30.48497, "state": "Limpopo"}, {"city": "Theunissen", "latitude": -28.41098, "longitude": 26.70107, "state": "Orange Free State"}, {"city": "Thabazimbi", "latitude": -24.59165, "longitude": 27.41155, "state": "Limpopo"}, {"city": "Thaba Nchu", "latitude": -29.20932, "longitude": 26.83898, "state": "Orange Free State"}, {"city": "Thembisa", "latitude": -25.99636, "longitude": 28.2268, "state": "Gauteng"}, {"city": "Teko Springs", "latitude": -32.37664, "longitude": 28.30316, "state": "Eastern Cape"}, {"city": "Taung", "latitude": -27.53113, "longitude": 24.78659, "state": "North West"}, {"city": "Tarkastad", "latitude": -32.00893, "longitude": 26.25935, "state": "Eastern Cape"}, {"city": "Ntabankulu", "latitude": -30.95901, "longitude": 29.30297, "state": "Eastern Cape"}, {"city": "Swellendam", "latitude": -34.02262, "longitude": 20.44171, "state": "Western Cape"}, {"city": "Sundumbili", "latitude": -29.13371, "longitude": 31.39752, "state": "KwaZulu-Natal"}, {"city": "Stutterheim", "latitude": -32.57076, "longitude": 27.42396, "state": "Eastern Cape"}, {"city": "Stormsrivier", "latitude": -33.97041, "longitude": 23.88247, "state": "Eastern Cape"}, {"city": "Stilfontein", "latitude": -26.84493, "longitude": 26.76829, "state": "North West"}, {"city": "Still Bay", "latitude": -34.3693, "longitude": 21.40748, "state": "Western Cape"}, {"city": "Steytlerville", "latitude": -33.33274, "longitude": 24.34539, "state": "Eastern Cape"}, {"city": "Steynsburg", "latitude": -31.29565, "longitude": 25.82338, "state": "Eastern Cape"}, {"city": "Sterkstroom", "latitude": -31.55714, "longitude": 26.55417, "state": "Eastern Cape"}, {"city": "KwaDukuza", "latitude": -29.32816, "longitude": 31.28954, "state": "KwaZulu-Natal"}, {"city": "Standerton", "latitude": -26.93366, "longitude": 29.24152, "state": "Mpumalanga"}, {"city": "Springs", "latitude": -26.25, "longitude": 28.4, "state": "Gauteng"}, {"city": "Soweto", "latitude": -26.26781, "longitude": 27.85849, "state": "Gauteng"}, {"city": "Somerset East", "latitude": -32.72173, "longitude": 25.58804, "state": "Eastern Cape"}, {"city": "Siyabuswa", "latitude": -25.11319, "longitude": 29.04454, "state": "Mpumalanga"}, {"city": "Sheepmoor", "latitude": -26.71738, "longitude": 30.29916, "state": "Mpumalanga"}, {"city": "Seymour", "latitude": -32.55571, "longitude": 26.76534, "state": "Eastern Cape"}, {"city": "Senekal", "latitude": -28.31971, "longitude": 27.62082, "state": "Orange Free State"}, {"city": "Secunda", "latitude": -26.55, "longitude": 29.16667, "state": "Mpumalanga"}, {"city": "Scottburgh", "latitude": -30.28666, "longitude": 30.75316, "state": "KwaZulu-Natal"}, {"city": "Schweizer-Reneke", "latitude": -27.18871, "longitude": 25.32931, "state": "North West"}, {"city": "Sasolburg", "latitude": -26.81358, "longitude": 27.81695, "state": "Orange Free State"}, {"city": "Sanddrif", "latitude": -33.98298, "longitude": 23.99581, "state": "Eastern Cape"}, {"city": "Saint Lucia Estuary", "latitude": -28.37622, "longitude": 32.41181, "state": "KwaZulu-Natal"}, {"city": "Rustenburg", "latitude": -25.66756, "longitude": 27.24208, "state": "North West"}, {"city": "Riversdale", "latitude": -34.09345, "longitude": 21.25725, "state": "Western Cape"}, {"city": "Ritchie", "latitude": -29.03801, "longitude": 24.60278, "state": "Northern Cape"}, {"city": "Rietbron", "latitude": -32.90194, "longitude": 23.15084, "state": "Eastern Cape"}, {"city": "Richmond", "latitude": -29.87196, "longitude": 30.27235, "state": "KwaZulu-Natal"}, {"city": "Richards Bay", "latitude": -28.78301, "longitude": 32.03768, "state": "KwaZulu-Natal"}, {"city": "Reitz", "latitude": -27.80138, "longitude": 28.42726, "state": "Orange Free State"}, {"city": "Randfontein", "latitude": -26.1844, "longitude": 27.70203, "state": "Gauteng"}, {"city": "Randburg", "latitude": -26.0941, "longitude": 28.00123, "state": "Gauteng"}, {"city": "Qumbu", "latitude": -31.16304, "longitude": 28.87056, "state": "Eastern Cape"}, {"city": "Queenstown", "latitude": -31.89756, "longitude": 26.87533, "state": "Eastern Cape"}, {"city": "Queensdale", "latitude": -31.87101, "longitude": 26.97862, "state": "Eastern Cape"}, {"city": "Prince Albert", "latitude": -33.22476, "longitude": 22.02673, "state": "Western Cape"}, {"city": "Prieska", "latitude": -29.66803, "longitude": 22.74251, "state": "Northern Cape"}, {"city": "Pretoria", "latitude": -25.74486, "longitude": 28.18783, "state": "Gauteng"}, {"city": "Mokopane", "latitude": -24.19436, "longitude": 29.00974, "state": "Limpopo"}, {"city": "Potchefstroom", "latitude": -26.71667, "longitude": 27.1, "state": "North West"}, {"city": "Postmasburg", "latitude": -28.33392, "longitude": 23.06541, "state": "Northern Cape"}, {"city": "Port Shepstone", "latitude": -30.74137, "longitude": 30.45499, "state": "KwaZulu-Natal"}, {"city": "Port Saint John\u2019s", "latitude": -31.62291, "longitude": 29.54477, "state": "Eastern Cape"}, {"city": "Port Elizabeth", "latitude": -33.96109, "longitude": 25.61494, "state": "Eastern Cape"}, {"city": "Port Alfred", "latitude": -33.58601, "longitude": 26.88329, "state": "Eastern Cape"}, {"city": "Pongola", "latitude": -27.37808, "longitude": 31.61904, "state": "KwaZulu-Natal"}, {"city": "Plettenberg Bay", "latitude": -34.05274, "longitude": 23.3716, "state": "Western Cape"}, {"city": "Pinetown", "latitude": -29.82068, "longitude": 30.88674, "state": "KwaZulu-Natal"}, {"city": "Piet Retief", "latitude": -27.00706, "longitude": 30.81323, "state": "Mpumalanga"}, {"city": "Polokwane", "latitude": -23.90449, "longitude": 29.46885, "state": "Limpopo"}, {"city": "Pietermaritzburg", "latitude": -29.61679, "longitude": 30.39278, "state": "KwaZulu-Natal"}, {"city": "Phuthaditjhaba", "latitude": -28.52423, "longitude": 28.81582, "state": "Orange Free State"}, {"city": "Philipstown", "latitude": -30.43733, "longitude": 24.47261, "state": "Northern Cape"}, {"city": "Phalaborwa", "latitude": -23.94299, "longitude": 31.14107, "state": "Limpopo"}, {"city": "Petrusville", "latitude": -30.08113, "longitude": 24.6593, "state": "Northern Cape"}, {"city": "Perdekop", "latitude": -27.16575, "longitude": 29.62364, "state": "Mpumalanga"}, {"city": "Peddie", "latitude": -33.20059, "longitude": 27.11385, "state": "Eastern Cape"}, {"city": "Pearston", "latitude": -32.5822, "longitude": 25.13832, "state": "Eastern Cape"}, {"city": "Paulpietersburg", "latitude": -27.42426, "longitude": 30.81689, "state": "KwaZulu-Natal"}, {"city": "Paterson", "latitude": -33.44064, "longitude": 25.9741, "state": "Eastern Cape"}, {"city": "Patensie", "latitude": -33.76007, "longitude": 24.81383, "state": "Eastern Cape"}, {"city": "Parys", "latitude": -26.9033, "longitude": 27.45727, "state": "Orange Free State"}, {"city": "Pampierstad", "latitude": -27.78324, "longitude": 24.68768, "state": "Northern Cape"}, {"city": "Oudtshoorn", "latitude": -33.60047, "longitude": 22.19955, "state": "Western Cape"}, {"city": "Orkney", "latitude": -26.98023, "longitude": 26.67272, "state": "North West"}, {"city": "Orania", "latitude": -29.81381, "longitude": 24.41205, "state": "Northern Cape"}, {"city": "Orange Farm", "latitude": -26.48333, "longitude": 27.86667, "state": "Gauteng"}, {"city": "Modimolle", "latitude": -24.7, "longitude": 28.4, "state": "Limpopo"}, {"city": "Nqamakwe", "latitude": -32.20333, "longitude": 27.94279, "state": "Eastern Cape"}, {"city": "Noupoort", "latitude": -31.18736, "longitude": 24.94991, "state": "Northern Cape"}, {"city": "Nongoma", "latitude": -27.90968, "longitude": 31.64817, "state": "KwaZulu-Natal"}, {"city": "Nkowakowa", "latitude": -23.88782, "longitude": 30.28708, "state": "Limpopo"}, {"city": "Nkandla", "latitude": -28.6207, "longitude": 31.09067, "state": "KwaZulu-Natal"}, {"city": "Nigel", "latitude": -26.43138, "longitude": 28.47713, "state": "Gauteng"}, {"city": "Nieu-Bethesda", "latitude": -31.867, "longitude": 24.55499, "state": "Eastern Cape"}, {"city": "Ngqeleni", "latitude": -31.67315, "longitude": 29.03327, "state": "Eastern Cape"}, {"city": "Newcastle", "latitude": -27.75796, "longitude": 29.9318, "state": "KwaZulu-Natal"}, {"city": "Mbombela", "latitude": -25.47512, "longitude": 30.96935, "state": "Mpumalanga"}, {"city": "Ndwedwe", "latitude": -29.51686, "longitude": 30.92687, "state": "KwaZulu-Natal"}, {"city": "Mutale", "latitude": -22.46972, "longitude": 30.87533, "state": "Limpopo"}, {"city": "Muldersdriseloop", "latitude": -26.03673, "longitude": 27.83798, "state": "Gauteng"}, {"city": "Mtubatuba", "latitude": -28.41789, "longitude": 32.18483, "state": "KwaZulu-Natal"}, {"city": "Mqanduli", "latitude": -31.81919, "longitude": 28.76175, "state": "Eastern Cape"}, {"city": "Mpumalanga", "latitude": -29.81292, "longitude": 30.63646, "state": "KwaZulu-Natal"}, {"city": "Mpophomeni", "latitude": -29.56822, "longitude": 30.18618, "state": "KwaZulu-Natal"}, {"city": "Mount Frere", "latitude": -30.90173, "longitude": 28.99238, "state": "Eastern Cape"}, {"city": "Tlokoeng", "latitude": -30.69268, "longitude": 28.5061, "state": "Eastern Cape"}, {"city": "Mount Ayliff", "latitude": -30.80821, "longitude": 29.36644, "state": "Eastern Cape"}, {"city": "Mossel Bay", "latitude": -34.18307, "longitude": 22.14605, "state": "Western Cape"}, {"city": "Mooirivier", "latitude": -29.20824, "longitude": 29.9946, "state": "KwaZulu-Natal"}, {"city": "Montagu", "latitude": -33.78664, "longitude": 20.12106, "state": "Western Cape"}, {"city": "Mondlo", "latitude": -27.98299, "longitude": 30.71769, "state": "KwaZulu-Natal"}, {"city": "Molteno", "latitude": -31.39675, "longitude": 26.36246, "state": "Eastern Cape"}, {"city": "Mogwase", "latitude": -25.27748, "longitude": 27.21605, "state": "North West"}, {"city": "Modderfontein", "latitude": -26.08909, "longitude": 28.16534, "state": "Gauteng"}, {"city": "Mmabatho", "latitude": -25.85, "longitude": 25.63333, "state": "North West"}, {"city": "Mkuze", "latitude": -27.61641, "longitude": 32.03861, "state": "KwaZulu-Natal"}, {"city": "Middledrift", "latitude": -32.81851, "longitude": 26.98812, "state": "Eastern Cape"}, {"city": "Middelburg", "latitude": -31.49285, "longitude": 25.00633, "state": "Eastern Cape"}, {"city": "Middelburg", "latitude": -25.77507, "longitude": 29.46482, "state": "Mpumalanga"}, {"city": "Meyerton", "latitude": -26.55987, "longitude": 28.0195, "state": "Gauteng"}, {"city": "Melmoth", "latitude": -28.58664, "longitude": 31.39783, "state": "KwaZulu-Natal"}, {"city": "Mdantsane", "latitude": -32.93324, "longitude": 27.77656, "state": "Eastern Cape"}, {"city": "Matsulu", "latitude": -25.52297, "longitude": 31.35693, "state": "Mpumalanga"}, {"city": "Matatiele", "latitude": -30.34357, "longitude": 28.81161, "state": "KwaZulu-Natal"}, {"city": "Marquard", "latitude": -28.66449, "longitude": 27.43048, "state": "Orange Free State"}, {"city": "Margate", "latitude": -30.8636, "longitude": 30.37052, "state": "KwaZulu-Natal"}, {"city": "Marble Hall", "latitude": -24.96627, "longitude": 29.29068, "state": "Mpumalanga"}, {"city": "Mankoeng", "latitude": -23.9, "longitude": 29.81667, "state": "Limpopo"}, {"city": "Makapanstad", "latitude": -25.24373, "longitude": 28.1262, "state": "North West"}, {"city": "Maile", "latitude": -25.44152, "longitude": 27.28165, "state": "North West"}, {"city": "Mahikeng", "latitude": -25.86522, "longitude": 25.64421, "state": "North West"}, {"city": "Maclear", "latitude": -31.07104, "longitude": 28.35183, "state": "Eastern Cape"}, {"city": "Mabopane", "latitude": -25.49768, "longitude": 28.10065, "state": "Gauteng"}, {"city": "Lydenburg", "latitude": -25.09598, "longitude": 30.44393, "state": "Mpumalanga"}, {"city": "Lusikisiki", "latitude": -31.36199, "longitude": 29.57328, "state": "Eastern Cape"}, {"city": "Louterwater", "latitude": -33.80009, "longitude": 23.66382, "state": "Eastern Cape"}, {"city": "Louis Trichardt", "latitude": -23.04385, "longitude": 29.90319, "state": "Limpopo"}, {"city": "Lothair", "latitude": -26.38939, "longitude": 30.43526, "state": "Mpumalanga"}, {"city": "eMbangweni", "latitude": -26.1401, "longitude": 30.78316, "state": "Mpumalanga"}, {"city": "Lindley", "latitude": -27.8791, "longitude": 27.91348, "state": "Orange Free State"}, {"city": "Lichtenburg", "latitude": -26.152, "longitude": 26.15968, "state": "North West"}, {"city": "Libode", "latitude": -31.54331, "longitude": 29.0164, "state": "Eastern Cape"}, {"city": "Thuli", "latitude": -26.37087, "longitude": 28.91521, "state": "Mpumalanga"}, {"city": "Laingsburg", "latitude": -33.19495, "longitude": 20.85872, "state": "Western Cape"}, {"city": "Ladysmith", "latitude": -28.55874, "longitude": 29.77896, "state": "KwaZulu-Natal"}, {"city": "Lady Grey", "latitude": -30.71084, "longitude": 27.21613, "state": "Eastern Cape"}, {"city": "Lady Frere", "latitude": -31.70312, "longitude": 27.2329, "state": "Eastern Cape"}, {"city": "Ladybrand", "latitude": -29.19448, "longitude": 27.45739, "state": "Orange Free State"}, {"city": "Ladismith", "latitude": -33.49331, "longitude": 21.26755, "state": "Western Cape"}, {"city": "KwaMbonambi", "latitude": -28.59827, "longitude": 32.0894, "state": "KwaZulu-Natal"}, {"city": "Kutloanong", "latitude": -27.83333, "longitude": 26.75, "state": "Orange Free State"}, {"city": "Kuruman", "latitude": -27.46353, "longitude": 23.43552, "state": "Northern Cape"}, {"city": "Kruisfontein", "latitude": -34.00333, "longitude": 24.73142, "state": "Eastern Cape"}, {"city": "Krugersdorp", "latitude": -26.08577, "longitude": 27.77515, "state": "Gauteng"}, {"city": "Kroonstad", "latitude": -27.65036, "longitude": 27.23488, "state": "Orange Free State"}, {"city": "Kriel", "latitude": -26.27391, "longitude": 29.2253, "state": "Mpumalanga"}, {"city": "Krakeelrivier", "latitude": -33.81706, "longitude": 23.73596, "state": "Eastern Cape"}, {"city": "Koster", "latitude": -25.86301, "longitude": 26.89756, "state": "North West"}, {"city": "Koppies", "latitude": -27.24179, "longitude": 27.57422, "state": "Orange Free State"}, {"city": "Komga", "latitude": -32.57704, "longitude": 27.892, "state": "Eastern Cape"}, {"city": "Komatipoort", "latitude": -25.43321, "longitude": 31.95478, "state": "Mpumalanga"}, {"city": "Kokstad", "latitude": -30.54723, "longitude": 29.42412, "state": "KwaZulu-Natal"}, {"city": "Koffiefontein", "latitude": -29.40661, "longitude": 25.00309, "state": "Orange Free State"}, {"city": "Knysna", "latitude": -34.03627, "longitude": 23.04713, "state": "Western Cape"}, {"city": "Klipplaat", "latitude": -33.01907, "longitude": 24.34077, "state": "Eastern Cape"}, {"city": "Klerksdorp", "latitude": -26.85213, "longitude": 26.66672, "state": "North West"}, {"city": "Kirkwood", "latitude": -33.39829, "longitude": 25.44279, "state": "Eastern Cape"}, {"city": "Kinross", "latitude": -26.41663, "longitude": 29.08668, "state": "Mpumalanga"}, {"city": "Qonce", "latitude": -32.88076, "longitude": 27.39377, "state": "Eastern Cape"}, {"city": "Kimberley", "latitude": -28.73226, "longitude": 24.76232, "state": "Northern Cape"}, {"city": "Kenton", "latitude": -33.66667, "longitude": 26.65, "state": "Eastern Cape"}, {"city": "Centane", "latitude": -32.50598, "longitude": 28.31578, "state": "Eastern Cape"}, {"city": "Kenhardt", "latitude": -29.34574, "longitude": 21.15786, "state": "Northern Cape"}, {"city": "Keiskammahoek", "latitude": -32.68248, "longitude": 27.15027, "state": "Eastern Cape"}, {"city": "Kei Road", "latitude": -32.70548, "longitude": 27.54697, "state": "Eastern Cape"}, {"city": "Kei Mouth", "latitude": -32.68197, "longitude": 28.37632, "state": "Eastern Cape"}, {"city": "Kathu", "latitude": -27.69569, "longitude": 23.04929, "state": "Northern Cape"}, {"city": "Kareedouw", "latitude": -33.9528, "longitude": 24.29053, "state": "Eastern Cape"}, {"city": "Kakamas", "latitude": -28.77341, "longitude": 20.6147, "state": "Northern Cape"}, {"city": "Jozini", "latitude": -27.4296, "longitude": 32.06658, "state": "KwaZulu-Natal"}, {"city": "Joubertina", "latitude": -33.82547, "longitude": 23.85618, "state": "Eastern Cape"}, {"city": "Johannesburg", "latitude": -26.20227, "longitude": 28.04363, "state": "Gauteng"}, {"city": "Jeffreys Bay", "latitude": -34.04526, "longitude": 24.92146, "state": "Eastern Cape"}, {"city": "Jansenville", "latitude": -32.94306, "longitude": 24.67218, "state": "Eastern Cape"}, {"city": "Jan Kempdorp", "latitude": -27.92246, "longitude": 24.83051, "state": "North West"}, {"city": "Jane Furse", "latitude": -24.76021, "longitude": 29.86993, "state": "Limpopo"}, {"city": "James Calata", "latitude": -31.12139, "longitude": 26.80667, "state": "Eastern Cape"}, {"city": "Izingolweni", "latitude": -30.78409, "longitude": 30.12294, "state": "KwaZulu-Natal"}, {"city": "Ixopo", "latitude": -30.15, "longitude": 30.08333, "state": "KwaZulu-Natal"}, {"city": "Indwe", "latitude": -31.46667, "longitude": 27.33333, "state": "Eastern Cape"}, {"city": "Impendle", "latitude": -29.60049, "longitude": 29.86561, "state": "KwaZulu-Natal"}, {"city": "Ilinge", "latitude": -31.97676, "longitude": 27.04267, "state": "Eastern Cape"}, {"city": "Idutywa", "latitude": -32.09618, "longitude": 28.30489, "state": "Eastern Cape"}, {"city": "Humansdorp", "latitude": -34.02903, "longitude": 24.76912, "state": "Eastern Cape"}, {"city": "Howick", "latitude": -29.47795, "longitude": 30.23057, "state": "KwaZulu-Natal"}, {"city": "Hopetown", "latitude": -29.62464, "longitude": 24.08518, "state": "Northern Cape"}, {"city": "Hoopstad", "latitude": -27.83273, "longitude": 25.90833, "state": "Orange Free State"}, {"city": "Hogsback", "latitude": -32.59527, "longitude": 26.94019, "state": "Eastern Cape"}, {"city": "Hofmeyr", "latitude": -31.65349, "longitude": 25.80366, "state": "Eastern Cape"}, {"city": "Hoedspruit", "latitude": -24.35122, "longitude": 30.95332, "state": "Limpopo"}, {"city": "Hluhluwe", "latitude": -28.01895, "longitude": 32.26762, "state": "KwaZulu-Natal"}, {"city": "Hlabisa", "latitude": -28.14519, "longitude": 31.87719, "state": "KwaZulu-Natal"}, {"city": "Himeville", "latitude": -29.74675, "longitude": 29.51361, "state": "KwaZulu-Natal"}, {"city": "Hennenman", "latitude": -27.97654, "longitude": 27.02423, "state": "Orange Free State"}, {"city": "Hendrina", "latitude": -26.15881, "longitude": 29.71528, "state": "Mpumalanga"}, {"city": "Heilbron", "latitude": -27.28115, "longitude": 27.9709, "state": "Orange Free State"}, {"city": "Heidelberg", "latitude": -26.50476, "longitude": 28.35921, "state": "Gauteng"}, {"city": "Hazyview", "latitude": -25.04398, "longitude": 31.12767, "state": "Mpumalanga"}, {"city": "Hartswater", "latitude": -27.74964, "longitude": 24.79712, "state": "Northern Cape"}, {"city": "Harrismith", "latitude": -28.27276, "longitude": 29.12946, "state": "Orange Free State"}, {"city": "Harding", "latitude": -30.57643, "longitude": 29.88401, "state": "KwaZulu-Natal"}, {"city": "Hanover", "latitude": -32.81899, "longitude": 27.4806, "state": "Eastern Cape"}, {"city": "Hankey", "latitude": -33.83308, "longitude": 24.88359, "state": "Eastern Cape"}, {"city": "Hamburg", "latitude": -33.29042, "longitude": 27.4747, "state": "Eastern Cape"}, {"city": "Groblershoop", "latitude": -28.89531, "longitude": 21.98378, "state": "Northern Cape"}, {"city": "Groblersdal", "latitude": -25.16843, "longitude": 29.39412, "state": "Mpumalanga"}, {"city": "Greytown", "latitude": -29.06415, "longitude": 30.59279, "state": "KwaZulu-Natal"}, {"city": "Grahamstown", "latitude": -33.30422, "longitude": 26.53276, "state": "Eastern Cape"}, {"city": "Graaff Reinet", "latitude": -32.25215, "longitude": 24.53075, "state": "Eastern Cape"}, {"city": "Gonubie", "latitude": -32.94433, "longitude": 28.01496, "state": "Eastern Cape"}, {"city": "Glencoe", "latitude": -28.17827, "longitude": 30.14702, "state": "KwaZulu-Natal"}, {"city": "Giyani", "latitude": -23.30246, "longitude": 30.71868, "state": "Limpopo"}, {"city": "Germiston", "latitude": -26.23481, "longitude": 28.17665, "state": "Gauteng"}, {"city": "George", "latitude": -33.963, "longitude": 22.46173, "state": "Western Cape"}, {"city": "Ga-Rankuwa", "latitude": -25.61692, "longitude": 27.99471, "state": "North West"}, {"city": "Ganyesa", "latitude": -26.59613, "longitude": 24.17612, "state": "North West"}, {"city": "Ga-Kgapane", "latitude": -23.64378, "longitude": 30.22324, "state": "Limpopo"}, {"city": "Fraserburg", "latitude": -31.91566, "longitude": 21.51335, "state": "Northern Cape"}, {"city": "Frankfort", "latitude": -32.72985, "longitude": 27.46644, "state": "Eastern Cape"}, {"city": "Frankfort", "latitude": -27.27888, "longitude": 28.49696, "state": "Orange Free State"}, {"city": "Fort Beaufort", "latitude": -32.77477, "longitude": 26.63376, "state": "Eastern Cape"}, {"city": "Fochville", "latitude": -26.48862, "longitude": 27.49387, "state": "North West"}, {"city": "Flagstaff", "latitude": -31.08042, "longitude": 29.49522, "state": "Eastern Cape"}, {"city": "Ficksburg", "latitude": -28.872, "longitude": 27.87506, "state": "Orange Free State"}, {"city": "Evander", "latitude": -26.47056, "longitude": 29.10973, "state": "Mpumalanga"}, {"city": "Estcourt", "latitude": -29.01269, "longitude": 29.86619, "state": "KwaZulu-Natal"}, {"city": "eSikhaleni", "latitude": -28.87097, "longitude": 31.89961, "state": "KwaZulu-Natal"}, {"city": "Eshowe", "latitude": -28.88649, "longitude": 31.4699, "state": "KwaZulu-Natal"}, {"city": "Ermelo", "latitude": -26.53333, "longitude": 29.98333, "state": "Mpumalanga"}, {"city": "Enon", "latitude": -33.39608, "longitude": 25.54653, "state": "Eastern Cape"}, {"city": "Engcobo", "latitude": -31.67611, "longitude": 27.99932, "state": "Eastern Cape"}, {"city": "Empangeni", "latitude": -28.76197, "longitude": 31.89329, "state": "KwaZulu-Natal"}, {"city": "eMbalenhle", "latitude": -26.53333, "longitude": 29.06667, "state": "Mpumalanga"}, {"city": "Elliotdale", "latitude": -31.96292, "longitude": 28.68401, "state": "Eastern Cape"}, {"city": "Khowa", "latitude": -31.33306, "longitude": 27.85, "state": "Eastern Cape"}, {"city": "Ekuvukeni", "latitude": -28.46752, "longitude": 30.15513, "state": "KwaZulu-Natal"}, {"city": "Edenvale", "latitude": -26.14095, "longitude": 28.15247, "state": "Gauteng"}, {"city": "East London", "latitude": -33.01529, "longitude": 27.91162, "state": "Eastern Cape"}, {"city": "Durban", "latitude": -29.8579, "longitude": 31.0292, "state": "KwaZulu-Natal"}, {"city": "Dundee", "latitude": -28.16678, "longitude": 30.23371, "state": "KwaZulu-Natal"}, {"city": "Duiwelskloof", "latitude": -23.69339, "longitude": 30.14002, "state": "Limpopo"}, {"city": "Driefontein", "latitude": -26.96501, "longitude": 30.43571, "state": "Mpumalanga"}, {"city": "Douglas", "latitude": -29.05531, "longitude": 23.7743, "state": "Northern Cape"}, {"city": "Dordrecht", "latitude": -31.372, "longitude": 27.04878, "state": "Eastern Cape"}, {"city": "Dirkiesdorp", "latitude": -27.17445, "longitude": 30.40476, "state": "Mpumalanga"}, {"city": "Dimbaza", "latitude": -32.83483, "longitude": 27.21742, "state": "Eastern Cape"}, {"city": "Dewetsdorp", "latitude": -29.58274, "longitude": 26.66511, "state": "Orange Free State"}, {"city": "De Rust", "latitude": -33.49035, "longitude": 22.53523, "state": "Western Cape"}, {"city": "Deneysville", "latitude": -26.8908, "longitude": 28.09707, "state": "Orange Free State"}, {"city": "Dendron", "latitude": -23.36669, "longitude": 29.32371, "state": "Limpopo"}, {"city": "Delmas", "latitude": -26.1466, "longitude": 28.68322, "state": "Mpumalanga"}, {"city": "Delareyville", "latitude": -26.68638, "longitude": 25.45907, "state": "North West"}, {"city": "De Aar", "latitude": -30.64966, "longitude": 24.0123, "state": "Northern Cape"}, {"city": "Davel", "latitude": -26.44477, "longitude": 29.66537, "state": "Mpumalanga"}, {"city": "Dannhauser", "latitude": -28.0151, "longitude": 30.05658, "state": "KwaZulu-Natal"}, {"city": "Dani\u00eblskuil", "latitude": -28.18873, "longitude": 23.53951, "state": "Northern Cape"}, {"city": "Cullinan", "latitude": -25.67088, "longitude": 28.52364, "state": "Gauteng"}, {"city": "Creighton", "latitude": -30.0272, "longitude": 29.83955, "state": "KwaZulu-Natal"}, {"city": "Cradock", "latitude": -32.16422, "longitude": 25.61918, "state": "Eastern Cape"}, {"city": "Cookhouse", "latitude": -32.74322, "longitude": 25.80037, "state": "Eastern Cape"}, {"city": "Colesberg", "latitude": -30.71999, "longitude": 25.09718, "state": "Northern Cape"}, {"city": "Coldstream", "latitude": -33.96462, "longitude": 23.71516, "state": "Eastern Cape"}, {"city": "Cofimvaba", "latitude": -32.00115, "longitude": 27.58045, "state": "Eastern Cape"}, {"city": "Hlohlolwane", "latitude": -28.91588, "longitude": 27.56957, "state": "Orange Free State"}, {"city": "Clarkson", "latitude": -34.01521, "longitude": 24.34291, "state": "Eastern Cape"}, {"city": "Cintsa Mouth West", "latitude": -32.84522, "longitude": 28.11598, "state": "Eastern Cape"}, {"city": "Christiana", "latitude": -27.91402, "longitude": 25.16111, "state": "North West"}, {"city": "Chrissiesmeer", "latitude": -26.27953, "longitude": 30.2137, "state": "Mpumalanga"}, {"city": "Cedarville", "latitude": -30.38419, "longitude": 29.04164, "state": "KwaZulu-Natal"}, {"city": "Cathcart", "latitude": -32.2985, "longitude": 27.14362, "state": "Eastern Cape"}, {"city": "Carolina", "latitude": -26.06927, "longitude": 30.11489, "state": "Mpumalanga"}, {"city": "Carnarvon", "latitude": -30.96827, "longitude": 22.13303, "state": "Northern Cape"}, {"city": "Carletonville", "latitude": -26.36094, "longitude": 27.39767, "state": "Gauteng"}, {"city": "Camperdown", "latitude": -29.72868, "longitude": 30.54256, "state": "KwaZulu-Natal"}, {"city": "Calitzdorp", "latitude": -33.52755, "longitude": 21.6762, "state": "Western Cape"}, {"city": "Cala", "latitude": -31.52356, "longitude": 27.6952, "state": "Eastern Cape"}, {"city": "Butterworth", "latitude": -32.33083, "longitude": 28.14981, "state": "Eastern Cape"}, {"city": "Burgersfort", "latitude": -24.67554, "longitude": 30.32877, "state": "Mpumalanga"}, {"city": "Burgersdorp", "latitude": -30.99766, "longitude": 26.32862, "state": "Eastern Cape"}, {"city": "Bultfontein", "latitude": -28.28756, "longitude": 26.14996, "state": "Orange Free State"}, {"city": "Bronkhorstspruit", "latitude": -25.81015, "longitude": 28.74248, "state": "Gauteng"}, {"city": "Brits", "latitude": -25.63473, "longitude": 27.78022, "state": "North West"}, {"city": "Breyten", "latitude": -26.30176, "longitude": 29.98696, "state": "Mpumalanga"}, {"city": "Bredasdorp", "latitude": -34.53215, "longitude": 20.04031, "state": "Western Cape"}, {"city": "Brandvlei", "latitude": -30.46532, "longitude": 20.48659, "state": "Northern Cape"}, {"city": "Winnie Mandela", "latitude": -28.70025, "longitude": 26.4581, "state": "Orange Free State"}, {"city": "Brakpan", "latitude": -26.23656, "longitude": 28.36938, "state": "Gauteng"}, {"city": "Botshabelo", "latitude": -29.26737, "longitude": 26.72595, "state": "Orange Free State"}, {"city": "Bothaville", "latitude": -27.3887, "longitude": 26.61701, "state": "Orange Free State"}, {"city": "Boshof", "latitude": -28.53914, "longitude": 25.23965, "state": "Orange Free State"}, {"city": "Bontrug", "latitude": -33.39786, "longitude": 25.48283, "state": "Eastern Cape"}, {"city": "Boksburg", "latitude": -26.21197, "longitude": 28.25958, "state": "Gauteng"}, {"city": "Bochum", "latitude": -23.28609, "longitude": 29.13964, "state": "Limpopo"}, {"city": "Bloemhof", "latitude": -27.64685, "longitude": 25.60697, "state": "North West"}, {"city": "Bloemfontein", "latitude": -29.12107, "longitude": 26.214, "state": "Orange Free State"}, {"city": "Bizana", "latitude": -30.85907, "longitude": 29.85384, "state": "Eastern Cape"}, {"city": "Bhisho", "latitude": -32.84721, "longitude": 27.44218, "state": "Eastern Cape"}, {"city": "Bethlehem", "latitude": -28.23078, "longitude": 28.30707, "state": "Orange Free State"}, {"city": "Bethal", "latitude": -26.45794, "longitude": 29.46553, "state": "Mpumalanga"}, {"city": "Ntabozuko", "latitude": -32.88304, "longitude": 27.58186, "state": "Eastern Cape"}, {"city": "Bergville", "latitude": -28.73122, "longitude": 29.35187, "state": "KwaZulu-Natal"}, {"city": "Berea", "latitude": -29.85185, "longitude": 30.99337, "state": "KwaZulu-Natal"}, {"city": "Benoni", "latitude": -26.18848, "longitude": 28.32078, "state": "Gauteng"}, {"city": "Belfast", "latitude": -25.68991, "longitude": 30.03504, "state": "Mpumalanga"}, {"city": "Bedford", "latitude": -32.67903, "longitude": 26.08686, "state": "Eastern Cape"}, {"city": "Beaufort West", "latitude": -32.35671, "longitude": 22.58295, "state": "Western Cape"}, {"city": "Bathurst", "latitude": -33.4998, "longitude": 26.8294, "state": "Eastern Cape"}, {"city": "Barkly West", "latitude": -28.53537, "longitude": 24.52151, "state": "Northern Cape"}, {"city": "Barkly East", "latitude": -30.9683, "longitude": 27.59567, "state": "Eastern Cape"}, {"city": "Barberton", "latitude": -25.78842, "longitude": 31.05319, "state": "Mpumalanga"}, {"city": "Ballito", "latitude": -29.53897, "longitude": 31.21439, "state": "KwaZulu-Natal"}, {"city": "Balfour", "latitude": -32.5404, "longitude": 26.67944, "state": "Eastern Cape"}, {"city": "Balfour", "latitude": -26.66331, "longitude": 28.59016, "state": "Mpumalanga"}, {"city": "Ashton", "latitude": -33.83136, "longitude": 20.05595, "state": "Western Cape"}, {"city": "Apel", "latitude": -24.41445, "longitude": 29.74991, "state": "Limpopo"}, {"city": "eMvelo", "latitude": -26.62455, "longitude": 30.66234, "state": "Mpumalanga"}, {"city": "Amersfoort", "latitude": -27.00941, "longitude": 29.86643, "state": "Mpumalanga"}, {"city": "Allanridge", "latitude": -27.75431, "longitude": 26.64382, "state": "Orange Free State"}, {"city": "Aliwal North", "latitude": -30.69366, "longitude": 26.71141, "state": "Eastern Cape"}, {"city": "Alicedale", "latitude": -33.31905, "longitude": 26.09139, "state": "Eastern Cape"}, {"city": "Alice", "latitude": -32.78749, "longitude": 26.8344, "state": "Eastern Cape"}, {"city": "Alexandria", "latitude": -33.65346, "longitude": 26.41268, "state": "Eastern Cape"}, {"city": "Alberton", "latitude": -26.26786, "longitude": 28.12225, "state": "Gauteng"}, {"city": "Albertina", "latitude": -34.20544, "longitude": 21.58001, "state": "Western Cape"}, {"city": "Adelaide", "latitude": -32.70747, "longitude": 26.29564, "state": "Eastern Cape"}, {"city": "Addo", "latitude": -33.54833, "longitude": 25.6899, "state": "Eastern Cape"}, {"city": "Aberdeen", "latitude": -32.47588, "longitude": 24.06525, "state": "Eastern Cape"}, {"city": "Ekangala", "latitude": -25.69619, "longitude": 28.74918, "state": "Gauteng"}, {"city": "Midrand", "latitude": -25.98953, "longitude": 28.12843, "state": "Gauteng"}, {"city": "Centurion", "latitude": -25.85891, "longitude": 28.18577, "state": "Gauteng"}, {"city": "Worcester", "latitude": -33.64651, "longitude": 19.44852, "state": "Western Cape"}, {"city": "Wellington", "latitude": -33.63981, "longitude": 19.0112, "state": "Western Cape"}, {"city": "Vredendal", "latitude": -31.66833, "longitude": 18.50119, "state": "Western Cape"}, {"city": "Vredenburg", "latitude": -32.90719, "longitude": 17.98997, "state": "Western Cape"}, {"city": "Stellenbosch", "latitude": -33.93462, "longitude": 18.86676, "state": "Western Cape"}, {"city": "Stanford", "latitude": -34.4394, "longitude": 19.45615, "state": "Western Cape"}, {"city": "Springbok", "latitude": -29.66434, "longitude": 17.8865, "state": "Northern Cape"}, {"city": "Simon's Town", "latitude": -34.1934, "longitude": 18.43585, "state": "Western Cape"}, {"city": "Saldanha", "latitude": -33.01167, "longitude": 17.9442, "state": "Western Cape"}, {"city": "Rosebank", "latitude": -33.95556, "longitude": 18.47417, "state": "Western Cape"}, {"city": "Robertson", "latitude": -33.80342, "longitude": 19.88537, "state": "Western Cape"}, {"city": "Port Nolloth", "latitude": -29.25188, "longitude": 16.8697, "state": "Northern Cape"}, {"city": "Pofadder", "latitude": -29.1283, "longitude": 19.39492, "state": "Northern Cape"}, {"city": "Piketberg", "latitude": -32.90323, "longitude": 18.75704, "state": "Western Cape"}, {"city": "Paarl", "latitude": -33.73378, "longitude": 18.97523, "state": "Western Cape"}, {"city": "Moorreesburg", "latitude": -33.15388, "longitude": 18.66031, "state": "Western Cape"}, {"city": "Malmesbury", "latitude": -33.4608, "longitude": 18.72714, "state": "Western Cape"}, {"city": "Lansdowne", "latitude": -33.98735, "longitude": 18.49746, "state": "Western Cape"}, {"city": "Kraaifontein", "latitude": -33.84808, "longitude": 18.71723, "state": "Western Cape"}, {"city": "Hermanus", "latitude": -34.4187, "longitude": 19.23446, "state": "Western Cape"}, {"city": "Grabouw", "latitude": -34.15152, "longitude": 19.01509, "state": "Western Cape"}, {"city": "Garies", "latitude": -30.56223, "longitude": 17.98905, "state": "Northern Cape"}, {"city": "Constantia", "latitude": -34.03139, "longitude": 18.41833, "state": "Western Cape"}, {"city": "Claremont", "latitude": -33.98056, "longitude": 18.46528, "state": "Western Cape"}, {"city": "Clanwilliam", "latitude": -32.18173, "longitude": 18.89217, "state": "Western Cape"}, {"city": "Ceres", "latitude": -33.36889, "longitude": 19.31095, "state": "Western Cape"}, {"city": "Cape Town", "latitude": -33.92584, "longitude": 18.42322, "state": "Western Cape"}, {"city": "Calvinia", "latitude": -31.47069, "longitude": 19.77601, "state": "Northern Cape"}, {"city": "Caledon", "latitude": -34.22997, "longitude": 19.4265, "state": "Western Cape"}, {"city": "Bergvliet", "latitude": -34.04746, "longitude": 18.4525, "state": "Western Cape"}, {"city": "Atlantis", "latitude": -33.56668, "longitude": 18.48335, "state": "Western Cape"}, {"city": "Sunset Beach", "latitude": -33.85395, "longitude": 18.49231, "state": "Western Cape"}, {"city": "Eden Glen", "latitude": -26.1323, "longitude": 28.16859, "state": "Gauteng"}, {"city": "Rondebosch", "latitude": -33.96333, "longitude": 18.47639, "state": "Western Cape"}, {"city": "Newlands", "latitude": -33.97846, "longitude": 18.4481, "state": "Western Cape"}, {"city": "Bela-Bela", "latitude": -24.885, "longitude": 28.29417, "state": "Limpopo"}, {"city": "Lephalale", "latitude": -23.66607, "longitude": 27.74477, "state": "Limpopo"}, {"city": "Musina", "latitude": -22.34881, "longitude": 30.04074, "state": "Limpopo"}, {"city": "Midstream", "latitude": -25.91849, "longitude": 28.19881, "state": "Gauteng"}, {"city": "Mandeni", "latitude": -29.14691, "longitude": 31.41403, "state": "KwaZulu-Natal"}, {"city": "St Francis Bay", "latitude": -34.16026, "longitude": 24.82618, "state": "Eastern Cape"}, {"city": "Retreat", "latitude": -34.05515, "longitude": 18.47617, "state": "Western Cape"}, {"city": "Colchester", "latitude": -33.69135, "longitude": 25.82199, "state": "Eastern Cape"}, {"city": "Diepsloot", "latitude": -25.93312, "longitude": 28.01213, "state": "Gauteng"}, {"city": "Hardys Memories of Africa", "latitude": -33.90539, "longitude": 20.7169, "state": "Western Cape"}, {"city": "Tjakastad", "latitude": -25.989, "longitude": 30.823, "state": "Mpumalanga"}, {"city": "Lukwatini", "latitude": -26.05501, "longitude": 30.82292, "state": "Mpumalanga"}, {"city": "Eastleigh", "latitude": -26.12965, "longitude": 28.15541, "state": "Gauteng"}, {"city": "Riverlea", "latitude": -26.2119, "longitude": 27.97322, "state": "Gauteng"}, {"city": "Maluti", "latitude": -30.26207, "longitude": 28.79242, "state": "Eastern Cape"}, {"city": "Eden Glen Ext 60", "latitude": -26.12593, "longitude": 28.165, "state": "Gauteng"}, {"city": "Lebohang", "latitude": -26.37945, "longitude": 28.92112, "state": "Mpumalanga"}, {"city": "Thornhill", "latitude": -33.89511, "longitude": 25.13914, "state": "Eastern Cape"}, {"city": "Khaya Mnandi", "latitude": -33.82628, "longitude": 25.45378, "state": "Eastern Cape"}, {"city": "Santombe", "latitude": -30.81595, "longitude": 29.36159, "state": "Eastern Cape"}, {"city": "Glenmore", "latitude": -33.13235, "longitude": 26.87483, "state": "Eastern Cape"}, {"city": "Mkukwini", "latitude": -31.97144, "longitude": 27.43361, "state": "Eastern Cape"}, {"city": "Msobomvu", "latitude": -32.69854, "longitude": 26.85864, "state": "Eastern Cape"}, {"city": "Woodlands", "latitude": -34.00208, "longitude": 24.17132, "state": "Eastern Cape"}, {"city": "Clarendon Marine", "latitude": -34.01235, "longitude": 25.36577, "state": "Eastern Cape"}, {"city": "Ngabangu", "latitude": -32.62924, "longitude": 27.39823, "state": "Eastern Cape"}, {"city": "Loerieheuwel", "latitude": -33.87596, "longitude": 25.02064, "state": "Eastern Cape"}, {"city": "Ducats", "latitude": -32.92795, "longitude": 27.90373, "state": "Eastern Cape"}, {"city": "Phakamisa", "latitude": -32.93328, "longitude": 27.4571, "state": "Eastern Cape"}, {"city": "Ilitha", "latitude": -32.89243, "longitude": 27.5305, "state": "Eastern Cape"}, {"city": "Nomathamasanqa", "latitude": -33.52276, "longitude": 25.71044, "state": "Eastern Cape"}, {"city": "Ndevana", "latitude": -32.90769, "longitude": 27.50973, "state": "Eastern Cape"}, {"city": "Ikgomotseng", "latitude": -28.73477, "longitude": 26.10788, "state": "Orange Free State"}, {"city": "Tshiame", "latitude": -28.33057, "longitude": 28.99087, "state": "Orange Free State"}, {"city": "Phomolong", "latitude": -28.01274, "longitude": 27.08234, "state": "Orange Free State"}, {"city": "Mamello", "latitude": -26.87212, "longitude": 28.2534, "state": "Gauteng"}, {"city": "Kameelkraal", "latitude": -25.9009, "longitude": 28.53333, "state": "Gauteng"}, {"city": "Onverwacht", "latitude": -25.60233, "longitude": 28.59898, "state": "Gauteng"}, {"city": "Orient Hills", "latitude": -26.03137, "longitude": 27.60266, "state": "Gauteng"}, {"city": "Leeudoorn Mine", "latitude": -26.44244, "longitude": 27.57278, "state": "Gauteng"}, {"city": "Randvaal", "latitude": -26.43358, "longitude": 28.09267, "state": "Gauteng"}, {"city": "Seberuberung", "latitude": -26.41447, "longitude": 27.6991, "state": "Gauteng"}, {"city": "Elsburg Gold Mine", "latitude": -26.40967, "longitude": 27.68114, "state": "Gauteng"}, {"city": "Thembisile", "latitude": -25.60362, "longitude": 28.88795, "state": "Gauteng"}, {"city": "Rethabiseng", "latitude": -25.72286, "longitude": 28.71689, "state": "Gauteng"}, {"city": "Bagale", "latitude": -26.06566, "longitude": 27.64765, "state": "Gauteng"}, {"city": "Hlalanathi", "latitude": -27.49124, "longitude": 32.18304, "state": "KwaZulu-Natal"}, {"city": "Loss", "latitude": -28.10478, "longitude": 30.82101, "state": "KwaZulu-Natal"}, {"city": "Ocean Drive-In", "latitude": -29.58971, "longitude": 31.14713, "state": "KwaZulu-Natal"}, {"city": "Thembalethu", "latitude": -27.61748, "longitude": 32.02791, "state": "KwaZulu-Natal"}, {"city": "Hambanathi", "latitude": -29.55416, "longitude": 31.10513, "state": "KwaZulu-Natal"}, {"city": "Drummond", "latitude": -29.75575, "longitude": 30.68977, "state": "KwaZulu-Natal"}, {"city": "Randgate", "latitude": -28.39885, "longitude": 32.21782, "state": "KwaZulu-Natal"}, {"city": "Glen Mill", "latitude": -29.29371, "longitude": 31.1397, "state": "KwaZulu-Natal"}, {"city": "Mpungamhlophe", "latitude": -28.26748, "longitude": 31.25298, "state": "KwaZulu-Natal"}, {"city": "Cibelichle", "latitude": -29.63451, "longitude": 29.78891, "state": "KwaZulu-Natal"}, {"city": "Emona", "latitude": -29.55376, "longitude": 31.09656, "state": "KwaZulu-Natal"}, {"city": "Greylands", "latitude": -29.52848, "longitude": 31.15385, "state": "KwaZulu-Natal"}, {"city": "Ashburton", "latitude": -29.66664, "longitude": 30.45502, "state": "KwaZulu-Natal"}, {"city": "Emaqeleni", "latitude": -28.92643, "longitude": 31.70659, "state": "KwaZulu-Natal"}, {"city": "Ezibomvu", "latitude": -28.09016, "longitude": 30.77948, "state": "KwaZulu-Natal"}, {"city": "Nkongolwane", "latitude": -27.68858, "longitude": 31.03867, "state": "KwaZulu-Natal"}, {"city": "Ibisikululwa", "latitude": -30.41119, "longitude": 29.89194, "state": "KwaZulu-Natal"}, {"city": "Hazelmere", "latitude": -29.59665, "longitude": 31.04358, "state": "KwaZulu-Natal"}, {"city": "Kgwaripe", "latitude": -28.37007, "longitude": 32.34879, "state": "KwaZulu-Natal"}, {"city": "Craigieburn", "latitude": -30.19709, "longitude": 30.75222, "state": "KwaZulu-Natal"}, {"city": "Frischgewaagd", "latitude": -27.38985, "longitude": 30.95469, "state": "KwaZulu-Natal"}, {"city": "KaNdengeza", "latitude": -23.26352, "longitude": 30.39554, "state": "Limpopo"}, {"city": "Thusang", "latitude": -24.62123, "longitude": 29.04054, "state": "Limpopo"}, {"city": "Louis Trichardt Airforce Base", "latitude": -23.15265, "longitude": 29.70407, "state": "Limpopo"}, {"city": "Lwamondo", "latitude": -23.03847, "longitude": 30.40458, "state": "Limpopo"}, {"city": "Moshate", "latitude": -23.85685, "longitude": 29.83668, "state": "Limpopo"}, {"city": "Mvelaphanda", "latitude": -23.0703, "longitude": 30.40252, "state": "Limpopo"}, {"city": "Phaweni", "latitude": -22.88181, "longitude": 30.77882, "state": "Limpopo"}, {"city": "Laersdrift", "latitude": -25.36529, "longitude": 29.8569, "state": "Limpopo"}, {"city": "Thabo Mbeki", "latitude": -23.34099, "longitude": 28.01422, "state": "Limpopo"}, {"city": "Morbeng", "latitude": -23.49265, "longitude": 29.93865, "state": "Limpopo"}, {"city": "Ka-Xihosana", "latitude": -23.16436, "longitude": 30.58221, "state": "Limpopo"}, {"city": "Mokgoba", "latitude": -23.71188, "longitude": 30.1345, "state": "Limpopo"}, {"city": "Nthabiseng", "latitude": -23.48258, "longitude": 29.91478, "state": "Limpopo"}, {"city": "Vuwani", "latitude": -23.13524, "longitude": 30.42136, "state": "Limpopo"}, {"city": "Saselamani", "latitude": -22.85611, "longitude": 30.83353, "state": "Limpopo"}, {"city": "Ka-Mahonisi", "latitude": -23.05613, "longitude": 30.63581, "state": "Limpopo"}, {"city": "Babirwa", "latitude": -23.42968, "longitude": 28.60902, "state": "Limpopo"}, {"city": "GaSekhaolelo", "latitude": -23.95524, "longitude": 28.98335, "state": "Limpopo"}, {"city": "Senwamokgope", "latitude": -23.40924, "longitude": 30.16038, "state": "Limpopo"}, {"city": "Nthabalala", "latitude": -23.21959, "longitude": 29.99269, "state": "Limpopo"}, {"city": "Elandskraal", "latitude": -24.7209, "longitude": 29.40783, "state": "Limpopo"}, {"city": "Tshitereke", "latitude": -22.88416, "longitude": 30.49358, "state": "Limpopo"}, {"city": "Praktiseer", "latitude": -24.58398, "longitude": 30.31684, "state": "Limpopo"}, {"city": "Lebowakgomo", "latitude": -24.31457, "longitude": 29.50078, "state": "Limpopo"}, {"city": "Bosoord", "latitude": -25.23237, "longitude": 30.33051, "state": "Mpumalanga"}, {"city": "Sizanane", "latitude": -26.11447, "longitude": 29.4086, "state": "Mpumalanga"}, {"city": "Betty's Goed", "latitude": -26.25394, "longitude": 30.91187, "state": "Mpumalanga"}, {"city": "Kriel Power Station", "latitude": -26.27466, "longitude": 29.1715, "state": "Mpumalanga"}, {"city": "Iswepe", "latitude": -26.8406, "longitude": 30.53511, "state": "Mpumalanga"}, {"city": "Warburton", "latitude": -26.22909, "longitude": 30.47643, "state": "Mpumalanga"}, {"city": "Wolfenkop", "latitude": -25.52121, "longitude": 28.99197, "state": "Mpumalanga"}, {"city": "Pullens Hope", "latitude": -26.02036, "longitude": 29.59486, "state": "Mpumalanga"}, {"city": "Ngodwana", "latitude": -25.56923, "longitude": 30.67895, "state": "Mpumalanga"}, {"city": "KwaDela", "latitude": -26.46389, "longitude": 29.66585, "state": "Mpumalanga"}, {"city": "Mapulaneng View", "latitude": -24.85009, "longitude": 31.07125, "state": "Mpumalanga"}, {"city": "Masakhane", "latitude": -25.95354, "longitude": 29.33068, "state": "Mpumalanga"}, {"city": "Ekulindeni", "latitude": -26.04605, "longitude": 31.02317, "state": "Mpumalanga"}, {"city": "Doornkop", "latitude": -25.60828, "longitude": 29.43117, "state": "Mpumalanga"}, {"city": "Emgwenya", "latitude": -25.63684, "longitude": 30.32404, "state": "Mpumalanga"}, {"city": "Kamhlushwa", "latitude": -25.66365, "longitude": 31.68337, "state": "Mpumalanga"}, {"city": "Gemsbokspruit", "latitude": -25.40339, "longitude": 28.87862, "state": "Mpumalanga"}, {"city": "Empuluzu", "latitude": -26.30497, "longitude": 30.77365, "state": "Mpumalanga"}, {"city": "Daggakraal", "latitude": -27.13246, "longitude": 29.97635, "state": "Mpumalanga"}, {"city": "Thubelihle", "latitude": -26.21551, "longitude": 29.29164, "state": "Mpumalanga"}, {"city": "Tekwane", "latitude": -25.47776, "longitude": 31.14559, "state": "Mpumalanga"}, {"city": "Vaalbank", "latitude": -25.15226, "longitude": 28.85563, "state": "Mpumalanga"}, {"city": "Redhill", "latitude": -26.26074, "longitude": 30.82545, "state": "Mpumalanga"}, {"city": "Sun City", "latitude": -25.33997, "longitude": 27.09738, "state": "North West"}, {"city": "Sun Village", "latitude": -25.35916, "longitude": 27.10296, "state": "North West"}, {"city": "Bray", "latitude": -25.46145, "longitude": 23.69713, "state": "North West"}, {"city": "Boipelo", "latitude": -27.56543, "longitude": 24.18493, "state": "North West"}, {"city": "Itekeng", "latitude": -26.35931, "longitude": 25.90688, "state": "North West"}, {"city": "Umzimhle", "latitude": -26.935, "longitude": 26.73074, "state": "North West"}, {"city": "Carousel View", "latitude": -25.32264, "longitude": 28.28964, "state": "North West"}, {"city": "Letlhabile", "latitude": -25.48238, "longitude": 27.83925, "state": "North West"}, {"city": "Philandersbron", "latitude": -26.81168, "longitude": 20.09484, "state": "Northern Cape"}, {"city": "Leerkrans", "latitude": -28.406, "longitude": 21.52342, "state": "Northern Cape"}, {"city": "Gannaput", "latitude": -28.7526, "longitude": 21.84764, "state": "Northern Cape"}, {"city": "Swartkop", "latitude": -28.51852, "longitude": 21.2043, "state": "Northern Cape"}, {"city": "Cillie", "latitude": -28.73997, "longitude": 20.58895, "state": "Northern Cape"}, {"city": "Wegdraai", "latitude": -28.8413, "longitude": 21.8747, "state": "Northern Cape"}, {"city": "Grootdrink", "latitude": -28.56402, "longitude": 21.74656, "state": "Northern Cape"}, {"city": "Raaswater", "latitude": -28.59337, "longitude": 21.1906, "state": "Northern Cape"}, {"city": "Oakglen", "latitude": -31.05073, "longitude": 24.4326, "state": "Northern Cape"}, {"city": "Nuwerus NC", "latitude": -28.47438, "longitude": 21.27042, "state": "Northern Cape"}, {"city": "Wemmershoek", "latitude": -33.87286, "longitude": 19.04329, "state": "Western Cape"}, {"city": "Hugenote", "latitude": -33.90673, "longitude": 19.11792, "state": "Western Cape"}, {"city": "Friemersheim", "latitude": -33.95528, "longitude": 22.1425, "state": "Western Cape"}, {"city": "Pella WC", "latitude": -33.53957, "longitude": 18.52149, "state": "Western Cape"}, {"city": "Wiesiesdraai", "latitude": -33.89498, "longitude": 19.07536, "state": "Western Cape"}, {"city": "Victor Verster", "latitude": -33.84088, "longitude": 18.99893, "state": "Western Cape"}, {"city": "Slangrivier", "latitude": -34.13722, "longitude": 20.86167, "state": "Western Cape"}, {"city": "Abbotsdale", "latitude": -33.48694, "longitude": 18.67583, "state": "Western Cape"}, {"city": "Languedoc", "latitude": -33.8973, "longitude": 18.96726, "state": "Western Cape"}, {"city": "Kranshoek", "latitude": -34.0878, "longitude": 23.28333, "state": "Western Cape"}, {"city": "Fistantkraal", "latitude": -33.78545, "longitude": 18.71406, "state": "Western Cape"}, {"city": "Le Roux", "latitude": -33.89058, "longitude": 19.10328, "state": "Western Cape"}, {"city": "Westville", "latitude": -33.82908, "longitude": 25.48575, "state": "Eastern Cape"}, {"city": "Nhlazatje", "latitude": -26.04027, "longitude": 30.79268, "state": "Mpumalanga"}, {"city": "Mooiplaas", "latitude": -26.06282, "longitude": 30.87868, "state": "Mpumalanga"}, {"city": "Swalluwnest", "latitude": -26.23218, "longitude": 30.87115, "state": "Mpumalanga"}, {"city": "Glenmore", "latitude": -26.26469, "longitude": 30.84358, "state": "Mpumalanga"}, {"city": "Dundonald", "latitude": -26.24656, "longitude": 30.81802, "state": "Mpumalanga"}, {"city": "Fernie", "latitude": -26.39015, "longitude": 30.78742, "state": "Mpumalanga"}, {"city": "KwaThandeka", "latitude": -26.65372, "longitude": 30.678, "state": "Mpumalanga"}, {"city": "KwaNgema", "latitude": -27.01067, "longitude": 30.48566, "state": "Mpumalanga"}, {"city": "Ngema Tribal Trust", "latitude": -27.07309, "longitude": 30.54204, "state": "Mpumalanga"}, {"city": "Palmietfontein", "latitude": -27.10565, "longitude": 29.94074, "state": "Mpumalanga"}]