[{"city": "Shing\u016b", "latitude": 33.73333, "longitude": 135.98333, "state": "Wakayama"}, {"city": "Atsugi", "latitude": 35.44272, "longitude": 139.36931, "state": "Kanagawa"}, {"city": "Akashi", "latitude": 34.65524, "longitude": 135.00687, "state": "Hy\u014dgo"}, {"city": "Zushi", "latitude": 35.29483, "longitude": 139.57812, "state": "Kanagawa"}, {"city": "Zentsujich\u00f3", "latitude": 34.22699, "longitude": 133.77791, "state": "Kagawa"}, {"city": "Zama", "latitude": 35.4879, "longitude": 139.39101, "state": "Kanagawa"}, {"city": "Yuzawa", "latitude": 36.93804, "longitude": 138.81331, "state": "Niigata"}, {"city": "Yuza", "latitude": 39.01573, "longitude": 139.92909, "state": "Yamagata"}, {"city": "Gero", "latitude": 35.8, "longitude": 137.23333, "state": "Gifu"}, {"city": "Yunomae", "latitude": 32.28333, "longitude": 130.98333, "state": "Kumamoto"}, {"city": "Yukuhashi", "latitude": 33.72873, "longitude": 130.983, "state": "Fukuoka"}, {"city": "Y\u016bki", "latitude": 36.3, "longitude": 139.88333, "state": "Ibaraki"}, {"city": "Yugawara", "latitude": 35.15, "longitude": 139.06667, "state": "Kanagawa"}, {"city": "Yudomari", "latitude": 30.2347, "longitude": 130.47942, "state": "Kagoshima"}, {"city": "Yuasa", "latitude": 34.03686, "longitude": 135.18041, "state": "Wakayama"}, {"city": "Yoshino-ch\u014d", "latitude": 34.39611, "longitude": 135.85768, "state": "Nara"}, {"city": "Yoshikawa", "latitude": 35.89232, "longitude": 139.84184, "state": "Saitama"}, {"city": "Yoshii", "latitude": 36.25, "longitude": 138.98333, "state": "Gunma"}, {"city": "Yoshida-kasugach\u014d", "latitude": 37.68333, "longitude": 138.88333, "state": "Niigata"}, {"city": "Yorii", "latitude": 36.11567, "longitude": 139.19429, "state": "Saitama"}, {"city": "Yono", "latitude": 35.88333, "longitude": 139.63333, "state": "Saitama"}, {"city": "Yonakuni", "latitude": 24.46667, "longitude": 123.0, "state": "Okinawa"}, {"city": "Yonago", "latitude": 35.43333, "longitude": 133.33333, "state": "Tottori"}, {"city": "Yonabaru", "latitude": 26.20437, "longitude": 127.75267, "state": "Okinawa"}, {"city": "Yokosuka", "latitude": 35.28361, "longitude": 139.66722, "state": "Kanagawa"}, {"city": "Yokohama", "latitude": 35.43333, "longitude": 139.65, "state": "Kanagawa"}, {"city": "Yokkaichi", "latitude": 34.96667, "longitude": 136.61667, "state": "Mie"}, {"city": "Youkaichi", "latitude": 35.11626, "longitude": 136.19768, "state": "Shiga"}, {"city": "Yawata", "latitude": 34.87009, "longitude": 135.7027, "state": "Kyoto"}, {"city": "Honmachi", "latitude": 32.50439, "longitude": 130.59952, "state": "Kumamoto"}, {"city": "Yatsuomachi-higashikumisaka", "latitude": 36.56667, "longitude": 137.13333, "state": "Toyama"}, {"city": "Yasugich\u014d", "latitude": 35.42146, "longitude": 133.24224, "state": "Shimane"}, {"city": "Yasuda", "latitude": 33.43563, "longitude": 133.98501, "state": "Kochi"}, {"city": "Yashiro", "latitude": 34.91667, "longitude": 134.96667, "state": "Hy\u014dgo"}, {"city": "Yashio", "latitude": 35.82255, "longitude": 139.83905, "state": "Saitama"}, {"city": "Yaotsu", "latitude": 35.46667, "longitude": 137.15, "state": "Gifu"}, {"city": "Yao", "latitude": 34.61667, "longitude": 135.6, "state": "\u014csaka"}, {"city": "Yanaizu", "latitude": 37.52416, "longitude": 139.72167, "state": "Fukushima"}, {"city": "Yanai", "latitude": 33.96667, "longitude": 132.11667, "state": "Yamaguchi"}, {"city": "Yanagawa", "latitude": 33.16667, "longitude": 130.4, "state": "Fukuoka"}, {"city": "Yamato-Takada", "latitude": 34.51667, "longitude": 135.75, "state": "Nara"}, {"city": "Yamazakich\u014d-nakabirose", "latitude": 35.0, "longitude": 134.55, "state": "Hy\u014dgo"}, {"city": "Yamakita", "latitude": 35.36344, "longitude": 139.07975, "state": "Kanagawa"}, {"city": "Yamaguchi", "latitude": 34.18333, "longitude": 131.46667, "state": null}, {"city": "Yamaga", "latitude": 33.01667, "longitude": 130.68911, "state": "Kumamoto"}, {"city": "Yakage", "latitude": 34.62849, "longitude": 133.59237, "state": "Okayama"}, {"city": "Yaizu", "latitude": 34.86877, "longitude": 138.31952, "state": "Shizuoka"}, {"city": "Yaita", "latitude": 36.8, "longitude": 139.93333, "state": "Tochigi"}, {"city": "Yabu", "latitude": 35.40304, "longitude": 134.77118, "state": "Hy\u014dgo"}, {"city": "Wakimachi", "latitude": 34.06667, "longitude": 134.15, "state": "Tokushima"}, {"city": "Wake", "latitude": 34.81156, "longitude": 134.14264, "state": "Okayama"}, {"city": "Wakasa", "latitude": 35.33333, "longitude": 134.4, "state": "Tottori"}, {"city": "Wajima", "latitude": 37.40458, "longitude": 136.89912, "state": "Ishikawa"}, {"city": "Wadomari", "latitude": 27.38333, "longitude": 128.65, "state": "Kagoshima"}, {"city": "Utsunomiya", "latitude": 36.56667, "longitude": 139.88333, "state": "Tochigi"}, {"city": "Uto", "latitude": 32.68333, "longitude": 130.66667, "state": "Kumamoto"}, {"city": "Utazu", "latitude": 34.3, "longitude": 133.81667, "state": "Kagawa"}, {"city": "Usuki", "latitude": 33.12342, "longitude": 131.80401, "state": "Oita"}, {"city": "Ushibukamachi", "latitude": 32.20142, "longitude": 130.02171, "state": "Kumamoto"}, {"city": "Ureshinomachi-shimojuku", "latitude": 33.11358, "longitude": 130.00292, "state": "Saga"}, {"city": "Urayasu", "latitude": 35.65879, "longitude": 139.90055, "state": "Chiba"}, {"city": "Uozu", "latitude": 36.8, "longitude": 137.4, "state": "Toyama"}, {"city": "Umi", "latitude": 33.56826, "longitude": 130.51009, "state": "Fukuoka"}, {"city": "Uken", "latitude": 28.3, "longitude": 129.23333, "state": "Kagoshima"}, {"city": "Ujiie", "latitude": 36.68333, "longitude": 139.96667, "state": "Tochigi"}, {"city": "Uji", "latitude": 34.89044, "longitude": 135.80325, "state": "Kyoto"}, {"city": "Uenohara", "latitude": 35.61667, "longitude": 139.11667, "state": "Yamanashi"}, {"city": "Ueno-ebisumachi", "latitude": 34.75856, "longitude": 136.13108, "state": "Mie"}, {"city": "Uekimachi-m\u014dno", "latitude": 32.89964, "longitude": 130.68898, "state": "Kumamoto"}, {"city": "Ueda", "latitude": 36.40265, "longitude": 138.28161, "state": "Nagano"}, {"city": "Ube", "latitude": 33.94306, "longitude": 131.25111, "state": "Yamaguchi"}, {"city": "Tsuyama", "latitude": 35.05215, "longitude": 133.99885, "state": "Okayama"}, {"city": "Tsushima", "latitude": 35.16667, "longitude": 136.71667, "state": "Aichi"}, {"city": "Tsurusaki", "latitude": 33.24528, "longitude": 131.69165, "state": "Oita"}, {"city": "Tsuruoka", "latitude": 38.72167, "longitude": 139.82167, "state": "Yamagata"}, {"city": "Tsurugi-asahimachi", "latitude": 36.45, "longitude": 136.63333, "state": "Ishikawa"}, {"city": "Tsuruga", "latitude": 35.653, "longitude": 136.06331, "state": "Fukui"}, {"city": "Tsun\u014d", "latitude": 32.25, "longitude": 131.56667, "state": "Miyazaki"}, {"city": "Tsunagi", "latitude": 32.23616, "longitude": 130.47617, "state": "Kumamoto"}, {"city": "Tsuma", "latitude": 32.1, "longitude": 131.4, "state": "Miyazaki"}, {"city": "Tsukumiura", "latitude": 33.07539, "longitude": 131.86907, "state": "Oita"}, {"city": "Tsukawaki", "latitude": 33.27668, "longitude": 131.15628, "state": "Oita"}, {"city": "Tsuiki", "latitude": 33.67307, "longitude": 131.03776, "state": "Fukuoka"}, {"city": "Tsubata", "latitude": 36.67012, "longitude": 136.7403, "state": "Ishikawa"}, {"city": "Tsubame", "latitude": 37.6645, "longitude": 138.92518, "state": "Niigata"}, {"city": "Tsu", "latitude": 34.73333, "longitude": 136.51667, "state": "Mie"}, {"city": "Toyota", "latitude": 35.08333, "longitude": 137.15, "state": "Aichi"}, {"city": "Toyoshina", "latitude": 36.29991, "longitude": 137.90108, "state": "Nagano"}, {"city": "Toyooka", "latitude": 35.54008, "longitude": 134.82038, "state": "Hy\u014dgo"}, {"city": "Toyonaka", "latitude": 34.78244, "longitude": 135.46932, "state": "\u014csaka"}, {"city": "Toyokawa", "latitude": 34.81667, "longitude": 137.4, "state": "Aichi"}, {"city": "Toyohashi", "latitude": 34.76667, "longitude": 137.38333, "state": "Aichi"}, {"city": "Toyohama", "latitude": 34.70933, "longitude": 136.93425, "state": "Aichi"}, {"city": "Toyama", "latitude": 36.7, "longitude": 137.21667, "state": null}, {"city": "Tottori", "latitude": 35.5, "longitude": 134.23333, "state": null}, {"city": "Tosu", "latitude": 33.36667, "longitude": 130.51667, "state": "Saga"}, {"city": "Tonosh\u014d", "latitude": 34.48047, "longitude": 134.17017, "state": "Kagawa"}, {"city": "Tondabayashich\u014d", "latitude": 34.50065, "longitude": 135.60211, "state": "\u014csaka"}, {"city": "Tomioka", "latitude": 36.25411, "longitude": 138.89813, "state": "Gunma"}, {"city": "Tomigusuku", "latitude": 26.18583, "longitude": 127.68192, "state": "Okinawa"}, {"city": "Tokyo", "latitude": 35.6895, "longitude": 139.69171, "state": null}, {"city": "Tokuyama", "latitude": 34.05, "longitude": 131.81667, "state": "Yamaguchi"}, {"city": "Tokushima", "latitude": 34.06667, "longitude": 134.56667, "state": null}, {"city": "Tokorozawa", "latitude": 35.79916, "longitude": 139.46903, "state": "Saitama"}, {"city": "Tokoname", "latitude": 34.88333, "longitude": 136.85, "state": "Aichi"}, {"city": "Toki", "latitude": 35.35, "longitude": 137.18333, "state": "Gifu"}, {"city": "T\u014dkamachi", "latitude": 37.13333, "longitude": 138.76667, "state": "Niigata"}, {"city": "Togitsu", "latitude": 32.83333, "longitude": 129.85, "state": "Nagasaki"}, {"city": "Tochio-honch\u014d", "latitude": 37.47642, "longitude": 138.99513, "state": "Niigata"}, {"city": "Tochigi", "latitude": 36.38333, "longitude": 139.73333, "state": null}, {"city": "Toba", "latitude": 34.4833, "longitude": 136.84186, "state": "Mie"}, {"city": "Tenri", "latitude": 34.58333, "longitude": 135.83333, "state": "Nara"}, {"city": "Tenn\u014d", "latitude": 39.9, "longitude": 139.96667, "state": "Akita"}, {"city": "Tawaramoto", "latitude": 34.5542, "longitude": 135.79297, "state": "Nara"}, {"city": "Tatsuno", "latitude": 35.98426, "longitude": 137.99721, "state": "Nagano"}, {"city": "Tatsunoch\u014d-tominaga", "latitude": 34.86437, "longitude": 134.552, "state": "Hy\u014dgo"}, {"city": "Tatsug\u014d", "latitude": 28.45, "longitude": 129.6, "state": "Kagoshima"}, {"city": "Tateyama", "latitude": 34.98333, "longitude": 139.86667, "state": "Chiba"}, {"city": "Tatebayashi", "latitude": 36.25, "longitude": 139.53333, "state": "Gunma"}, {"city": "Tarumizu", "latitude": 31.48333, "longitude": 130.7, "state": "Kagoshima"}, {"city": "Tarui", "latitude": 35.36667, "longitude": 136.53333, "state": "Gifu"}, {"city": "Tara", "latitude": 33.02435, "longitude": 130.17838, "state": "Saga"}, {"city": "Tanushimarumachi-toyoki", "latitude": 33.35, "longitude": 130.68333, "state": "Fukuoka"}, {"city": "Tanuma", "latitude": 36.36667, "longitude": 139.58333, "state": "Tochigi"}, {"city": "Tano", "latitude": 33.41667, "longitude": 134.01667, "state": "Kochi"}, {"city": "Nishi-Tokyo-shi", "latitude": 35.72526, "longitude": 139.5383, "state": "Tokyo"}, {"city": "Tanashich\u014d", "latitude": 35.72922, "longitude": 139.53813, "state": "Tokyo"}, {"city": "Tanabe", "latitude": 34.82242, "longitude": 135.76604, "state": "Kyoto"}, {"city": "Tanabe", "latitude": 33.73333, "longitude": 135.36667, "state": "Wakayama"}, {"city": "Tamano", "latitude": 34.51745, "longitude": 133.94574, "state": "Okayama"}, {"city": "Tamana", "latitude": 32.94716, "longitude": 130.57446, "state": "Kumamoto"}, {"city": "Tamamura", "latitude": 36.3, "longitude": 139.11667, "state": "Gunma"}, {"city": "Taketoyo", "latitude": 34.85, "longitude": 136.91667, "state": "Aichi"}, {"city": "Takeo", "latitude": 33.19009, "longitude": 130.02084, "state": "Saga"}, {"city": "Takehara", "latitude": 34.33833, "longitude": 132.91667, "state": "Hiroshima"}, {"city": "Takefu", "latitude": 35.90393, "longitude": 136.16687, "state": "Fukui"}, {"city": "Takedamachi", "latitude": 32.96667, "longitude": 131.4, "state": "Oita"}, {"city": "Takayama", "latitude": 36.13333, "longitude": 137.25, "state": "Gifu"}, {"city": "Takatsuki", "latitude": 34.84833, "longitude": 135.61678, "state": "\u014csaka"}, {"city": "Takasaki", "latitude": 36.33333, "longitude": 139.01667, "state": "Gunma"}, {"city": "Takasaka", "latitude": 36.0, "longitude": 139.4, "state": "Saitama"}, {"city": "Takarazuka", "latitude": 34.79936, "longitude": 135.35697, "state": "Hy\u014dgo"}, {"city": "Takaoka", "latitude": 36.75, "longitude": 137.01667, "state": "Toyama"}, {"city": "Takanabe", "latitude": 32.13333, "longitude": 131.5, "state": "Miyazaki"}, {"city": "Takamori", "latitude": 32.81959, "longitude": 131.12704, "state": "Kumamoto"}, {"city": "Takamatsu", "latitude": 34.33333, "longitude": 134.05, "state": "Kagawa"}, {"city": "Takaishi", "latitude": 34.51667, "longitude": 135.43333, "state": "\u014csaka"}, {"city": "Takahashi", "latitude": 34.78333, "longitude": 133.61667, "state": "Okayama"}, {"city": "Takahama", "latitude": 35.49003, "longitude": 135.54983, "state": "Fukui"}, {"city": "Takahama", "latitude": 34.91667, "longitude": 136.98333, "state": "Aichi"}, {"city": "Bungo-Takada-shi", "latitude": 33.5567, "longitude": 131.44506, "state": "Oita"}, {"city": "Tajimi", "latitude": 35.31667, "longitude": 137.13333, "state": "Gifu"}, {"city": "Taira", "latitude": 26.63149, "longitude": 128.15117, "state": "Okinawa"}, {"city": "Tahara", "latitude": 34.66799, "longitude": 137.26736, "state": "Aichi"}, {"city": "Tagawa", "latitude": 33.63333, "longitude": 130.8, "state": "Fukuoka"}, {"city": "Tadotsu", "latitude": 34.275, "longitude": 133.75, "state": "Kagawa"}, {"city": "Tachiarai", "latitude": 33.4, "longitude": 130.61667, "state": "Fukuoka"}, {"city": "Suzuka", "latitude": 34.88333, "longitude": 136.58333, "state": "Mie"}, {"city": "Suzaka", "latitude": 36.65, "longitude": 138.31667, "state": "Nagano"}, {"city": "Suwa", "latitude": 36.03799, "longitude": 138.11308, "state": "Nagano"}, {"city": "Susaki", "latitude": 33.39471, "longitude": 133.29128, "state": "Kochi"}, {"city": "Sumoto", "latitude": 34.34322, "longitude": 134.88911, "state": "Hy\u014dgo"}, {"city": "Sukumo", "latitude": 32.93333, "longitude": 132.73333, "state": "Kochi"}, {"city": "Suita", "latitude": 34.76143, "longitude": 135.51567, "state": "\u014csaka"}, {"city": "Suibara", "latitude": 37.84608, "longitude": 139.23039, "state": "Niigata"}, {"city": "Sugito", "latitude": 36.03107, "longitude": 139.72636, "state": "Saitama"}, {"city": "Sueyoshich\u014d-ninokata", "latitude": 31.65, "longitude": 131.01667, "state": "Kagoshima"}, {"city": "S\u014dka", "latitude": 35.83643, "longitude": 139.79957, "state": "Saitama"}, {"city": "S\u014dja", "latitude": 34.67534, "longitude": 133.75091, "state": "Okayama"}, {"city": "Soeda", "latitude": 33.57177, "longitude": 130.85403, "state": "Fukuoka"}, {"city": "Sobue", "latitude": 35.25, "longitude": 136.71667, "state": "Aichi"}, {"city": "Sh\u014dbu", "latitude": 36.06667, "longitude": 139.6, "state": "Saitama"}, {"city": "Sh\u014dbara", "latitude": 34.85, "longitude": 133.01667, "state": "Hiroshima"}, {"city": "Shizuoka", "latitude": 34.98333, "longitude": 138.38333, "state": null}, {"city": "Shitara", "latitude": 35.1, "longitude": 137.56667, "state": "Aichi"}, {"city": "Shirone", "latitude": 37.76354, "longitude": 139.02199, "state": "Niigata"}, {"city": "Shiraoka", "latitude": 36.01839, "longitude": 139.66034, "state": "Saitama"}, {"city": "Shirahamach\u014d-usazakiminami", "latitude": 34.78333, "longitude": 134.71667, "state": "Hy\u014dgo"}, {"city": "Shirahama", "latitude": 33.68333, "longitude": 135.35, "state": "Wakayama"}, {"city": "Shiozawa", "latitude": 37.03757, "longitude": 138.84867, "state": "Niigata"}, {"city": "Shiojiri", "latitude": 36.1, "longitude": 137.96667, "state": "Nagano"}, {"city": "Shinshiro", "latitude": 34.9, "longitude": 137.5, "state": "Aichi"}, {"city": "Shin\u2019ichi", "latitude": 34.55543, "longitude": 133.27297, "state": "Hiroshima"}, {"city": "Shing\u016b", "latitude": 33.71399, "longitude": 130.4313, "state": "Fukuoka"}, {"city": "Shimo-tsuma", "latitude": 36.18333, "longitude": 139.96667, "state": "Ibaraki"}, {"city": "Shimosuwa", "latitude": 36.0713, "longitude": 138.08201, "state": "Nagano"}, {"city": "Shimonoseki", "latitude": 33.95548, "longitude": 130.93713, "state": "Yamaguchi"}, {"city": "Shimonita", "latitude": 36.21667, "longitude": 138.78333, "state": "Gunma"}, {"city": "Shimoichi", "latitude": 34.37089, "longitude": 135.78766, "state": "Nara"}, {"city": "Shimodate", "latitude": 36.3, "longitude": 139.98333, "state": "Ibaraki"}, {"city": "Shimoda", "latitude": 34.67652, "longitude": 138.94456, "state": "Shizuoka"}, {"city": "Minato", "latitude": 34.2152, "longitude": 135.1501, "state": "Wakayama"}, {"city": "Nishishinminato", "latitude": 36.77957, "longitude": 137.07576, "state": "Toyama"}, {"city": "Shimada", "latitude": 34.81667, "longitude": 138.18333, "state": "Shizuoka"}, {"city": "Shimabara", "latitude": 32.78333, "longitude": 130.36667, "state": "Nagasaki"}, {"city": "Shima", "latitude": 34.33333, "longitude": 136.83333, "state": "Mie"}, {"city": "Shiki", "latitude": 35.83333, "longitude": 139.58333, "state": "Saitama"}, {"city": "Shiida", "latitude": 33.65341, "longitude": 131.05797, "state": "Fukuoka"}, {"city": "Shido", "latitude": 34.32333, "longitude": 134.17333, "state": "Kagawa"}, {"city": "Shibushi", "latitude": 31.476, "longitude": 131.10114, "state": "Kagoshima"}, {"city": "Shibukawa", "latitude": 36.48333, "longitude": 139.0, "state": "Gunma"}, {"city": "Shibata", "latitude": 37.95, "longitude": 139.33333, "state": "Niigata"}, {"city": "Settsu", "latitude": 34.77819, "longitude": 135.59512, "state": "\u014csaka"}, {"city": "Seto", "latitude": 35.23333, "longitude": 137.1, "state": "Aichi"}, {"city": "Setakamachi-takayanagi", "latitude": 33.14858, "longitude": 130.46548, "state": "Fukuoka"}, {"city": "Senju", "latitude": 35.74888, "longitude": 139.80261, "state": "Tokyo"}, {"city": "Satsumasendai", "latitude": 31.81667, "longitude": 130.3, "state": "Kagoshima"}, {"city": "Sekimachi", "latitude": 35.48333, "longitude": 136.91667, "state": "Gifu"}, {"city": "Satte", "latitude": 36.07254, "longitude": 139.72615, "state": "Saitama"}, {"city": "Sasebo", "latitude": 33.16834, "longitude": 129.72502, "state": "Nagasaki"}, {"city": "Sasayama", "latitude": 35.06667, "longitude": 135.21667, "state": "Hy\u014dgo"}, {"city": "Sasaguri", "latitude": 33.61561, "longitude": 130.55105, "state": "Fukuoka"}, {"city": "Sano", "latitude": 36.31667, "longitude": 139.58333, "state": "Tochigi"}, {"city": "Sanj\u014d", "latitude": 37.61667, "longitude": 138.95, "state": "Niigata"}, {"city": "Sandach\u014d", "latitude": 34.88444, "longitude": 135.22694, "state": "Hy\u014dgo"}, {"city": "Sakurai", "latitude": 34.5, "longitude": 135.85, "state": "Nara"}, {"city": "Saku", "latitude": 36.21667, "longitude": 138.48333, "state": "Nagano"}, {"city": "Sakawa", "latitude": 33.50744, "longitude": 133.28478, "state": "Kochi"}, {"city": "Sakata", "latitude": 38.91667, "longitude": 139.855, "state": "Yamagata"}, {"city": "Sakaki", "latitude": 36.46667, "longitude": 138.18333, "state": "Nagano"}, {"city": "Sakaiminato", "latitude": 35.53774, "longitude": 133.23094, "state": "Tottori"}, {"city": "Sakaidech\u014d", "latitude": 34.32278, "longitude": 133.8356, "state": "Kagawa"}, {"city": "Sakai-nakajima", "latitude": 36.26667, "longitude": 139.25, "state": "Gunma"}, {"city": "Sakai", "latitude": 36.1, "longitude": 139.8, "state": "Ibaraki"}, {"city": "Sakai", "latitude": 34.58216, "longitude": 135.46653, "state": "\u014csaka"}, {"city": "Sakado", "latitude": 35.95694, "longitude": 139.38889, "state": "Saitama"}, {"city": "Saka", "latitude": 34.33333, "longitude": 132.51667, "state": "Hiroshima"}, {"city": "Saiki", "latitude": 32.95, "longitude": 131.9, "state": "Oita"}, {"city": "Saij\u014d", "latitude": 34.93333, "longitude": 133.11667, "state": "Hiroshima"}, {"city": "Sagara", "latitude": 34.68503, "longitude": 138.20461, "state": "Shizuoka"}, {"city": "Saga", "latitude": 33.23333, "longitude": 130.3, "state": null}, {"city": "Sabae", "latitude": 35.94647, "longitude": 136.18498, "state": "Fukui"}, {"city": "Ry\u016b\u014d", "latitude": 35.65, "longitude": 138.5, "state": "Yamanashi"}, {"city": "Ry\u014dtsu-minato", "latitude": 38.07817, "longitude": 138.43939, "state": "Niigata"}, {"city": "\u014czu", "latitude": 32.8804, "longitude": 130.87161, "state": "Kumamoto"}, {"city": "Oyama", "latitude": 36.3, "longitude": 139.8, "state": "Tochigi"}, {"city": "\u014cyama", "latitude": 34.60359, "longitude": 138.21719, "state": "Shizuoka"}, {"city": "Owase", "latitude": 34.06667, "longitude": 136.2, "state": "Mie"}, {"city": "\u014cuda", "latitude": 34.46667, "longitude": 135.93333, "state": "Nara"}, {"city": "\u014ctsuki", "latitude": 35.61851, "longitude": 138.97396, "state": "Yamanashi"}, {"city": "\u014ctsu", "latitude": 35.0, "longitude": 135.86667, "state": "Shiga"}, {"city": "\u014ctake", "latitude": 34.20754, "longitude": 132.22063, "state": "Hiroshima"}, {"city": "\u014cta", "latitude": 36.3, "longitude": 139.36667, "state": "Gunma"}, {"city": "Osaka", "latitude": 34.69379, "longitude": 135.50107, "state": "\u014csaka"}, {"city": "Onomichi", "latitude": 34.41667, "longitude": 133.2, "state": "Hiroshima"}, {"city": "Onoda", "latitude": 34.00139, "longitude": 131.18361, "state": "Yamaguchi"}, {"city": "Ono", "latitude": 35.98106, "longitude": 136.48727, "state": "Fukui"}, {"city": "Ono", "latitude": 34.85, "longitude": 134.93333, "state": "Hy\u014dgo"}, {"city": "\u014cno-hara", "latitude": 34.28333, "longitude": 132.26667, "state": "Hiroshima"}, {"city": "Onna", "latitude": 26.49543, "longitude": 127.85098, "state": "Okinawa"}, {"city": "\u014cmuta", "latitude": 33.03333, "longitude": 130.45, "state": "Fukuoka"}, {"city": "\u014cmura", "latitude": 32.92139, "longitude": 129.95389, "state": "Nagasaki"}, {"city": "Omi", "latitude": 36.45, "longitude": 138.05, "state": "Nagano"}, {"city": "\u014cme", "latitude": 35.78389, "longitude": 139.24306, "state": "Tokyo"}, {"city": "\u014cmamach\u014d-\u014dmama", "latitude": 36.43181, "longitude": 139.27534, "state": "Gunma"}, {"city": "\u014cmachi", "latitude": 36.5, "longitude": 137.86667, "state": "Nagano"}, {"city": "\u014ckuchi-shinohara", "latitude": 32.06779, "longitude": 130.62439, "state": "Kagoshima"}, {"city": "Okegawa", "latitude": 36.0, "longitude": 139.55722, "state": "Saitama"}, {"city": "Okazaki", "latitude": 34.95, "longitude": 137.16667, "state": "Aichi"}, {"city": "Okayama", "latitude": 34.65, "longitude": 133.93333, "state": null}, {"city": "Okaya", "latitude": 36.05659, "longitude": 138.0451, "state": "Nagano"}, {"city": "\u014ckawa", "latitude": 33.20566, "longitude": 130.37527, "state": "Fukuoka"}, {"city": "Ojiya", "latitude": 37.3, "longitude": 138.8, "state": "Niigata"}, {"city": "\u014cita", "latitude": 33.23333, "longitude": 131.6, "state": "Oita"}, {"city": "\u014ciso", "latitude": 35.31558, "longitude": 139.31625, "state": "Kanagawa"}, {"city": "\u014ci", "latitude": 35.85091, "longitude": 139.51998, "state": "Saitama"}, {"city": "Ogunimachi", "latitude": 38.06153, "longitude": 139.74809, "state": "Yamagata"}, {"city": "Ogose", "latitude": 35.95889, "longitude": 139.29, "state": "Saitama"}, {"city": "Og\u014dri-shimog\u014d", "latitude": 34.1, "longitude": 131.4, "state": "Yamaguchi"}, {"city": "\u014cgimi", "latitude": 26.70119, "longitude": 128.11731, "state": "Okinawa"}, {"city": "Ogikubo", "latitude": 35.69822, "longitude": 139.62372, "state": "Tokyo"}, {"city": "Ogawa", "latitude": 36.05342, "longitude": 139.26612, "state": "Saitama"}, {"city": "Ogano", "latitude": 36.02191, "longitude": 139.00301, "state": "Saitama"}, {"city": "\u014cgaki", "latitude": 35.35, "longitude": 136.61667, "state": "Gifu"}, {"city": "Odawara", "latitude": 35.25556, "longitude": 139.15972, "state": "Kanagawa"}, {"city": "\u014cdach\u014d-\u014dda", "latitude": 35.19025, "longitude": 132.50846, "state": "Shimane"}, {"city": "\u014cbu", "latitude": 35.01756, "longitude": 136.94947, "state": "Aichi"}, {"city": "Obita", "latitude": 32.81667, "longitude": 129.88333, "state": "Nagasaki"}, {"city": "Obama", "latitude": 35.49576, "longitude": 135.74604, "state": "Fukui"}, {"city": "Ny\u016bzen", "latitude": 36.93744, "longitude": 137.50059, "state": "Toyama"}, {"city": "Numazu", "latitude": 35.1, "longitude": 138.86667, "state": "Shizuoka"}, {"city": "Numata", "latitude": 36.63333, "longitude": 139.05, "state": "Gunma"}, {"city": "Nonoichi", "latitude": 36.53333, "longitude": 136.61667, "state": "Ishikawa"}, {"city": "N\u014dgata", "latitude": 33.74051, "longitude": 130.72263, "state": "Fukuoka"}, {"city": "Noda", "latitude": 35.94897, "longitude": 139.86793, "state": "Chiba"}, {"city": "Nobeoka", "latitude": 32.58333, "longitude": 131.66667, "state": "Miyazaki"}, {"city": "Nishiwaki", "latitude": 34.98419, "longitude": 134.97407, "state": "Hy\u014dgo"}, {"city": "Nishio", "latitude": 34.86667, "longitude": 137.05, "state": "Aichi"}, {"city": "Nishinoomote", "latitude": 30.73333, "longitude": 131.0, "state": "Kagoshima"}, {"city": "Nishinomiya-hama", "latitude": 34.71562, "longitude": 135.33199, "state": "Hy\u014dgo"}, {"city": "Nirasaki", "latitude": 35.7, "longitude": 138.45, "state": "Yamanashi"}, {"city": "Ninomiya", "latitude": 35.3015, "longitude": 139.25581, "state": "Kanagawa"}, {"city": "Nikk\u014d", "latitude": 36.75, "longitude": 139.61667, "state": "Tochigi"}, {"city": "Niitsu-honch\u014d", "latitude": 37.80024, "longitude": 139.1224, "state": "Niigata"}, {"city": "Niimi", "latitude": 34.98333, "longitude": 133.46667, "state": "Okayama"}, {"city": "Niihama", "latitude": 33.96047, "longitude": 133.30522, "state": "Ehime"}, {"city": "Niigata", "latitude": 37.92259, "longitude": 139.04125, "state": null}, {"city": "Nichinan", "latitude": 31.6, "longitude": 131.36667, "state": "Miyazaki"}, {"city": "Naze", "latitude": 28.36667, "longitude": 129.48333, "state": "Kagoshima"}, {"city": "Narutoch\u014d-mitsuishi", "latitude": 34.19933, "longitude": 134.60932, "state": "Tokushima"}, {"city": "Nara-shi", "latitude": 34.68505, "longitude": 135.80485, "state": "Nara"}, {"city": "Nanao", "latitude": 37.04816, "longitude": 136.96795, "state": "Ishikawa"}, {"city": "Namerikawa", "latitude": 36.75965, "longitude": 137.36215, "state": "Toyama"}, {"city": "Nambu", "latitude": 35.28333, "longitude": 138.45, "state": "Yamanashi"}, {"city": "Nakatsugawa", "latitude": 35.48333, "longitude": 137.5, "state": "Gifu"}, {"city": "Nakatsu", "latitude": 33.59811, "longitude": 131.1883, "state": "Oita"}, {"city": "Nakanoj\u014dmachi", "latitude": 36.58717, "longitude": 138.84083, "state": "Gunma"}, {"city": "Nakano", "latitude": 36.75, "longitude": 138.36667, "state": "Nagano"}, {"city": "Nakamura", "latitude": 32.98333, "longitude": 132.93333, "state": "Kochi"}, {"city": "Nakama", "latitude": 33.81688, "longitude": 130.70962, "state": "Fukuoka"}, {"city": "Naha", "latitude": 26.213, "longitude": 127.67851, "state": "Okinawa"}, {"city": "Nagoya", "latitude": 35.18147, "longitude": 136.90641, "state": "Aichi"}, {"city": "Nago", "latitude": 26.61502, "longitude": 127.98543, "state": "Okinawa"}, {"city": "Nagata", "latitude": 30.39516, "longitude": 130.42548, "state": "Kagoshima"}, {"city": "Nagasu", "latitude": 32.93257, "longitude": 130.44284, "state": "Kumamoto"}, {"city": "Nagasaki", "latitude": 32.75, "longitude": 129.88333, "state": null}, {"city": "Nagareyama", "latitude": 35.8563, "longitude": 139.90266, "state": "Chiba"}, {"city": "Nagaoka", "latitude": 37.45, "longitude": 138.85, "state": "Niigata"}, {"city": "Naganohara", "latitude": 36.55, "longitude": 138.63333, "state": "Gunma"}, {"city": "Nagano", "latitude": 36.65, "longitude": 138.18333, "state": null}, {"city": "Nagahama", "latitude": 35.38333, "longitude": 136.26667, "state": "Shiga"}, {"city": "Nabari", "latitude": 34.61667, "longitude": 136.08333, "state": "Mie"}, {"city": "Musashino", "latitude": 35.70611, "longitude": 139.55944, "state": "Tokyo"}, {"city": "Muroto-misakicho", "latitude": 33.28662, "longitude": 134.16832, "state": "Kochi"}, {"city": "Muramatsu", "latitude": 37.69257, "longitude": 139.17127, "state": "Niigata"}, {"city": "Murakami", "latitude": 38.23333, "longitude": 139.48333, "state": "Niigata"}, {"city": "Muk\u014d", "latitude": 34.96545, "longitude": 135.70415, "state": "Kyoto"}, {"city": "Muikamachi", "latitude": 37.06667, "longitude": 138.88333, "state": "Niigata"}, {"city": "Motoyama", "latitude": 33.79399, "longitude": 133.58105, "state": "Kochi"}, {"city": "Morohong\u014d", "latitude": 35.93556, "longitude": 139.30444, "state": "Saitama"}, {"city": "Moriyama", "latitude": 35.06667, "longitude": 135.98333, "state": "Shiga"}, {"city": "Moriguchi", "latitude": 34.73333, "longitude": 135.56667, "state": "\u014csaka"}, {"city": "Mori", "latitude": 34.83333, "longitude": 137.93333, "state": "Shizuoka"}, {"city": "Mizunami", "latitude": 35.36667, "longitude": 137.25, "state": "Gifu"}, {"city": "Miyoshi", "latitude": 34.8, "longitude": 132.85, "state": "Hiroshima"}, {"city": "Miyazu", "latitude": 35.53638, "longitude": 135.19934, "state": "Kyoto"}, {"city": "Miyazaki", "latitude": 31.91667, "longitude": 131.41667, "state": null}, {"city": "Miyanoura", "latitude": 30.4269, "longitude": 130.57151, "state": "Kagoshima"}, {"city": "Miyakonoj\u014d", "latitude": 31.73333, "longitude": 131.06667, "state": "Miyazaki"}, {"city": "Miyajima", "latitude": 34.29907, "longitude": 132.32186, "state": "Hiroshima"}, {"city": "Miyada", "latitude": 35.76667, "longitude": 137.95, "state": "Nagano"}, {"city": "Miyata", "latitude": 33.70811, "longitude": 130.65297, "state": "Fukuoka"}, {"city": "Mitsuke", "latitude": 37.53333, "longitude": 138.93333, "state": "Niigata"}, {"city": "Mitsukaid\u014d", "latitude": 36.01667, "longitude": 139.98333, "state": "Ibaraki"}, {"city": "Mitake", "latitude": 35.41667, "longitude": 137.13333, "state": "Gifu"}, {"city": "Mishima", "latitude": 35.11667, "longitude": 138.91667, "state": "Shizuoka"}, {"city": "Mino", "latitude": 34.82691, "longitude": 135.47057, "state": "\u014csaka"}, {"city": "Mino", "latitude": 35.53333, "longitude": 136.91667, "state": "Gifu"}, {"city": "Minano", "latitude": 36.07356, "longitude": 139.09994, "state": "Saitama"}, {"city": "Minamirinkan", "latitude": 35.49527, "longitude": 139.44279, "state": "Kanagawa"}, {"city": "Minamata", "latitude": 32.21667, "longitude": 130.4, "state": "Kumamoto"}, {"city": "Minakuchich\u014d-matoba", "latitude": 34.96667, "longitude": 136.16667, "state": "Shiga"}, {"city": "Minabe", "latitude": 33.76857, "longitude": 135.31845, "state": "Wakayama"}, {"city": "Mikuni", "latitude": 36.21494, "longitude": 136.14832, "state": "Fukui"}, {"city": "Miki", "latitude": 34.8, "longitude": 134.98333, "state": "Hy\u014dgo"}, {"city": "Mihara", "latitude": 34.4, "longitude": 133.08333, "state": "Hiroshima"}, {"city": "Mifune", "latitude": 32.71667, "longitude": 130.8222, "state": "Kumamoto"}, {"city": "Nagiso", "latitude": 35.6086, "longitude": 137.61063, "state": "Nagano"}, {"city": "Mibu", "latitude": 36.41667, "longitude": 139.8, "state": "Tochigi"}, {"city": "Menuma", "latitude": 36.22245, "longitude": 139.38205, "state": "Saitama"}, {"city": "Matsuzaki", "latitude": 34.75326, "longitude": 138.77613, "state": "Shizuoka"}, {"city": "Matsut\u014d", "latitude": 36.51667, "longitude": 136.56667, "state": "Ishikawa"}, {"city": "Matsumoto", "latitude": 36.23333, "longitude": 137.96667, "state": "Nagano"}, {"city": "Matsue", "latitude": 35.48333, "longitude": 133.05, "state": "Shimane"}, {"city": "Matsudo", "latitude": 35.77995, "longitude": 139.90144, "state": "Chiba"}, {"city": "Matsuda-s\u014dry\u014d", "latitude": 35.35063, "longitude": 139.13861, "state": "Kanagawa"}, {"city": "Matsubase", "latitude": 32.65, "longitude": 130.66667, "state": "Kumamoto"}, {"city": "Matsubara", "latitude": 34.56667, "longitude": 135.55, "state": "\u014csaka"}, {"city": "Masuda", "latitude": 34.66667, "longitude": 131.85, "state": "Shimane"}, {"city": "Maruoka", "latitude": 36.1534, "longitude": 136.27029, "state": "Fukui"}, {"city": "Kamimaruko", "latitude": 36.31865, "longitude": 138.27329, "state": "Nagano"}, {"city": "Marugame", "latitude": 34.28333, "longitude": 133.78333, "state": "Kagawa"}, {"city": "Manazuru", "latitude": 35.15311, "longitude": 139.13911, "state": "Kanagawa"}, {"city": "Makurazaki", "latitude": 31.26667, "longitude": 130.31667, "state": "Kagoshima"}, {"city": "Makinohara", "latitude": 34.77437, "longitude": 138.14831, "state": "Shizuoka"}, {"city": "Maki", "latitude": 37.75, "longitude": 138.88333, "state": "Niigata"}, {"city": "Maizuru", "latitude": 35.45, "longitude": 135.33333, "state": "Kyoto"}, {"city": "Maibara", "latitude": 35.31667, "longitude": 136.28333, "state": "Shiga"}, {"city": "Maebashi", "latitude": 36.4, "longitude": 139.08333, "state": "Gunma"}, {"city": "Maebaru-ch\u016b\u014d", "latitude": 33.55916, "longitude": 130.20148, "state": "Fukuoka"}, {"city": "Machida", "latitude": 35.54028, "longitude": 139.45083, "state": "Tokyo"}, {"city": "Kyoto", "latitude": 35.02107, "longitude": 135.75385, "state": null}, {"city": "Kushimoto", "latitude": 33.46839, "longitude": 135.77909, "state": "Wakayama"}, {"city": "Kushikino", "latitude": 31.71667, "longitude": 130.26667, "state": "Kagoshima"}, {"city": "Kusatsu", "latitude": 36.61667, "longitude": 138.6, "state": "Gunma"}, {"city": "Kusatsu", "latitude": 35.01667, "longitude": 135.96667, "state": "Shiga"}, {"city": "Kurume", "latitude": 33.31667, "longitude": 130.51667, "state": "Fukuoka"}, {"city": "Kuroda", "latitude": 35.35, "longitude": 136.78333, "state": "Aichi"}, {"city": "Kurio", "latitude": 30.27123, "longitude": 130.4236, "state": "Kagoshima"}, {"city": "Kurihashi", "latitude": 36.13333, "longitude": 139.7, "state": "Saitama"}, {"city": "Kurihama", "latitude": 35.22796, "longitude": 139.70212, "state": "Kanagawa"}, {"city": "Kure", "latitude": 34.23222, "longitude": 132.56658, "state": "Hiroshima"}, {"city": "Kurayoshi", "latitude": 35.43333, "longitude": 133.81667, "state": "Tottori"}, {"city": "Kurashiki", "latitude": 34.58333, "longitude": 133.76667, "state": "Okayama"}, {"city": "Kumamoto", "latitude": 32.80589, "longitude": 130.69181, "state": null}, {"city": "Kumagaya", "latitude": 36.13497, "longitude": 139.39004, "state": "Saitama"}, {"city": "Kukich\u016b\u014d", "latitude": 36.06739, "longitude": 139.67498, "state": "Saitama"}, {"city": "Kudamatsu", "latitude": 34.00964, "longitude": 131.86637, "state": "Yamaguchi"}, {"city": "K\u014dzushima", "latitude": 34.2, "longitude": 139.13333, "state": "Tokyo"}, {"city": "Kozakai-ch\u014d", "latitude": 34.8, "longitude": 137.35889, "state": "Aichi"}, {"city": "Koshima", "latitude": 30.23461, "longitude": 130.53517, "state": "Kagoshima"}, {"city": "Koshigaya", "latitude": 35.89035, "longitude": 139.78916, "state": "Saitama"}, {"city": "Koseda", "latitude": 30.38796, "longitude": 130.64924, "state": "Kagoshima"}, {"city": "K\u014dnosu", "latitude": 36.06868, "longitude": 139.51684, "state": "Saitama"}, {"city": "K\u014dnan", "latitude": 35.33165, "longitude": 136.87042, "state": "Aichi"}, {"city": "Komoro", "latitude": 36.31667, "longitude": 138.43333, "state": "Nagano"}, {"city": "Komono", "latitude": 35.0, "longitude": 136.51667, "state": "Mie"}, {"city": "Komatsushimach\u014d", "latitude": 34.0, "longitude": 134.58333, "state": "Tokushima"}, {"city": "Komatsu", "latitude": 36.40263, "longitude": 136.45088, "state": "Ishikawa"}, {"city": "Komaki", "latitude": 35.28333, "longitude": 136.91667, "state": "Aichi"}, {"city": "Kokubunji", "latitude": 35.70222, "longitude": 139.47556, "state": "Tokyo"}, {"city": "Kokubu-matsuki", "latitude": 31.73333, "longitude": 130.76667, "state": "Kagoshima"}, {"city": "Koga", "latitude": 36.18333, "longitude": 139.71667, "state": "Ibaraki"}, {"city": "Koga", "latitude": 33.73333, "longitude": 130.46667, "state": "Fukuoka"}, {"city": "K\u014dfu", "latitude": 35.66667, "longitude": 138.56667, "state": "Yamanashi"}, {"city": "Kodamach\u014d-kodamaminami", "latitude": 36.18497, "longitude": 139.13191, "state": "Saitama"}, {"city": "K\u014dchi", "latitude": 34.70009, "longitude": 138.93739, "state": "Shizuoka"}, {"city": "Kochi", "latitude": 33.55, "longitude": 133.53333, "state": null}, {"city": "Kobe", "latitude": 34.6913, "longitude": 135.183, "state": "Hy\u014dgo"}, {"city": "Kobayashi", "latitude": 31.98333, "longitude": 130.98333, "state": "Miyazaki"}, {"city": "Kiyosu", "latitude": 35.21667, "longitude": 136.83333, "state": "Aichi"}, {"city": "Kitsuki", "latitude": 33.41998, "longitude": 131.61837, "state": "Oita"}, {"city": "Kitakyushu", "latitude": 33.85181, "longitude": 130.85034, "state": "Fukuoka"}, {"city": "Kitakata", "latitude": 37.65, "longitude": 139.86667, "state": "Fukushima"}, {"city": "Kitahama", "latitude": 35.16667, "longitude": 135.91667, "state": "Shiga"}, {"city": "Kitagata", "latitude": 35.43333, "longitude": 136.68333, "state": "Gifu"}, {"city": "Kishiwada", "latitude": 34.46667, "longitude": 135.36667, "state": "\u014csaka"}, {"city": "Kisarazu", "latitude": 35.38329, "longitude": 139.93254, "state": "Chiba"}, {"city": "Kisai", "latitude": 36.1, "longitude": 139.58333, "state": "Saitama"}, {"city": "Kiry\u016b", "latitude": 36.4, "longitude": 139.33333, "state": "Gunma"}, {"city": "Kin", "latitude": 26.45222, "longitude": 127.91778, "state": "Okinawa"}, {"city": "Kikuchi", "latitude": 32.98333, "longitude": 130.81667, "state": "Kumamoto"}, {"city": "Kazo", "latitude": 36.11667, "longitude": 139.6, "state": "Saitama"}, {"city": "Kawasaki", "latitude": 35.52056, "longitude": 139.71722, "state": "Kanagawa"}, {"city": "Kawasaki", "latitude": 33.59993, "longitude": 130.81495, "state": "Fukuoka"}, {"city": "Kawara", "latitude": 33.66937, "longitude": 130.8426, "state": "Fukuoka"}, {"city": "Kawanishi", "latitude": 34.81667, "longitude": 135.41667, "state": "Hy\u014dgo"}, {"city": "Kawamoto", "latitude": 34.98333, "longitude": 132.5, "state": "Shimane"}, {"city": "Kawaminami", "latitude": 32.18333, "longitude": 131.51667, "state": "Miyazaki"}, {"city": "Kawaguchi", "latitude": 35.80521, "longitude": 139.71072, "state": "Saitama"}, {"city": "Kawagoe", "latitude": 35.90861, "longitude": 139.48528, "state": "Saitama"}, {"city": "Katsuyama", "latitude": 36.06173, "longitude": 136.50101, "state": "Fukui"}, {"city": "Kasukabe", "latitude": 35.98308, "longitude": 139.74966, "state": "Saitama"}, {"city": "Kasugai", "latitude": 35.24762, "longitude": 136.97229, "state": "Aichi"}, {"city": "Kashiwazaki", "latitude": 37.36667, "longitude": 138.55, "state": "Niigata"}, {"city": "Kashiwa", "latitude": 35.86224, "longitude": 139.97732, "state": "Chiba"}, {"city": "Kashima", "latitude": 33.10611, "longitude": 130.09056, "state": "Saga"}, {"city": "Kashihara-shi", "latitude": 34.50896, "longitude": 135.7929, "state": "Nara"}, {"city": "Kashihara", "latitude": 34.58333, "longitude": 135.61667, "state": "\u014csaka"}, {"city": "Kaseda-shirakame", "latitude": 31.41667, "longitude": 130.31667, "state": "Kagoshima"}, {"city": "Kasaoka", "latitude": 34.50597, "longitude": 133.50391, "state": "Okayama"}, {"city": "Kasamatsuch\u014d", "latitude": 35.36667, "longitude": 136.76667, "state": "Gifu"}, {"city": "Kasagi", "latitude": 34.75, "longitude": 135.93333, "state": "Kyoto"}, {"city": "Kariya", "latitude": 34.98333, "longitude": 136.98333, "state": "Aichi"}, {"city": "Kariwa", "latitude": 37.42975, "longitude": 138.61879, "state": "Niigata"}, {"city": "Karatsu", "latitude": 33.4425, "longitude": 129.96972, "state": "Saga"}, {"city": "Kanzakimachi-kanzaki", "latitude": 33.30895, "longitude": 130.37383, "state": "Saga"}, {"city": "Kanuma", "latitude": 36.55, "longitude": 139.73333, "state": "Tochigi"}, {"city": "Kanoya", "latitude": 31.38333, "longitude": 130.85, "state": "Kagoshima"}, {"city": "Kan\u2019onjich\u014d", "latitude": 34.1276, "longitude": 133.64598, "state": "Kagawa"}, {"city": "Kannabech\u014d-yahiro", "latitude": 34.55808, "longitude": 133.41796, "state": "Hiroshima"}, {"city": "Kanie", "latitude": 35.13333, "longitude": 136.8, "state": "Aichi"}, {"city": "Kanekomachi", "latitude": 36.41097, "longitude": 138.99621, "state": "Gunma"}, {"city": "Kanda", "latitude": 33.78333, "longitude": 130.98333, "state": "Fukuoka"}, {"city": "Kanazawa", "latitude": 36.6, "longitude": 136.61667, "state": "Ishikawa"}, {"city": "Kanaya", "latitude": 34.82022, "longitude": 138.12775, "state": "Shizuoka"}, {"city": "Kamojimach\u014d-j\u014dgejima", "latitude": 34.06803, "longitude": 134.35033, "state": "Tokushima"}, {"city": "Kamogatach\u014d-kamogata", "latitude": 34.53745, "longitude": 133.58967, "state": "Okayama"}, {"city": "Kamo", "latitude": 37.66442, "longitude": 139.03502, "state": "Niigata"}, {"city": "Kamirenjaku", "latitude": 35.69423, "longitude": 139.55495, "state": "Tokyo"}, {"city": "Kaminokawa", "latitude": 36.43333, "longitude": 139.91667, "state": "Tochigi"}, {"city": "Kamiichi", "latitude": 36.7, "longitude": 137.36667, "state": "Toyama"}, {"city": "Kamig\u014dri", "latitude": 34.8748, "longitude": 134.36191, "state": "Hy\u014dgo"}, {"city": "Kameyama", "latitude": 34.85, "longitude": 136.45, "state": "Mie"}, {"city": "Kameshima", "latitude": 35.66605, "longitude": 135.2917, "state": "Kyoto"}, {"city": "Kameoka", "latitude": 35.0, "longitude": 135.58333, "state": "Kyoto"}, {"city": "Kameda-honch\u014d", "latitude": 37.87214, "longitude": 139.1099, "state": "Niigata"}, {"city": "Kanbara", "latitude": 35.11738, "longitude": 138.60687, "state": "Shizuoka"}, {"city": "Kamakura", "latitude": 35.31085, "longitude": 139.54698, "state": "Kanagawa"}, {"city": "Kakogawach\u014d-honmachi", "latitude": 34.76943, "longitude": 134.82905, "state": "Hy\u014dgo"}, {"city": "Kakegawa", "latitude": 34.76667, "longitude": 138.01667, "state": "Shizuoka"}, {"city": "Kakamigahara", "latitude": 35.41667, "longitude": 136.86667, "state": "Gifu"}, {"city": "Kashima-shi", "latitude": 35.96536, "longitude": 140.64474, "state": "Ibaraki"}, {"city": "Kajiki", "latitude": 31.73333, "longitude": 130.66667, "state": "Kagoshima"}, {"city": "Kaizuka", "latitude": 34.45, "longitude": 135.35, "state": "\u014csaka"}, {"city": "Kainan", "latitude": 34.15166, "longitude": 135.21398, "state": "Wakayama"}, {"city": "Kagoshima", "latitude": 31.56667, "longitude": 130.55, "state": null}, {"city": "Kadoma", "latitude": 34.7381, "longitude": 135.57442, "state": "\u014csaka"}, {"city": "Kadogawa", "latitude": 32.47126, "longitude": 131.65452, "state": "Miyazaki"}, {"city": "Kadena", "latitude": 26.36519, "longitude": 127.75857, "state": "Okinawa"}, {"city": "Izumo", "latitude": 35.36667, "longitude": 132.76667, "state": "Shimane"}, {"city": "Izumisano", "latitude": 34.41667, "longitude": 135.31667, "state": "\u014csaka"}, {"city": "Izumi\u014dtsu", "latitude": 34.5, "longitude": 135.4, "state": "\u014csaka"}, {"city": "Izumi", "latitude": 34.48333, "longitude": 135.43333, "state": "\u014csaka"}, {"city": "Izumi", "latitude": 32.08333, "longitude": 130.36667, "state": "Kagoshima"}, {"city": "Izena", "latitude": 26.91651, "longitude": 127.93136, "state": "Okinawa"}, {"city": "Iwatsuki", "latitude": 35.96474, "longitude": 139.69644, "state": "Saitama"}, {"city": "Iwata", "latitude": 34.7, "longitude": 137.85, "state": "Shizuoka"}, {"city": "Iwakura", "latitude": 35.28333, "longitude": 136.86667, "state": "Aichi"}, {"city": "Iwakuni", "latitude": 34.16297, "longitude": 132.22, "state": "Yamaguchi"}, {"city": "Iwai", "latitude": 36.05, "longitude": 139.9, "state": "Ibaraki"}, {"city": "Iwade", "latitude": 34.25, "longitude": 135.31667, "state": "Wakayama"}, {"city": "Itsukaichi", "latitude": 35.72528, "longitude": 139.21778, "state": "Tokyo"}, {"city": "Itoman", "latitude": 26.12647, "longitude": 127.66918, "state": "Okinawa"}, {"city": "Itoigawa", "latitude": 37.03333, "longitude": 137.85, "state": "Niigata"}, {"city": "It\u014d", "latitude": 34.96667, "longitude": 139.08333, "state": "Shizuoka"}, {"city": "Itami", "latitude": 34.78427, "longitude": 135.40126, "state": "Hy\u014dgo"}, {"city": "Ishiki", "latitude": 34.8, "longitude": 137.01667, "state": "Aichi"}, {"city": "Ishikawa", "latitude": 26.42333, "longitude": 127.82139, "state": "Okinawa"}, {"city": "Ishii", "latitude": 34.06752, "longitude": 134.44208, "state": "Tokushima"}, {"city": "Ishige", "latitude": 36.11667, "longitude": 139.96667, "state": "Ibaraki"}, {"city": "Ishigaki", "latitude": 24.34478, "longitude": 124.15717, "state": "Okinawa"}, {"city": "Isesaki", "latitude": 36.31667, "longitude": 139.2, "state": "Gunma"}, {"city": "Isehara", "latitude": 35.39932, "longitude": 139.31019, "state": "Kanagawa"}, {"city": "Ise", "latitude": 34.48333, "longitude": 136.7, "state": "Mie"}, {"city": "Isawa", "latitude": 35.65, "longitude": 138.63333, "state": "Yamanashi"}, {"city": "Isahaya", "latitude": 32.84111, "longitude": 130.04306, "state": "Nagasaki"}, {"city": "Inuyama", "latitude": 35.37995, "longitude": 136.94295, "state": "Aichi"}, {"city": "Ino", "latitude": 33.55, "longitude": 133.43333, "state": "Kochi"}, {"city": "Innoshima", "latitude": 34.28333, "longitude": 133.18333, "state": "Hiroshima"}, {"city": "Inazawa", "latitude": 35.25, "longitude": 136.78333, "state": "Aichi"}, {"city": "Inami", "latitude": 33.80914, "longitude": 135.22052, "state": "Wakayama"}, {"city": "Ina", "latitude": 35.82756, "longitude": 137.95378, "state": "Nagano"}, {"city": "Imarich\u014d-k\u014d", "latitude": 33.27362, "longitude": 129.87877, "state": "Saga"}, {"city": "Imaichi", "latitude": 36.71667, "longitude": 139.68333, "state": "Tochigi"}, {"city": "Ikoma", "latitude": 34.68333, "longitude": 135.7, "state": "Nara"}, {"city": "Ikeda", "latitude": 36.41667, "longitude": 137.88333, "state": "Nagano"}, {"city": "Ikeda", "latitude": 34.82208, "longitude": 135.4298, "state": "\u014csaka"}, {"city": "Ikedach\u014d", "latitude": 34.02849, "longitude": 133.80616, "state": "Tokushima"}, {"city": "Ij\u016bin", "latitude": 31.61667, "longitude": 130.4, "state": "Kagoshima"}, {"city": "Iizuka", "latitude": 33.63654, "longitude": 130.68678, "state": "Fukuoka"}, {"city": "Iiyama", "latitude": 36.85, "longitude": 138.36667, "state": "Nagano"}, {"city": "Iijima", "latitude": 35.66667, "longitude": 137.93333, "state": "Nagano"}, {"city": "Iida", "latitude": 35.51965, "longitude": 137.82074, "state": "Nagano"}, {"city": "Ichinomiya", "latitude": 35.3, "longitude": 136.8, "state": "Aichi"}, {"city": "Ibusuki", "latitude": 31.23333, "longitude": 130.65, "state": "Kagoshima"}, {"city": "Ibaraki", "latitude": 34.81641, "longitude": 135.56828, "state": "\u014csaka"}, {"city": "Ibara", "latitude": 34.6, "longitude": 133.46667, "state": "Okayama"}, {"city": "Hotaka", "latitude": 36.3396, "longitude": 137.88254, "state": "Nagano"}, {"city": "H\u014dry\u016bji", "latitude": 34.61234, "longitude": 135.73754, "state": "Nara"}, {"city": "Honj\u014d", "latitude": 36.2378, "longitude": 139.19023, "state": "Saitama"}, {"city": "Hondomachi-hondo", "latitude": 32.45993, "longitude": 130.16713, "state": "Kumamoto"}, {"city": "H\u014dfu", "latitude": 34.05, "longitude": 131.56667, "state": "Yamaguchi"}, {"city": "Hitoyoshi", "latitude": 32.21667, "longitude": 130.75, "state": "Kumamoto"}, {"city": "Hita", "latitude": 33.3213, "longitude": 130.94098, "state": "Oita"}, {"city": "Hisai-motomachi", "latitude": 34.66667, "longitude": 136.46667, "state": "Mie"}, {"city": "Hiroshima", "latitude": 34.4, "longitude": 132.45, "state": null}, {"city": "Hiratsuka", "latitude": 35.32785, "longitude": 139.33735, "state": "Kanagawa"}, {"city": "Hiratach\u014d", "latitude": 35.43333, "longitude": 132.81667, "state": "Shimane"}, {"city": "Hirara", "latitude": 24.80379, "longitude": 125.30222, "state": "Okinawa"}, {"city": "Hirakata", "latitude": 34.81352, "longitude": 135.64914, "state": "\u014csaka"}, {"city": "Hirado", "latitude": 33.36853, "longitude": 129.55247, "state": "Nagasaki"}, {"city": "Hioki", "latitude": 31.58333, "longitude": 130.35, "state": "Kagoshima"}, {"city": "Hinokage", "latitude": 32.65, "longitude": 131.4, "state": "Miyazaki"}, {"city": "Hino", "latitude": 35.67306, "longitude": 139.40028, "state": "Tokyo"}, {"city": "Hino", "latitude": 35.0, "longitude": 136.25, "state": "Shiga"}, {"city": "Himimachi", "latitude": 36.85609, "longitude": 136.9885, "state": "Toyama"}, {"city": "Himeji", "latitude": 34.81667, "longitude": 134.7, "state": "Hy\u014dgo"}, {"city": "Hikone", "latitude": 35.25, "longitude": 136.25, "state": "Shiga"}, {"city": "Hiji", "latitude": 33.37081, "longitude": 131.53025, "state": "Oita"}, {"city": "Higashi-\u014dsaka", "latitude": 34.66667, "longitude": 135.58333, "state": "\u014csaka"}, {"city": "\u014ckubo", "latitude": 35.70307, "longitude": 139.70436, "state": "Tokyo"}, {"city": "Higashi-nihombashi", "latitude": 35.69322, "longitude": 139.78628, "state": "Tokyo"}, {"city": "Hekinan", "latitude": 34.88333, "longitude": 136.98333, "state": "Aichi"}, {"city": "Heda", "latitude": 34.96277, "longitude": 138.78543, "state": "Shizuoka"}, {"city": "Hayashima", "latitude": 34.60388, "longitude": 133.82947, "state": "Okayama"}, {"city": "Hayama", "latitude": 35.27651, "longitude": 139.57733, "state": "Kanagawa"}, {"city": "Hatsukaichi", "latitude": 34.35, "longitude": 132.33333, "state": "Hiroshima"}, {"city": "Hatogaya-honch\u014d", "latitude": 35.83314, "longitude": 139.7425, "state": "Saitama"}, {"city": "Hatch\u014dbori", "latitude": 35.67533, "longitude": 139.77529, "state": "Tokyo"}, {"city": "Hashimoto", "latitude": 34.31667, "longitude": 135.61667, "state": "Wakayama"}, {"city": "Hany\u016b", "latitude": 36.16667, "longitude": 139.53333, "state": "Saitama"}, {"city": "Hann\u014d", "latitude": 35.85194, "longitude": 139.31806, "state": "Saitama"}, {"city": "Haneda", "latitude": 35.54913, "longitude": 139.7456, "state": "Tokyo"}, {"city": "Handa", "latitude": 34.88333, "longitude": 136.93333, "state": "Aichi"}, {"city": "Hamanoichi", "latitude": 31.71667, "longitude": 130.73333, "state": "Kagoshima"}, {"city": "Hamamatsu", "latitude": 34.7, "longitude": 137.73333, "state": "Shizuoka"}, {"city": "Hamakita", "latitude": 34.8, "longitude": 137.78333, "state": "Shizuoka"}, {"city": "Hamada", "latitude": 34.88333, "longitude": 132.08333, "state": "Shimane"}, {"city": "Hakui", "latitude": 36.88333, "longitude": 136.78333, "state": "Ishikawa"}, {"city": "Hakone", "latitude": 35.18945, "longitude": 139.02649, "state": "Kanagawa"}, {"city": "Haibara-akanedai", "latitude": 34.53333, "longitude": 135.95, "state": "Nara"}, {"city": "Hagi", "latitude": 34.4, "longitude": 131.41667, "state": "Yamaguchi"}, {"city": "Katsuren-haebaru", "latitude": 26.33294, "longitude": 127.87403, "state": "Okinawa"}, {"city": "Hadano", "latitude": 35.37111, "longitude": 139.22361, "state": "Kanagawa"}, {"city": "Hachi\u014dji", "latitude": 35.65583, "longitude": 139.32389, "state": "Tokyo"}, {"city": "\u014cmihachiman", "latitude": 35.12861, "longitude": 136.0976, "state": "Shiga"}, {"city": "Gy\u014dda", "latitude": 36.14074, "longitude": 139.46011, "state": "Saitama"}, {"city": "Gushikawa", "latitude": 26.35937, "longitude": 127.86735, "state": "Okinawa"}, {"city": "G\u014dtsuch\u014d", "latitude": 35.00856, "longitude": 132.2257, "state": "Shimane"}, {"city": "Gotenba", "latitude": 35.31859, "longitude": 138.94343, "state": "Shizuoka"}, {"city": "Gosen", "latitude": 37.73333, "longitude": 139.16667, "state": "Niigata"}, {"city": "Gose", "latitude": 34.45, "longitude": 135.73333, "state": "Nara"}, {"city": "Goj\u014d", "latitude": 34.35, "longitude": 135.7, "state": "Nara"}, {"city": "G\u014ddo", "latitude": 35.41667, "longitude": 136.6, "state": "Gifu"}, {"city": "Gob\u014d", "latitude": 33.88153, "longitude": 135.1696, "state": "Wakayama"}, {"city": "Gion", "latitude": 34.43333, "longitude": 132.46667, "state": "Hiroshima"}, {"city": "Ginoza", "latitude": 26.4829, "longitude": 127.97779, "state": "Okinawa"}, {"city": "Ginowan", "latitude": 26.26265, "longitude": 127.76147, "state": "Okinawa"}, {"city": "Gifu-shi", "latitude": 35.42291, "longitude": 136.76039, "state": "Gifu"}, {"city": "Gamag\u014dri", "latitude": 34.83333, "longitude": 137.23333, "state": "Aichi"}, {"city": "Futtsu", "latitude": 35.3108, "longitude": 139.81877, "state": "Chiba"}, {"city": "Honch\u014d", "latitude": 35.70129, "longitude": 139.98648, "state": "Chiba"}, {"city": "Fukuyama", "latitude": 34.48333, "longitude": 133.36667, "state": "Hiroshima"}, {"city": "Fukuroi", "latitude": 34.75, "longitude": 137.91667, "state": "Shizuoka"}, {"city": "Fukura", "latitude": 34.25765, "longitude": 134.71535, "state": "Hy\u014dgo"}, {"city": "Fukuoka", "latitude": 33.6, "longitude": 130.41667, "state": null}, {"city": "Fukumitsu", "latitude": 36.55751, "longitude": 136.86945, "state": "Toyama"}, {"city": "Nishifukuma", "latitude": 33.76627, "longitude": 130.47461, "state": "Fukuoka"}, {"city": "Fukui-shi", "latitude": 36.06443, "longitude": 136.22257, "state": "Fukui"}, {"city": "Fukuech\u014d", "latitude": 32.69732, "longitude": 128.84561, "state": "Nagasaki"}, {"city": "Fukuchiyama", "latitude": 35.3, "longitude": 135.11667, "state": "Kyoto"}, {"city": "Fukiage-fujimi", "latitude": 36.1, "longitude": 139.45, "state": "Saitama"}, {"city": "Fukayach\u014d", "latitude": 36.2, "longitude": 139.28333, "state": "Saitama"}, {"city": "Fujisawa", "latitude": 35.34926, "longitude": 139.47666, "state": "Kanagawa"}, {"city": "Fujioka", "latitude": 36.25, "longitude": 139.65, "state": "Tochigi"}, {"city": "Fujioka", "latitude": 36.24624, "longitude": 139.07204, "state": "Gunma"}, {"city": "Fujinomiya", "latitude": 35.21667, "longitude": 138.61667, "state": "Shizuoka"}, {"city": "Fujieda", "latitude": 34.86667, "longitude": 138.26667, "state": "Shizuoka"}, {"city": "Fuji", "latitude": 35.16667, "longitude": 138.68333, "state": "Shizuoka"}, {"city": "Fuch\u016bch\u014d", "latitude": 34.5735, "longitude": 133.23513, "state": "Hiroshima"}, {"city": "Enzan", "latitude": 35.7, "longitude": 138.73333, "state": "Yamanashi"}, {"city": "Egota", "latitude": 35.72552, "longitude": 139.66516, "state": "Tokyo"}, {"city": "Den\u2019ench\u014dfu", "latitude": 35.59548, "longitude": 139.66535, "state": "Tokyo"}, {"city": "Dait\u014d", "latitude": 34.71378, "longitude": 135.62033, "state": "\u014csaka"}, {"city": "Ch\u014dfu", "latitude": 35.65924, "longitude": 139.54837, "state": "Tokyo"}, {"city": "Chizu", "latitude": 35.26667, "longitude": 134.23333, "state": "Tottori"}, {"city": "Chiry\u016b", "latitude": 35.0, "longitude": 137.03333, "state": "Aichi"}, {"city": "Chino", "latitude": 35.9944, "longitude": 138.15428, "state": "Nagano"}, {"city": "China", "latitude": 27.33333, "longitude": 128.56667, "state": "Kagoshima"}, {"city": "Chikushino-shi", "latitude": 33.49631, "longitude": 130.5156, "state": "Fukuoka"}, {"city": "Chigasaki", "latitude": 35.33638, "longitude": 139.40434, "state": "Kanagawa"}, {"city": "Chichibu", "latitude": 35.99028, "longitude": 139.07639, "state": "Saitama"}, {"city": "Chatan", "latitude": 26.30948, "longitude": 127.77024, "state": "Okinawa"}, {"city": "Beppu", "latitude": 33.27945, "longitude": 131.49751, "state": "Oita"}, {"city": "Ayabe", "latitude": 35.3, "longitude": 135.25, "state": "Kyoto"}, {"city": "Aya", "latitude": 31.98333, "longitude": 131.26667, "state": "Miyazaki"}, {"city": "Awara", "latitude": 36.22309, "longitude": 136.19236, "state": "Fukui"}, {"city": "Atami", "latitude": 35.08834, "longitude": 139.05325, "state": "Shizuoka"}, {"city": "Asuka", "latitude": 34.48085, "longitude": 135.82039, "state": "Nara"}, {"city": "Ashiya", "latitude": 34.72807, "longitude": 135.30264, "state": "Hy\u014dgo"}, {"city": "Ashiya", "latitude": 33.87346, "longitude": 130.65392, "state": "Fukuoka"}, {"city": "Ashikaga", "latitude": 36.33333, "longitude": 139.45, "state": "Tochigi"}, {"city": "Asakusa", "latitude": 35.71691, "longitude": 139.79575, "state": "Tokyo"}, {"city": "Asagaya-minami", "latitude": 35.70206, "longitude": 139.63745, "state": "Tokyo"}, {"city": "Arita", "latitude": 33.18333, "longitude": 129.9, "state": "Saga"}, {"city": "Arai", "latitude": 37.00059, "longitude": 138.2259, "state": "Niigata"}, {"city": "Arai", "latitude": 34.68333, "longitude": 137.56667, "state": "Shizuoka"}, {"city": "Annaka", "latitude": 36.33011, "longitude": 138.89585, "state": "Gunma"}, {"city": "Anj\u014d", "latitude": 34.95828, "longitude": 137.08054, "state": "Aichi"}, {"city": "Anan", "latitude": 33.91667, "longitude": 134.65, "state": "Tokushima"}, {"city": "Anamizu", "latitude": 37.23333, "longitude": 136.9, "state": "Ishikawa"}, {"city": "Amagi", "latitude": 33.41804, "longitude": 130.65413, "state": "Fukuoka"}, {"city": "Amagi", "latitude": 27.81667, "longitude": 128.9, "state": "Kagoshima"}, {"city": "Amagasaki", "latitude": 34.71667, "longitude": 135.41667, "state": "Hy\u014dgo"}, {"city": "Ama", "latitude": 36.09317, "longitude": 133.09159, "state": "Shimane"}, {"city": "Akune", "latitude": 32.01667, "longitude": 130.2, "state": "Kagoshima"}, {"city": "Kariya", "latitude": 34.75136, "longitude": 134.38734, "state": "Hy\u014dgo"}, {"city": "Aki", "latitude": 33.5, "longitude": 133.9, "state": "Kochi"}, {"city": "Aioi", "latitude": 34.80361, "longitude": 134.46806, "state": "Hy\u014dgo"}, {"city": "Ageoshimo", "latitude": 35.97145, "longitude": 139.61382, "state": "Saitama"}, {"city": "Ie", "latitude": 26.70972, "longitude": 127.80917, "state": "Okinawa"}, {"city": "Okinawa", "latitude": 26.33583, "longitude": 127.80139, "state": null}, {"city": "\u014csaki", "latitude": 31.425, "longitude": 131.02167, "state": "Kagoshima"}, {"city": "Kushima", "latitude": 31.48621, "longitude": 131.2421, "state": "Miyazaki"}, {"city": "Ojika", "latitude": 33.18333, "longitude": 129.06667, "state": "Nagasaki"}, {"city": "Hikari", "latitude": 33.955, "longitude": 131.95, "state": "Yamaguchi"}, {"city": "Seir\u014d", "latitude": 37.98333, "longitude": 139.255, "state": "Niigata"}, {"city": "Abu", "latitude": 34.5, "longitude": 131.46667, "state": "Yamaguchi"}, {"city": "Nagato", "latitude": 34.38333, "longitude": 131.2, "state": "Yamaguchi"}, {"city": "Hasuda", "latitude": 35.97113, "longitude": 139.6491, "state": "Saitama"}, {"city": "Kamifukuoka", "latitude": 35.87266, "longitude": 139.51369, "state": "Saitama"}, {"city": "Sayama", "latitude": 35.85295, "longitude": 139.41212, "state": "Saitama"}, {"city": "Fussa", "latitude": 35.73667, "longitude": 139.32361, "state": "Tokyo"}, {"city": "Asaka", "latitude": 35.80472, "longitude": 139.60194, "state": "Saitama"}, {"city": "Wako", "latitude": 35.78944, "longitude": 139.62333, "state": "Saitama"}, {"city": "Shimotoda", "latitude": 35.815, "longitude": 139.6853, "state": "Saitama"}, {"city": "Kimitsu", "latitude": 35.35043, "longitude": 139.87029, "state": "Chiba"}, {"city": "Miura", "latitude": 35.14, "longitude": 139.61917, "state": "Kanagawa"}, {"city": "Wakayama", "latitude": 34.23333, "longitude": 135.16667, "state": null}, {"city": "Iyo", "latitude": 33.75139, "longitude": 132.70139, "state": "Ehime"}, {"city": "Uwajima", "latitude": 33.22375, "longitude": 132.56001, "state": "Ehime"}, {"city": "Saij\u014d", "latitude": 33.91667, "longitude": 133.18333, "state": "Ehime"}, {"city": "\u014czu", "latitude": 33.5, "longitude": 132.55, "state": "Ehime"}, {"city": "Matsuyama", "latitude": 33.83916, "longitude": 132.76574, "state": "Ehime"}, {"city": "Masaki-ch\u014d", "latitude": 33.78757, "longitude": 132.71124, "state": "Ehime"}, {"city": "Kawanoech\u014d", "latitude": 34.01654, "longitude": 133.57844, "state": "Ehime"}, {"city": "Imabari", "latitude": 34.07001, "longitude": 133.00023, "state": "Ehime"}, {"city": "H\u014dj\u014d", "latitude": 33.97661, "longitude": 132.77767, "state": "Ehime"}, {"city": "Fukaura", "latitude": 40.64131, "longitude": 139.93202, "state": "Aomori"}, {"city": "Yuzawa", "latitude": 39.16667, "longitude": 140.5, "state": "Akita"}, {"city": "Yotsukaid\u014d", "latitude": 35.65, "longitude": 140.16667, "state": "Chiba"}, {"city": "Yonezawa", "latitude": 37.91, "longitude": 140.11667, "state": "Yamagata"}, {"city": "Yokote", "latitude": 39.31691, "longitude": 140.55034, "state": "Akita"}, {"city": "Yokoshiba", "latitude": 35.65, "longitude": 140.48333, "state": "Chiba"}, {"city": "Y\u014dkaichiba", "latitude": 35.7, "longitude": 140.55, "state": "Chiba"}, {"city": "Yanagawamachi-saiwaich\u014d", "latitude": 37.85, "longitude": 140.6, "state": "Fukushima"}, {"city": "Yamoto", "latitude": 38.42738, "longitude": 141.21487, "state": "Miyagi"}, {"city": "Yamagata", "latitude": 38.23333, "longitude": 140.36667, "state": null}, {"city": "Yamada", "latitude": 39.46667, "longitude": 141.95, "state": "Iwate"}, {"city": "Yachimata", "latitude": 35.65, "longitude": 140.31667, "state": "Chiba"}, {"city": "Yabuki", "latitude": 37.2, "longitude": 140.31667, "state": "Fukushima"}, {"city": "Watari", "latitude": 38.035, "longitude": 140.85111, "state": "Miyagi"}, {"city": "Wakuya", "latitude": 38.54465, "longitude": 141.13461, "state": "Miyagi"}, {"city": "Wada", "latitude": 35.03709, "longitude": 140.01624, "state": "Chiba"}, {"city": "Ushiku", "latitude": 35.96667, "longitude": 140.13333, "state": "Ibaraki"}, {"city": "Tsukuba", "latitude": 36.2, "longitude": 140.1, "state": "Ibaraki"}, {"city": "Toride", "latitude": 35.9, "longitude": 140.08333, "state": "Ibaraki"}, {"city": "T\u014dno", "latitude": 39.31667, "longitude": 141.53333, "state": "Iwate"}, {"city": "Tomobe", "latitude": 36.35, "longitude": 140.3, "state": "Ibaraki"}, {"city": "Tomiya", "latitude": 38.39306, "longitude": 140.88611, "state": "Miyagi"}, {"city": "Tomioka", "latitude": 37.33333, "longitude": 141.01667, "state": "Fukushima"}, {"city": "T\u014dgane", "latitude": 35.55, "longitude": 140.36667, "state": "Chiba"}, {"city": "Tend\u014d", "latitude": 38.35361, "longitude": 140.36972, "state": "Yamagata"}, {"city": "Tanagura", "latitude": 37.03046, "longitude": 140.38287, "state": "Fukushima"}, {"city": "Tako", "latitude": 35.73333, "longitude": 140.46667, "state": "Chiba"}, {"city": "Takahata", "latitude": 38.0025, "longitude": 140.19111, "state": "Yamagata"}, {"city": "Takahagi", "latitude": 36.71667, "longitude": 140.71667, "state": "Ibaraki"}, {"city": "Tagaj\u014d-shi", "latitude": 38.3, "longitude": 141.0, "state": "Miyagi"}, {"city": "Sukagawa", "latitude": 37.28333, "longitude": 140.38333, "state": "Fukushima"}, {"city": "Shizukuishi", "latitude": 39.69414, "longitude": 140.98442, "state": "Iwate"}, {"city": "Shisui", "latitude": 35.71667, "longitude": 140.26667, "state": "Chiba"}, {"city": "Shiroishi", "latitude": 38.00333, "longitude": 140.61833, "state": "Miyagi"}, {"city": "Shiroi", "latitude": 35.8, "longitude": 140.06667, "state": "Chiba"}, {"city": "Shiogama", "latitude": 38.31667, "longitude": 141.03333, "state": "Miyagi"}, {"city": "Shinj\u014d", "latitude": 38.75861, "longitude": 140.30083, "state": "Yamagata"}, {"city": "Shinmachi", "latitude": 35.18738, "longitude": 140.35792, "state": "Chiba"}, {"city": "Shibayama", "latitude": 35.68333, "longitude": 140.43333, "state": "Chiba"}, {"city": "Sendai", "latitude": 38.26667, "longitude": 140.86667, "state": "Miyagi"}, {"city": "Sawara", "latitude": 35.88333, "longitude": 140.5, "state": "Chiba"}, {"city": "Sakura", "latitude": 35.71667, "longitude": 140.23333, "state": "Chiba"}, {"city": "Sagae", "latitude": 38.3725, "longitude": 140.2725, "state": "Yamagata"}, {"city": "Ry\u016bgasaki", "latitude": 35.9, "longitude": 140.18333, "state": "Ibaraki"}, {"city": "Rifu", "latitude": 38.33092, "longitude": 140.97691, "state": "Miyagi"}, {"city": "\u014ctsuchi", "latitude": 39.36667, "longitude": 141.9, "state": "Iwate"}, {"city": "\u014ctawara", "latitude": 36.86667, "longitude": 140.03333, "state": "Tochigi"}, {"city": "\u014ctaki", "latitude": 35.28784, "longitude": 140.24363, "state": "Chiba"}, {"city": "Onagawa Ch\u014d", "latitude": 38.4466, "longitude": 141.44794, "state": "Miyagi"}, {"city": "\u014cmiya", "latitude": 36.55, "longitude": 140.41667, "state": "Ibaraki"}, {"city": "Omigawa", "latitude": 35.85, "longitude": 140.61667, "state": "Chiba"}, {"city": "\u014cmagari", "latitude": 39.45, "longitude": 140.48333, "state": "Akita"}, {"city": "Okunoya", "latitude": 36.28333, "longitude": 140.41667, "state": "Ibaraki"}, {"city": "\u014ckawara", "latitude": 38.05, "longitude": 140.73361, "state": "Miyagi"}, {"city": "\u014cishida", "latitude": 38.59696, "longitude": 140.37404, "state": "Yamagata"}, {"city": "\u014chara", "latitude": 35.24761, "longitude": 140.39289, "state": "Chiba"}, {"city": "\u014cfunato", "latitude": 39.07167, "longitude": 141.71667, "state": "Iwate"}, {"city": "Obanazawa", "latitude": 38.60333, "longitude": 140.40194, "state": "Yamagata"}, {"city": "\u014carai", "latitude": 36.31409, "longitude": 140.58389, "state": "Ibaraki"}, {"city": "\u014cami", "latitude": 35.51667, "longitude": 140.31667, "state": "Chiba"}, {"city": "Nihommatsu", "latitude": 37.58333, "longitude": 140.43333, "state": "Fukushima"}, {"city": "Natori-shi", "latitude": 38.16667, "longitude": 140.88333, "state": "Miyagi"}, {"city": "Narut\u014d", "latitude": 35.6, "longitude": 140.41667, "state": "Chiba"}, {"city": "Narita", "latitude": 35.78333, "longitude": 140.31667, "state": "Chiba"}, {"city": "Namie", "latitude": 37.48333, "longitude": 141.0, "state": "Fukushima"}, {"city": "Naka", "latitude": 36.05, "longitude": 140.16667, "state": "Ibaraki"}, {"city": "Nagai", "latitude": 38.10361, "longitude": 140.035, "state": "Yamagata"}, {"city": "Murata", "latitude": 38.11858, "longitude": 140.72434, "state": "Miyagi"}, {"city": "Motomiya", "latitude": 37.51391, "longitude": 140.40063, "state": "Fukushima"}, {"city": "Motegi", "latitude": 36.51667, "longitude": 140.18333, "state": "Tochigi"}, {"city": "Moriya", "latitude": 35.93333, "longitude": 140.0, "state": "Ibaraki"}, {"city": "Morioka", "latitude": 39.7, "longitude": 141.15, "state": "Iwate"}, {"city": "Mooka", "latitude": 36.43333, "longitude": 140.01667, "state": "Tochigi"}, {"city": "Mobara", "latitude": 35.42583, "longitude": 140.29608, "state": "Chiba"}, {"city": "Mizusawa", "latitude": 39.13333, "longitude": 141.13333, "state": "Iwate"}, {"city": "Miyako", "latitude": 39.64691, "longitude": 141.94057, "state": "Iwate"}, {"city": "Mito", "latitude": 36.35, "longitude": 140.45, "state": "Ibaraki"}, {"city": "Miharu", "latitude": 37.43333, "longitude": 140.48333, "state": "Fukushima"}, {"city": "Matsushima", "latitude": 38.37357, "longitude": 141.06105, "state": "Miyagi"}, {"city": "Mashiko", "latitude": 36.46667, "longitude": 140.1, "state": "Tochigi"}, {"city": "Marumori", "latitude": 37.91667, "longitude": 140.76667, "state": "Miyagi"}, {"city": "Makuhari", "latitude": 35.65, "longitude": 140.05, "state": "Chiba"}, {"city": "Makabe", "latitude": 36.26667, "longitude": 140.1, "state": "Ibaraki"}, {"city": "Kuroiso", "latitude": 36.96667, "longitude": 140.05, "state": "Tochigi"}, {"city": "K\u014dzaki", "latitude": 35.9, "longitude": 140.4, "state": "Chiba"}, {"city": "K\u014driyama", "latitude": 37.4, "longitude": 140.38333, "state": "Fukushima"}, {"city": "Koori", "latitude": 37.83333, "longitude": 140.51667, "state": "Fukushima"}, {"city": "Kogota", "latitude": 38.55, "longitude": 141.05, "state": "Miyagi"}, {"city": "Kitakami", "latitude": 39.28333, "longitude": 141.11667, "state": "Iwate"}, {"city": "Kitaibaraki", "latitude": 36.78671, "longitude": 140.74901, "state": "Ibaraki"}, {"city": "Kesennuma", "latitude": 38.90112, "longitude": 141.57746, "state": "Miyagi"}, {"city": "Kemigawa", "latitude": 35.65, "longitude": 140.06667, "state": "Chiba"}, {"city": "Kawasaki", "latitude": 38.17278, "longitude": 140.63694, "state": "Miyagi"}, {"city": "Kamogawa", "latitude": 35.0969, "longitude": 140.1003, "state": "Chiba"}, {"city": "Katsuura", "latitude": 35.14621, "longitude": 140.31507, "state": "Chiba"}, {"city": "Katsuta", "latitude": 36.38333, "longitude": 140.53333, "state": "Ibaraki"}, {"city": "Katori-shi", "latitude": 35.89767, "longitude": 140.49943, "state": "Chiba"}, {"city": "Kasama", "latitude": 36.38333, "longitude": 140.26667, "state": "Ibaraki"}, {"city": "Karasuyama", "latitude": 36.65, "longitude": 140.15, "state": "Tochigi"}, {"city": "Kaneyama", "latitude": 38.88389, "longitude": 140.33667, "state": "Yamagata"}, {"city": "Kanegasaki", "latitude": 39.2, "longitude": 141.11667, "state": "Iwate"}, {"city": "Kaminoyama", "latitude": 38.15389, "longitude": 140.27361, "state": "Yamagata"}, {"city": "Kamaishi", "latitude": 39.27694, "longitude": 141.86801, "state": "Iwate"}, {"city": "Kakunodatemachi", "latitude": 39.58926, "longitude": 140.56724, "state": "Akita"}, {"city": "Kakuda", "latitude": 37.97451, "longitude": 140.77202, "state": "Miyagi"}, {"city": "Iwase", "latitude": 36.35, "longitude": 140.1, "state": "Ibaraki"}, {"city": "Iwanuma", "latitude": 38.10472, "longitude": 140.85944, "state": "Miyagi"}, {"city": "Iwaki", "latitude": 37.05, "longitude": 140.88333, "state": "Fukushima"}, {"city": "Iwaizumi", "latitude": 39.85, "longitude": 141.8, "state": "Iwate"}, {"city": "Itako", "latitude": 35.93333, "longitude": 140.55, "state": "Ibaraki"}, {"city": "Ishioka", "latitude": 36.18333, "longitude": 140.26667, "state": "Ibaraki"}, {"city": "Ishinomaki", "latitude": 38.41667, "longitude": 141.3, "state": "Miyagi"}, {"city": "Ishikawa", "latitude": 37.15, "longitude": 140.45, "state": "Fukushima"}, {"city": "Inawashiro", "latitude": 37.56667, "longitude": 140.11667, "state": "Fukushima"}, {"city": "Iizakamachi", "latitude": 37.83333, "longitude": 140.45, "state": "Fukushima"}, {"city": "Ichinoseki", "latitude": 38.91667, "longitude": 141.13333, "state": "Iwate"}, {"city": "Ichinomiya", "latitude": 35.37211, "longitude": 140.37998, "state": "Chiba"}, {"city": "Ichihara", "latitude": 35.51667, "longitude": 140.08333, "state": "Chiba"}, {"city": "Hokota", "latitude": 36.15, "longitude": 140.51667, "state": "Ibaraki"}, {"city": "Hobaramachi", "latitude": 37.81667, "longitude": 140.55, "state": "Fukushima"}, {"city": "Hitachi", "latitude": 36.6, "longitude": 140.65, "state": "Ibaraki"}, {"city": "Higashine", "latitude": 38.43889, "longitude": 140.40056, "state": "Yamagata"}, {"city": "Hasaki", "latitude": 35.73333, "longitude": 140.83333, "state": "Chiba"}, {"city": "Hanawa", "latitude": 36.94727, "longitude": 140.41646, "state": "Fukushima"}, {"city": "Hanamaki", "latitude": 39.38333, "longitude": 141.11667, "state": "Iwate"}, {"city": "Goj\u014dnome", "latitude": 39.93333, "longitude": 140.11667, "state": "Akita"}, {"city": "Furukawa", "latitude": 38.57167, "longitude": 140.95556, "state": "Miyagi"}, {"city": "Funehikimachi-funehiki", "latitude": 37.44722, "longitude": 140.5771, "state": "Fukushima"}, {"city": "Funaishikawa", "latitude": 36.46667, "longitude": 140.56667, "state": "Ibaraki"}, {"city": "Funagata", "latitude": 38.68889, "longitude": 140.31944, "state": "Yamagata"}, {"city": "Fukushima", "latitude": 37.75, "longitude": 140.46667, "state": null}, {"city": "Fujishiro", "latitude": 35.91667, "longitude": 140.11667, "state": "Ibaraki"}, {"city": "Edosaki", "latitude": 35.95, "longitude": 140.31667, "state": "Ibaraki"}, {"city": "Date", "latitude": 37.81667, "longitude": 140.5, "state": "Fukushima"}, {"city": "Daigo", "latitude": 36.76667, "longitude": 140.35, "state": "Ibaraki"}, {"city": "Choshi", "latitude": 35.73333, "longitude": 140.83333, "state": "Chiba"}, {"city": "Ch\u014dnan", "latitude": 35.39701, "longitude": 140.23503, "state": "Chiba"}, {"city": "Chiba", "latitude": 35.6, "longitude": 140.11667, "state": null}, {"city": "Asakawa", "latitude": 37.08276, "longitude": 140.41365, "state": "Fukushima"}, {"city": "Asahi", "latitude": 35.71667, "longitude": 140.65, "state": "Chiba"}, {"city": "Ami", "latitude": 36.03333, "longitude": 140.2, "state": "Ibaraki"}, {"city": "Akita", "latitude": 39.71667, "longitude": 140.11667, "state": null}, {"city": "Abiko", "latitude": 35.86667, "longitude": 140.01667, "state": "Chiba"}, {"city": "\u014chira", "latitude": 38.47138, "longitude": 140.8715, "state": "Miyagi"}, {"city": "Motomachi", "latitude": 43.82634, "longitude": 144.09638, "state": "Hokkaido"}, {"city": "Y\u016bbari", "latitude": 43.03778, "longitude": 141.95778, "state": "Hokkaido"}, {"city": "Yokohama", "latitude": 41.08333, "longitude": 141.25, "state": "Aomori"}, {"city": "Wassamu", "latitude": 44.02083, "longitude": 142.41778, "state": "Hokkaido"}, {"city": "Wakkanai", "latitude": 45.40944, "longitude": 141.67389, "state": "Hokkaido"}, {"city": "Utashinai", "latitude": 43.51667, "longitude": 142.05, "state": "Hokkaido"}, {"city": "Ury\u016b", "latitude": 43.63944, "longitude": 141.88778, "state": "Hokkaido"}, {"city": "Urakawa", "latitude": 42.15556, "longitude": 142.78361, "state": "Hokkaido"}, {"city": "Honch\u014d", "latitude": 42.81094, "longitude": 143.65349, "state": "Hokkaido"}, {"city": "Tsukigata", "latitude": 43.33528, "longitude": 141.66944, "state": "Hokkaido"}, {"city": "Honch\u014d", "latitude": 43.70389, "longitude": 144.02111, "state": "Hokkaido"}, {"city": "Toyoura", "latitude": 42.57306, "longitude": 140.70833, "state": "Hokkaido"}, {"city": "Toyotomi", "latitude": 45.10222, "longitude": 141.77528, "state": "Hokkaido"}, {"city": "Toyokoro", "latitude": 42.82573, "longitude": 143.55178, "state": "Hokkaido"}, {"city": "Tomari", "latitude": 43.06667, "longitude": 140.5, "state": "Hokkaido"}, {"city": "Tomamae", "latitude": 44.30528, "longitude": 141.65444, "state": "Hokkaido"}, {"city": "Tomakomai", "latitude": 42.63694, "longitude": 141.60333, "state": "Hokkaido"}, {"city": "T\u014dbetsu", "latitude": 43.21694, "longitude": 141.51694, "state": "Hokkaido"}, {"city": "Teshio", "latitude": 44.87912, "longitude": 141.74162, "state": "Hokkaido"}, {"city": "Teshikaga", "latitude": 43.48044, "longitude": 144.49637, "state": "Hokkaido"}, {"city": "Mutsu", "latitude": 41.28944, "longitude": 141.21694, "state": "Aomori"}, {"city": "Takinoue", "latitude": 44.18889, "longitude": 143.07528, "state": "Hokkaido"}, {"city": "Takikawa", "latitude": 43.55278, "longitude": 141.90639, "state": "Hokkaido"}, {"city": "Takanosu", "latitude": 40.22268, "longitude": 140.36611, "state": "Akita"}, {"city": "Suttsu", "latitude": 42.78806, "longitude": 140.22556, "state": "Hokkaido"}, {"city": "Sunagawa", "latitude": 43.48639, "longitude": 141.90556, "state": "Hokkaido"}, {"city": "S\u014dbetsu", "latitude": 42.55583, "longitude": 140.88611, "state": "Hokkaido"}, {"city": "Shosanbetsu", "latitude": 44.53361, "longitude": 141.76972, "state": "Hokkaido"}, {"city": "Shizunai-furukawach\u014d", "latitude": 42.33389, "longitude": 142.36694, "state": "Hokkaido"}, {"city": "Shiraoi", "latitude": 42.55, "longitude": 141.35, "state": "Hokkaido"}, {"city": "Shiranuka", "latitude": 42.96286, "longitude": 144.08897, "state": "Hokkaido"}, {"city": "Shintoku", "latitude": 43.07472, "longitude": 142.83472, "state": "Hokkaido"}, {"city": "Furubira", "latitude": 43.27333, "longitude": 140.6375, "state": "Hokkaido"}, {"city": "Shimukappu", "latitude": 43.0, "longitude": 142.41667, "state": "Hokkaido"}, {"city": "Shinshimokawa", "latitude": 44.24489, "longitude": 142.67738, "state": "Hokkaido"}, {"city": "Shimo-furano", "latitude": 43.35, "longitude": 142.38333, "state": "Hokkaido"}, {"city": "Shimizu", "latitude": 43.00611, "longitude": 142.88472, "state": "Hokkaido"}, {"city": "Shikabe", "latitude": 42.02967, "longitude": 140.82282, "state": "Hokkaido"}, {"city": "Minamishibetsuch\u014d", "latitude": 44.15399, "longitude": 142.37307, "state": "Hokkaido"}, {"city": "Shibetsu", "latitude": 43.65899, "longitude": 145.13197, "state": "Hokkaido"}, {"city": "Honmachi", "latitude": 43.91145, "longitude": 144.66737, "state": "Hokkaido"}, {"city": "Nishiokoppe", "latitude": 44.33051, "longitude": 142.94857, "state": "Hokkaido"}, {"city": "Sarabetsu", "latitude": 42.656, "longitude": 143.18708, "state": "Hokkaido"}, {"city": "Sapporo", "latitude": 43.06667, "longitude": 141.35, "state": "Hokkaido"}, {"city": "Honch\u014d", "latitude": 42.12841, "longitude": 142.91785, "state": "Hokkaido"}, {"city": "Sai", "latitude": 41.43019, "longitude": 140.86429, "state": "Aomori"}, {"city": "Rusutsu", "latitude": 42.73417, "longitude": 140.87278, "state": "Hokkaido"}, {"city": "Rumoi", "latitude": 43.93444, "longitude": 141.64278, "state": "Hokkaido"}, {"city": "Rikubetsu", "latitude": 43.47095, "longitude": 143.7458, "state": "Hokkaido"}, {"city": "Rausu", "latitude": 44.01806, "longitude": 145.19197, "state": "Hokkaido"}, {"city": "Rankoshimachi", "latitude": 42.80904, "longitude": 140.53941, "state": "Hokkaido"}, {"city": "Bifuka", "latitude": 44.47528, "longitude": 142.34306, "state": "Hokkaido"}, {"city": "Pippu", "latitude": 43.86944, "longitude": 142.47389, "state": "Hokkaido"}, {"city": "\u014cwani", "latitude": 40.5197, "longitude": 140.56872, "state": "Aomori"}, {"city": "Otofuke", "latitude": 42.99167, "longitude": 143.20028, "state": "Hokkaido"}, {"city": "Otobe", "latitude": 41.96778, "longitude": 140.13806, "state": "Hokkaido"}, {"city": "Otaru", "latitude": 43.18944, "longitude": 141.00222, "state": "Hokkaido"}, {"city": "Oshamambe", "latitude": 42.50932, "longitude": 140.37733, "state": "Hokkaido"}, {"city": "\u014cmu", "latitude": 44.57778, "longitude": 142.96134, "state": "Hokkaido"}, {"city": "\u014cma", "latitude": 41.52728, "longitude": 140.9109, "state": "Aomori"}, {"city": "Okoppe", "latitude": 44.46944, "longitude": 143.12, "state": "Hokkaido"}, {"city": "Oketo", "latitude": 43.67993, "longitude": 143.58993, "state": "Hokkaido"}, {"city": "\u014cdate", "latitude": 40.27178, "longitude": 140.55756, "state": "Akita"}, {"city": "Obirach\u014d", "latitude": 44.01806, "longitude": 141.66833, "state": "Hokkaido"}, {"city": "Obihiro", "latitude": 42.91722, "longitude": 143.20444, "state": "Hokkaido"}, {"city": "Numata", "latitude": 43.80306, "longitude": 141.93889, "state": "Hokkaido"}, {"city": "Noshiro", "latitude": 40.20838, "longitude": 140.0274, "state": "Akita"}, {"city": "Noda", "latitude": 40.10639, "longitude": 141.81778, "state": "Iwate"}, {"city": "Noboribetsu", "latitude": 42.45215, "longitude": 141.17914, "state": "Hokkaido"}, {"city": "Niki", "latitude": 43.15, "longitude": 140.76667, "state": "Hokkaido"}, {"city": "Niikappu", "latitude": 42.35, "longitude": 142.31667, "state": "Hokkaido"}, {"city": "Nemuro", "latitude": 43.32361, "longitude": 145.575, "state": "Hokkaido"}, {"city": "Nayoro", "latitude": 44.35056, "longitude": 142.45778, "state": "Hokkaido"}, {"city": "Honch\u014d", "latitude": 41.8944, "longitude": 140.69386, "state": "Hokkaido"}, {"city": "Namioka", "latitude": 40.71069, "longitude": 140.59048, "state": "Aomori"}, {"city": "Nakatonbetsu", "latitude": 44.97413, "longitude": 142.29263, "state": "Hokkaido"}, {"city": "Nakashibetsu", "latitude": 43.54849, "longitude": 144.97181, "state": "Hokkaido"}, {"city": "Mobetsu", "latitude": 44.27096, "longitude": 143.36025, "state": "Hokkaido"}, {"city": "Nakagawa", "latitude": 44.81448, "longitude": 142.07816, "state": "Hokkaido"}, {"city": "Naie", "latitude": 43.41833, "longitude": 141.88778, "state": "Hokkaido"}, {"city": "Muroran", "latitude": 42.31722, "longitude": 140.98806, "state": "Hokkaido"}, {"city": "Mombetsu", "latitude": 44.3525, "longitude": 143.3525, "state": "Hokkaido"}, {"city": "Misawa", "latitude": 40.68682, "longitude": 141.38969, "state": "Aomori"}, {"city": "Yoichi", "latitude": 43.20389, "longitude": 140.77028, "state": "Hokkaido"}, {"city": "Mikasa", "latitude": 43.25581, "longitude": 141.88818, "state": "Hokkaido"}, {"city": "Makubetsu", "latitude": 45.37139, "longitude": 141.82111, "state": "Hokkaido"}, {"city": "Kuzumaki", "latitude": 40.04119, "longitude": 141.44041, "state": "Iwate"}, {"city": "Kutchan", "latitude": 42.90111, "longitude": 140.74056, "state": "Hokkaido"}, {"city": "Kushiro", "latitude": 42.975, "longitude": 144.37472, "state": "Hokkaido"}, {"city": "Kuromatsunai", "latitude": 42.66806, "longitude": 140.30611, "state": "Hokkaido"}, {"city": "Kuroishi", "latitude": 40.64581, "longitude": 140.58354, "state": "Aomori"}, {"city": "Kuji", "latitude": 40.18778, "longitude": 141.76889, "state": "Iwate"}, {"city": "Koshimizu", "latitude": 43.85895, "longitude": 144.46509, "state": "Hokkaido"}, {"city": "Kosaka", "latitude": 40.37899, "longitude": 140.73133, "state": "Akita"}, {"city": "Hiranai", "latitude": 40.92028, "longitude": 140.95556, "state": "Aomori"}, {"city": "Shimokizukuri", "latitude": 40.81609, "longitude": 140.37539, "state": "Aomori"}, {"city": "Kitami", "latitude": 43.80306, "longitude": 143.89083, "state": "Hokkaido"}, {"city": "Kimobetsu", "latitude": 42.79028, "longitude": 140.935, "state": "Hokkaido"}, {"city": "Kikonai", "latitude": 41.68283, "longitude": 140.43032, "state": "Hokkaido"}, {"city": "Asahimachi", "latitude": 44.10045, "longitude": 142.357, "state": "Hokkaido"}, {"city": "Kamishihoro", "latitude": 43.2351, "longitude": 143.28524, "state": "Hokkaido"}, {"city": "Kaminokuni", "latitude": 41.80257, "longitude": 140.11064, "state": "Hokkaido"}, {"city": "Kamikawa", "latitude": 43.84, "longitude": 142.77111, "state": "Hokkaido"}, {"city": "Kamiiso", "latitude": 41.82013, "longitude": 140.64482, "state": "Hokkaido"}, {"city": "Iwanai", "latitude": 42.97444, "longitude": 140.50889, "state": "Hokkaido"}, {"city": "Iwamizawa", "latitude": 43.20028, "longitude": 141.75972, "state": "Hokkaido"}, {"city": "Itayanagi", "latitude": 40.69546, "longitude": 140.45502, "state": "Aomori"}, {"city": "Ishikari", "latitude": 43.23972, "longitude": 141.35389, "state": "Hokkaido"}, {"city": "Imabetsu", "latitude": 41.175, "longitude": 140.48444, "state": "Aomori"}, {"city": "Ikeda", "latitude": 42.92139, "longitude": 143.45194, "state": "Hokkaido"}, {"city": "Ichinohe", "latitude": 40.21965, "longitude": 141.28986, "state": "Iwate"}, {"city": "Horonobe", "latitude": 45.01694, "longitude": 141.85139, "state": "Hokkaido"}, {"city": "Horokanai", "latitude": 44.01173, "longitude": 142.15157, "state": "Hokkaido"}, {"city": "Hokury\u016b", "latitude": 43.78333, "longitude": 141.91667, "state": "Hokkaido"}, {"city": "Kitahiroshima", "latitude": 42.97583, "longitude": 141.56722, "state": "Hokkaido"}, {"city": "Hirosaki", "latitude": 40.59306, "longitude": 140.4725, "state": "Aomori"}, {"city": "Hiroo", "latitude": 42.28234, "longitude": 143.29765, "state": "Hokkaido"}, {"city": "Hanawa", "latitude": 40.18361, "longitude": 140.78722, "state": "Akita"}, {"city": "Hakodate", "latitude": 41.77583, "longitude": 140.73667, "state": "Hokkaido"}, {"city": "Hachinohe", "latitude": 40.5, "longitude": 141.5, "state": "Aomori"}, {"city": "Haboro", "latitude": 44.35778, "longitude": 141.70222, "state": "Hokkaido"}, {"city": "Furano", "latitude": 43.35, "longitude": 142.38333, "state": "Hokkaido"}, {"city": "Fukushima", "latitude": 41.48031, "longitude": 140.25267, "state": "Hokkaido"}, {"city": "Fukagawa", "latitude": 43.70806, "longitude": 142.03917, "state": "Hokkaido"}, {"city": "Fujisaki", "latitude": 40.65314, "longitude": 140.49961, "state": "Aomori"}, {"city": "Esashi", "latitude": 44.93528, "longitude": 142.58472, "state": "Hokkaido"}, {"city": "Kanaura", "latitude": 44.70722, "longitude": 141.78889, "state": "Hokkaido"}, {"city": "Ebetsu", "latitude": 43.10806, "longitude": 141.55056, "state": "Hokkaido"}, {"city": "Date", "latitude": 42.46806, "longitude": 140.86806, "state": "Hokkaido"}, {"city": "Chitose", "latitude": 42.81944, "longitude": 141.65222, "state": "Hokkaido"}, {"city": "Chippubetsu", "latitude": 43.76667, "longitude": 141.96667, "state": "Hokkaido"}, {"city": "Biratori", "latitude": 42.58333, "longitude": 142.13333, "state": "Hokkaido"}, {"city": "Biei", "latitude": 43.58444, "longitude": 142.45972, "state": "Hokkaido"}, {"city": "Bibai", "latitude": 43.32472, "longitude": 141.85861, "state": "Hokkaido"}, {"city": "Mashike", "latitude": 43.85194, "longitude": 141.52139, "state": "Hokkaido"}, {"city": "Ashoro", "latitude": 43.23722, "longitude": 143.54278, "state": "Hokkaido"}, {"city": "Ashibetsu", "latitude": 43.50972, "longitude": 142.18556, "state": "Hokkaido"}, {"city": "Asahikawa", "latitude": 43.77063, "longitude": 142.36489, "state": "Hokkaido"}, {"city": "Aomori", "latitude": 40.81667, "longitude": 140.73333, "state": null}, {"city": "Akkeshi", "latitude": 43.03556, "longitude": 144.8525, "state": "Hokkaido"}, {"city": "Akaigawa", "latitude": 43.08333, "longitude": 140.81722, "state": "Hokkaido"}, {"city": "Akabira", "latitude": 43.55139, "longitude": 142.05306, "state": "Hokkaido"}, {"city": "Ajigasawa", "latitude": 40.77444, "longitude": 140.20306, "state": "Aomori"}, {"city": "Aibetsu", "latitude": 43.90655, "longitude": 142.57748, "state": "Hokkaido"}, {"city": "Abira", "latitude": 42.81667, "longitude": 141.83333, "state": "Hokkaido"}, {"city": "Abashiri", "latitude": 44.02127, "longitude": 144.26971, "state": "Hokkaido"}, {"city": "Yomogita", "latitude": 40.98015, "longitude": 140.65455, "state": "Aomori"}, {"city": "Goshogawara", "latitude": 40.80444, "longitude": 140.44139, "state": "Aomori"}, {"city": "Hamatonbetsu", "latitude": 45.13333, "longitude": 142.38333, "state": "Hokkaido"}, {"city": "Aso", "latitude": 32.93726, "longitude": 131.08008, "state": "Kumamoto"}, {"city": "K\u014dya", "latitude": 34.21294, "longitude": 135.62244, "state": "Wakayama"}, {"city": "Kachidoki", "latitude": 35.65775, "longitude": 139.77489, "state": "Tokyo"}, {"city": "Kihoku-ch\u014d", "latitude": 33.25592, "longitude": 132.68343, "state": "Ehime"}, {"city": "Nanto-shi", "latitude": 36.56922, "longitude": 136.91162, "state": "Toyama"}, {"city": "Kawage", "latitude": 34.80447, "longitude": 136.54645, "state": "Mie"}, {"city": "Asahi", "latitude": 35.97259, "longitude": 136.12455, "state": "Fukui"}, {"city": "Ikeda", "latitude": 35.89211, "longitude": 136.34153, "state": "Fukui"}, {"city": "Neyagawa", "latitude": 34.76615, "longitude": 135.62759, "state": "\u014csaka"}, {"city": "Umeda", "latitude": 34.70274, "longitude": 135.49778, "state": "\u014csaka"}, {"city": "Hitachi-Naka", "latitude": 36.39659, "longitude": 140.53479, "state": "Ibaraki"}, {"city": "Chikusei", "latitude": 36.316, "longitude": 139.98238, "state": "Ibaraki"}, {"city": "Kasumigaura", "latitude": 36.15326, "longitude": 140.24635, "state": "Ibaraki"}, {"city": "Tsuchiura", "latitude": 36.09047, "longitude": 140.21047, "state": "Ibaraki"}, {"city": "Tsukubamirai", "latitude": 35.98411, "longitude": 140.00929, "state": "Ibaraki"}, {"city": "Omitama", "latitude": 36.25449, "longitude": 140.37962, "state": "Ibaraki"}, {"city": "Hitachiomiya", "latitude": 36.56447, "longitude": 140.40269, "state": "Ibaraki"}, {"city": "Kamisu", "latitude": 35.89685, "longitude": 140.66666, "state": "Ibaraki"}, {"city": "Namegata", "latitude": 36.00705, "longitude": 140.49623, "state": "Ibaraki"}, {"city": "Sakuragawa", "latitude": 36.25052, "longitude": 140.11565, "state": "Ibaraki"}, {"city": "Band\u014d", "latitude": 36.06997, "longitude": 139.86705, "state": "Ibaraki"}, {"city": "Hitachi-ota", "latitude": 36.5513, "longitude": 140.52821, "state": "Ibaraki"}, {"city": "Inashiki", "latitude": 35.95633, "longitude": 140.32356, "state": "Ibaraki"}, {"city": "Azumino", "latitude": 36.28815, "longitude": 137.88705, "state": "Nagano"}, {"city": "Chikuma", "latitude": 36.52715, "longitude": 138.08943, "state": "Nagano"}, {"city": "Murayama", "latitude": 38.46972, "longitude": 140.41441, "state": "Yamagata"}, {"city": "Minamiashigara", "latitude": 35.31947, "longitude": 139.1096, "state": "Kanagawa"}, {"city": "Ritt\u014d", "latitude": 35.02745, "longitude": 135.99971, "state": "Shiga"}, {"city": "Takashima", "latitude": 35.41347, "longitude": 136.01612, "state": "Shiga"}, {"city": "K\u014dka", "latitude": 34.9802, "longitude": 136.15752, "state": "Shiga"}, {"city": "Katsuragi", "latitude": 34.48562, "longitude": 135.69698, "state": "Nara"}, {"city": "Kashiba", "latitude": 34.53472, "longitude": 135.70925, "state": "Nara"}, {"city": "Nanto", "latitude": 36.51274, "longitude": 136.89352, "state": "Toyama"}, {"city": "Oyabe", "latitude": 36.66667, "longitude": 136.85, "state": "Toyama"}, {"city": "Imizu", "latitude": 36.76835, "longitude": 137.12572, "state": "Toyama"}, {"city": "Kurobe-shi", "latitude": 36.90123, "longitude": 137.44955, "state": "Toyama"}, {"city": "Ebina", "latitude": 35.38121, "longitude": 139.39651, "state": "Kanagawa"}, {"city": "Tama", "latitude": 35.6436, "longitude": 139.46844, "state": "Tokyo"}, {"city": "Musashimurayama", "latitude": 35.74242, "longitude": 139.42635, "state": "Tokyo"}, {"city": "Akishima", "latitude": 35.72085, "longitude": 139.37999, "state": "Tokyo"}, {"city": "Higashiyamato", "latitude": 35.76298, "longitude": 139.44575, "state": "Tokyo"}, {"city": "Misato", "latitude": 35.84373, "longitude": 139.88347, "state": "Saitama"}, {"city": "Niiza", "latitude": 35.82088, "longitude": 139.55791, "state": "Saitama"}, {"city": "Tonami", "latitude": 36.62047, "longitude": 136.94321, "state": "Toyama"}, {"city": "Kahoku", "latitude": 36.75758, "longitude": 136.71162, "state": "Ishikawa"}, {"city": "Kaga", "latitude": 36.3, "longitude": 136.33333, "state": "Ishikawa"}, {"city": "Suzu", "latitude": 37.43459, "longitude": 137.26009, "state": "Ishikawa"}, {"city": "Matsuura", "latitude": 33.34058, "longitude": 129.69504, "state": "Nagasaki"}, {"city": "\u014cnoj\u014d", "latitude": 33.53567, "longitude": 130.47861, "state": "Fukuoka"}, {"city": "Kasuga", "latitude": 33.52594, "longitude": 130.4611, "state": "Fukuoka"}, {"city": "Aizu-Wakamatsu", "latitude": 37.49142, "longitude": 139.94546, "state": "Fukushima"}, {"city": "Minami-S\u014dma", "latitude": 37.62908, "longitude": 140.97868, "state": "Fukushima"}, {"city": "Iheya", "latitude": 27.01896, "longitude": 127.97437, "state": "Okinawa"}, {"city": "Kunigami", "latitude": 26.75886, "longitude": 128.16304, "state": "Okinawa"}, {"city": "Urasoe", "latitude": 26.25902, "longitude": 127.73012, "state": "Okinawa"}, {"city": "Uruma", "latitude": 26.37609, "longitude": 127.85908, "state": "Okinawa"}, {"city": "J\u014ds\u014d", "latitude": 36.03553, "longitude": 139.96143, "state": "Ibaraki"}, {"city": "Midori", "latitude": 36.44492, "longitude": 139.28448, "state": "Gunma"}, {"city": "Tarama", "latitude": 24.66851, "longitude": 124.70259, "state": "Okinawa"}, {"city": "Miyakojima", "latitude": 24.79016, "longitude": 125.31109, "state": "Okinawa"}, {"city": "Fujimino", "latitude": 35.90196, "longitude": 139.52489, "state": "Saitama"}, {"city": "Hidaka", "latitude": 35.91664, "longitude": 139.36233, "state": "Saitama"}, {"city": "Higashi-Matsuyama", "latitude": 36.03333, "longitude": 139.41667, "state": "Saitama"}, {"city": "Iruma", "latitude": 35.818, "longitude": 139.368, "state": "Saitama"}, {"city": "Kitamoto", "latitude": 36.03322, "longitude": 139.53775, "state": "Saitama"}, {"city": "Tsurugashima", "latitude": 35.95996, "longitude": 139.40283, "state": "Saitama"}, {"city": "S\u014dsa", "latitude": 35.71541, "longitude": 140.55309, "state": "Chiba"}, {"city": "Sanmu", "latitude": 35.62756, "longitude": 140.41762, "state": "Chiba"}, {"city": "S\u014dma", "latitude": 37.79283, "longitude": 140.92941, "state": "Fukushima"}, {"city": "Tamura", "latitude": 37.43055, "longitude": 140.60335, "state": "Fukushima"}, {"city": "Kinokawa", "latitude": 34.26973, "longitude": 135.41045, "state": "Wakayama"}, {"city": "Kumano", "latitude": 33.90389, "longitude": 136.12214, "state": "Mie"}, {"city": "Inabe", "latitude": 35.11344, "longitude": 136.57205, "state": "Mie"}, {"city": "Nasushiobara", "latitude": 36.97682, "longitude": 140.06642, "state": "Tochigi"}, {"city": "Shimotsuke", "latitude": 36.41323, "longitude": 139.86622, "state": "Tochigi"}, {"city": "Nasukarasuyama", "latitude": 36.65233, "longitude": 140.16084, "state": "Tochigi"}, {"city": "T\u014dmi", "latitude": 36.35582, "longitude": 138.36093, "state": "Nagano"}, {"city": "Komagane", "latitude": 35.71657, "longitude": 137.93745, "state": "Nagano"}, {"city": "Inzai", "latitude": 35.83479, "longitude": 140.16361, "state": "Chiba"}, {"city": "Isumi", "latitude": 35.23005, "longitude": 140.40492, "state": "Chiba"}, {"city": "Yachiyo", "latitude": 35.73531, "longitude": 140.12445, "state": "Chiba"}, {"city": "Tomisato", "latitude": 35.74483, "longitude": 140.40386, "state": "Chiba"}, {"city": "\u014csh\u016b", "latitude": 39.13927, "longitude": 141.1685, "state": "Iwate"}, {"city": "Hachimantai", "latitude": 39.89979, "longitude": 141.12989, "state": "Iwate"}, {"city": "Ninohe", "latitude": 40.29081, "longitude": 141.31334, "state": "Iwate"}, {"city": "\u014csaki", "latitude": 38.58866, "longitude": 140.973, "state": "Miyagi"}, {"city": "Higashimatsushima", "latitude": 38.40886, "longitude": 141.17901, "state": "Miyagi"}, {"city": "Kurihara", "latitude": 38.75, "longitude": 141.0, "state": "Miyagi"}, {"city": "Izunokuni", "latitude": 35.03907, "longitude": 138.95143, "state": "Shizuoka"}, {"city": "Izu", "latitude": 34.97159, "longitude": 138.94643, "state": "Shizuoka"}, {"city": "Kikugawa", "latitude": 34.70291, "longitude": 138.11978, "state": "Shizuoka"}, {"city": "Kosai", "latitude": 34.70053, "longitude": 137.52253, "state": "Shizuoka"}, {"city": "Susono", "latitude": 35.17388, "longitude": 138.90691, "state": "Shizuoka"}, {"city": "Omaezaki", "latitude": 34.59882, "longitude": 138.21934, "state": "Shizuoka"}, {"city": "Nikaho", "latitude": 39.27077, "longitude": 139.93949, "state": "Akita"}, {"city": "Daisen", "latitude": 39.44116, "longitude": 140.48961, "state": "Akita"}, {"city": "Oga", "latitude": 39.871, "longitude": 139.84926, "state": "Akita"}, {"city": "Yurihonj\u014d", "latitude": 39.3895, "longitude": 140.05813, "state": "Akita"}, {"city": "Katagami", "latitude": 39.87869, "longitude": 139.99767, "state": "Akita"}, {"city": "Kita-Akita", "latitude": 40.19956, "longitude": 140.39388, "state": "Akita"}, {"city": "Tsugaru", "latitude": 40.80357, "longitude": 140.40299, "state": "Aomori"}, {"city": "Hirakawa", "latitude": 40.58728, "longitude": 140.57107, "state": "Aomori"}, {"city": "Towada", "latitude": 40.62049, "longitude": 141.21067, "state": "Aomori"}, {"city": "Kitanagoya", "latitude": 35.24702, "longitude": 136.87832, "state": "Aichi"}, {"city": "Nisshin", "latitude": 35.13676, "longitude": 137.05238, "state": "Aichi"}, {"city": "Toyoake", "latitude": 35.038, "longitude": 136.99931, "state": "Aichi"}, {"city": "Chita", "latitude": 35.00267, "longitude": 136.8642, "state": "Aichi"}, {"city": "Aisai", "latitude": 35.16349, "longitude": 136.73222, "state": "Aichi"}, {"city": "Yamagata", "latitude": 35.47619, "longitude": 136.7721, "state": "Gifu"}, {"city": "Hashima", "latitude": 35.329, "longitude": 136.68051, "state": "Gifu"}, {"city": "Kaizu", "latitude": 35.20169, "longitude": 136.63505, "state": "Gifu"}, {"city": "Kani", "latitude": 35.40435, "longitude": 137.05595, "state": "Gifu"}, {"city": "Minokamo", "latitude": 35.48199, "longitude": 137.02166, "state": "Gifu"}, {"city": "Motosu", "latitude": 35.48384, "longitude": 136.67443, "state": "Gifu"}, {"city": "Guj\u014d", "latitude": 35.73691, "longitude": 136.95852, "state": "Gifu"}, {"city": "Ena", "latitude": 35.44722, "longitude": 137.38332, "state": "Gifu"}, {"city": "Nanj\u014d", "latitude": 26.14447, "longitude": 127.76697, "state": "Okinawa"}, {"city": "Agano", "latitude": 37.77392, "longitude": 139.22192, "state": "Niigata"}, {"city": "J\u014detsu", "latitude": 37.14828, "longitude": 138.23642, "state": "Niigata"}, {"city": "Minamiuonuma", "latitude": 37.08259, "longitude": 138.87413, "state": "Niigata"}, {"city": "Myoko", "latitude": 37.02534, "longitude": 138.25561, "state": "Niigata"}, {"city": "Sado", "latitude": 38.02496, "longitude": 138.35931, "state": "Niigata"}, {"city": "Tainai", "latitude": 38.06463, "longitude": 139.4056, "state": "Niigata"}, {"city": "Uonuma", "latitude": 37.24488, "longitude": 138.96234, "state": "Niigata"}, {"city": "Fujiidera", "latitude": 34.5676, "longitude": 135.5974, "state": "\u014csaka"}, {"city": "Habikino", "latitude": 34.55276, "longitude": 135.59097, "state": "\u014csaka"}, {"city": "Hannan", "latitude": 34.33333, "longitude": 135.25, "state": "\u014csaka"}, {"city": "Kawachi-Nagano", "latitude": 34.44108, "longitude": 135.58283, "state": "\u014csaka"}, {"city": "Sennan", "latitude": 34.34835, "longitude": 135.26842, "state": "\u014csaka"}, {"city": "Shij\u014dnawate", "latitude": 34.73333, "longitude": 135.68333, "state": "\u014csaka"}, {"city": "Hokuto", "latitude": 41.81626, "longitude": 140.63472, "state": "Hokkaido"}, {"city": "Saitama", "latitude": 35.90807, "longitude": 139.65657, "state": null}, {"city": "Inba", "latitude": 35.77549, "longitude": 140.2022, "state": "Chiba"}, {"city": "Niseko Town", "latitude": 42.77871, "longitude": 140.66903, "state": "Hokkaido"}, {"city": "Higashimurayama", "latitude": 35.75459, "longitude": 139.46852, "state": "Tokyo"}, {"city": "Fujikawaguchiko", "latitude": 35.48933, "longitude": 138.68832, "state": "Yamanashi"}, {"city": "Yawatahama", "latitude": 33.45737, "longitude": 132.4328, "state": "Ehime"}, {"city": "Kirishima", "latitude": 31.74087, "longitude": 130.76288, "state": "Kagoshima"}, {"city": "Amami", "latitude": 28.3769, "longitude": 129.49379, "state": "Kagoshima"}, {"city": "Rishiri Town", "latitude": 45.15928, "longitude": 141.19629, "state": "Hokkaido"}, {"city": "Arashiyama", "latitude": 35.01481, "longitude": 135.67755, "state": "Kyoto"}, {"city": "Oda", "latitude": 35.20103, "longitude": 132.49967, "state": "Shimane"}, {"city": "Dazaifu", "latitude": 33.51278, "longitude": 130.52389, "state": "Fukuoka"}, {"city": "Amakusa", "latitude": 32.45861, "longitude": 130.19306, "state": "Kumamoto"}, {"city": "Kamigy\u014d-ku", "latitude": 35.02954, "longitude": 135.75666, "state": "Kyoto"}, {"city": "Buzen", "latitude": 33.61153, "longitude": 131.13002, "state": "Fukuoka"}, {"city": "Yoshitomi", "latitude": 33.60247, "longitude": 131.17599, "state": "Fukuoka"}, {"city": "Ikata-ch\u014d", "latitude": 33.48833, "longitude": 132.35417, "state": "Ehime"}, {"city": "Inuotose", "latitude": 40.60176, "longitude": 141.32662, "state": "Aomori"}, {"city": "Furudate", "latitude": 40.52934, "longitude": 141.30553, "state": "Aomori"}, {"city": "Tsuruta", "latitude": 40.75221, "longitude": 140.43198, "state": "Aomori"}, {"city": "Inakadate", "latitude": 40.63096, "longitude": 140.55471, "state": "Aomori"}, {"city": "Sugamo", "latitude": 35.73484, "longitude": 139.73326, "state": "Tokyo"}, {"city": "Hatsudai", "latitude": 35.67729, "longitude": 139.68588, "state": "Tokyo"}, {"city": "Shimoigusa", "latitude": 35.72147, "longitude": 139.62196, "state": "Tokyo"}, {"city": "Isen", "latitude": 27.67609, "longitude": 128.93722, "state": "Kagoshima"}, {"city": "Misasa", "latitude": 35.41, "longitude": 133.89472, "state": "Tottori"}, {"city": "Fujimi", "latitude": 35.90087, "longitude": 138.25041, "state": "Nagano"}, {"city": "Oshino", "latitude": 35.45938, "longitude": 138.85852, "state": "Yamanashi"}, {"city": "Katashina", "latitude": 36.83897, "longitude": 139.2627, "state": "Gunma"}, {"city": "Hakuba", "latitude": 36.69818, "longitude": 137.86185, "state": "Nagano"}, {"city": "Nakano", "latitude": 35.70449, "longitude": 139.66946, "state": "Tokyo"}, {"city": "Izumizaki", "latitude": 37.15937, "longitude": 140.29692, "state": "Fukushima"}, {"city": "Nagatoro", "latitude": 36.10311, "longitude": 139.10951, "state": "Saitama"}, {"city": "Taishi", "latitude": 34.5202, "longitude": 135.63563, "state": "\u014csaka"}, {"city": "Kanmaki", "latitude": 34.56419, "longitude": 135.70627, "state": "Nara"}, {"city": "Nagaoka", "latitude": 34.93097, "longitude": 135.69203, "state": "Kyoto"},