[{"city": "Zorgo", "latitude": 12.24922, "longitude": -0.61527, "state": "Plateau-Central"}, {"city": "Zitenga", "latitude": 12.74846, "longitude": -1.30989, "state": "Plateau-Central"}, {"city": "Ziniar\u00e9", "latitude": 12.58186, "longitude": -1.2971, "state": "Plateau-Central"}, {"city": "Zingu\u00e9d\u00e9ss\u00e9", "latitude": 12.24661, "longitude": -1.58402, "state": "Centre"}, {"city": "Zabr\u00e9", "latitude": 11.1825, "longitude": -0.63222, "state": "Centre-Est"}, {"city": "Yalgo", "latitude": 12.93333, "longitude": -0.85, "state": "Centre-Nord"}, {"city": "Yako", "latitude": 12.9591, "longitude": -2.26075, "state": "Nord"}, {"city": "Tougan", "latitude": 13.0725, "longitude": -3.0694, "state": "Boucle du Mouhoun"}, {"city": "Toma", "latitude": 12.75844, "longitude": -2.89879, "state": "Boucle du Mouhoun"}, {"city": "To\u00e9ghin", "latitude": 12.8159, "longitude": -1.72763, "state": "Plateau-Central"}, {"city": "T\u00f4", "latitude": 11.44379, "longitude": -2.22548, "state": "Centre-Ouest"}, {"city": "Titao", "latitude": 13.76667, "longitude": -2.06667, "state": "Nord"}, {"city": "Tita", "latitude": 11.92092, "longitude": -2.51536, "state": "Centre-Ouest"}, {"city": "Tenkodogo", "latitude": 11.78, "longitude": -0.36972, "state": "Centre-Est"}, {"city": "Tanghin-Dassouri", "latitude": 12.27256, "longitude": -1.71704, "state": "Centre"}, {"city": "Sourgoubila", "latitude": 12.41462, "longitude": -1.80644, "state": "Plateau-Central"}, {"city": "Solenzo", "latitude": 12.17423, "longitude": -4.08477, "state": "Boucle du Mouhoun"}, {"city": "Sindou", "latitude": 10.66667, "longitude": -5.16667, "state": "Cascades Region"}, {"city": "Sigl\u00e9", "latitude": 12.55618, "longitude": -1.88775, "state": "Centre-Ouest"}, {"city": "Sebba", "latitude": 13.43641, "longitude": 0.53044, "state": "Sahel"}, {"city": "Sapouy", "latitude": 11.55444, "longitude": -1.77361, "state": "Centre-Ouest"}, {"city": "Sapon\u00e9", "latitude": 12.05356, "longitude": -1.60491, "state": "Centre-Sud"}, {"city": "Saonr\u00e9", "latitude": 12.2751, "longitude": -1.57692, "state": "Centre"}, {"city": "Sabou", "latitude": 12.06667, "longitude": -2.23333, "state": "Centre-Ouest"}, {"city": "Saaba", "latitude": 12.37136, "longitude": -1.41468, "state": "Centre"}, {"city": "R\u00e9o", "latitude": 12.31963, "longitude": -2.47094, "state": "Centre-Ouest"}, {"city": "Pouytenga", "latitude": 12.25162, "longitude": -0.42565, "state": "Centre-Est"}, {"city": "Nagr\u00e9ongo", "latitude": 12.47847, "longitude": -1.20129, "state": "Plateau-Central"}, {"city": "P\u00f4", "latitude": 11.16972, "longitude": -1.145, "state": "Centre-Sud"}, {"city": "Pitmoaga", "latitude": 12.24564, "longitude": -1.88148, "state": "Centre-Ouest"}, {"city": "Pissila", "latitude": 13.16417, "longitude": -0.8225, "state": "Centre-Nord"}, {"city": "Pama", "latitude": 11.24972, "longitude": 0.7075, "state": "Est"}, {"city": "Pabr\u00e9", "latitude": 12.52147, "longitude": -1.58631, "state": "Centre"}, {"city": "Pa", "latitude": 12.66667, "longitude": -3.95, "state": "Boucle du Mouhoun"}, {"city": "Oursi", "latitude": 14.67553, "longitude": -0.46033, "state": "Sahel"}, {"city": "Ourgou-Man\u00e9ga", "latitude": 12.77994, "longitude": -1.5077, "state": "Plateau-Central"}, {"city": "Ouargaye", "latitude": 11.50202, "longitude": 0.05886, "state": "Centre-Est"}, {"city": "Ouahigouya", "latitude": 13.58278, "longitude": -2.42158, "state": "Nord"}, {"city": "Ouagadougou", "latitude": 12.36566, "longitude": -1.53388, "state": "Centre"}, {"city": "Orodara", "latitude": 10.98115, "longitude": -4.91885, "state": "Hauts-Bassins"}, {"city": "Niou", "latitude": 12.76975, "longitude": -1.93376, "state": "Plateau-Central"}, {"city": "Nioko I", "latitude": 12.39501, "longitude": -1.43861, "state": "Centre"}, {"city": "Nouna", "latitude": 12.72939, "longitude": -3.86305, "state": "Boucle du Mouhoun"}, {"city": "Niangoloko", "latitude": 10.28333, "longitude": -4.91667, "state": "Cascades Region"}, {"city": "Natiaboani", "latitude": 11.69917, "longitude": 0.50611, "state": "Est"}, {"city": "Koubri", "latitude": 12.19785, "longitude": -1.40662, "state": "Centre"}, {"city": "Mogt\u00e9do", "latitude": 12.28444, "longitude": -0.83722, "state": "Plateau-Central"}, {"city": "Manga", "latitude": 11.66361, "longitude": -1.07306, "state": "Centre-Sud"}, {"city": "Man\u00e9", "latitude": 12.98836, "longitude": -1.34434, "state": "Centre-Nord"}, {"city": "Loumbila", "latitude": 12.51863, "longitude": -1.3734, "state": "Plateau-Central"}, {"city": "L\u00e9o", "latitude": 11.10033, "longitude": -2.10654, "state": "Centre-Ouest"}, {"city": "Laye", "latitude": 12.53118, "longitude": -1.77684, "state": "Plateau-Central"}, {"city": "Koup\u00e9la", "latitude": 12.17864, "longitude": -0.35103, "state": "Centre-Est"}, {"city": "Kouka", "latitude": 13.4345, "longitude": -1.61361, "state": "Centre-Nord"}, {"city": "Koudougou", "latitude": 12.25263, "longitude": -2.36272, "state": "Centre-Ouest"}, {"city": "Korsimoro", "latitude": 12.82506, "longitude": -1.06737, "state": "Centre-Nord"}, {"city": "Kongoussi", "latitude": 13.32583, "longitude": -1.53472, "state": "Centre-Nord"}, {"city": "Komsilga", "latitude": 12.18653, "longitude": -1.63379, "state": "Centre"}, {"city": "Komki-Ipala", "latitude": 12.18279, "longitude": -1.79131, "state": "Centre"}, {"city": "Kombissiri", "latitude": 12.06884, "longitude": -1.33644, "state": "Centre-Sud"}, {"city": "Kokologo", "latitude": 12.19392, "longitude": -1.87687, "state": "Centre-Ouest"}, {"city": "Kindi", "latitude": 12.4386, "longitude": -2.03279, "state": "Centre-Ouest"}, {"city": "Kayao", "latitude": 12.01295, "longitude": -1.8419, "state": "Centre-Sud"}, {"city": "Kaya", "latitude": 13.09167, "longitude": -1.08444, "state": "Centre-Nord"}, {"city": "Karankasso", "latitude": 11.22191, "longitude": -4.64423, "state": "Hauts-Bassins"}, {"city": "Hound\u00e9", "latitude": 11.5, "longitude": -3.51667, "state": "Hauts-Bassins"}, {"city": "Gourcy", "latitude": 13.20776, "longitude": -2.35893, "state": "Nord"}, {"city": "Goulour\u00e9", "latitude": 12.23484, "longitude": -1.93394, "state": "Centre-Ouest"}, {"city": "Gorom-Gorom", "latitude": 14.4429, "longitude": -0.23468, "state": "Sahel"}, {"city": "Gay\u00e9ri", "latitude": 12.64824, "longitude": 0.49314, "state": "Est"}, {"city": "Garango", "latitude": 11.8, "longitude": -0.55056, "state": "Centre-Est"}, {"city": "Gaoua", "latitude": 10.33137, "longitude": -3.18202, "state": "Sud-Ouest"}, {"city": "Gaongo", "latitude": 12.00414, "longitude": -1.16455, "state": "Centre-Sud"}, {"city": "Fara Department", "latitude": 11.52941, "longitude": -2.76797, "state": "Boucle du Mouhoun"}, {"city": "Fada N'gourma", "latitude": 12.06157, "longitude": 0.35843, "state": "Est"}, {"city": "Dori", "latitude": 14.0341, "longitude": -0.03261, "state": "Sahel"}, {"city": "Djibo", "latitude": 14.0994, "longitude": -1.62554, "state": "Sahel"}, {"city": "Di\u00e9bougou", "latitude": 10.96209, "longitude": -3.24967, "state": "Sud-Ouest"}, {"city": "Diapaga", "latitude": 12.07305, "longitude": 1.78838, "state": "Est"}, {"city": "D\u00e9ou", "latitude": 14.60084, "longitude": -0.71901, "state": "Sahel"}, {"city": "D\u00e9dougou", "latitude": 12.46338, "longitude": -3.46075, "state": "Boucle du Mouhoun"}, {"city": "Dap\u00e9logo", "latitude": 12.67274, "longitude": -1.53907, "state": "Plateau-Central"}, {"city": "Dano", "latitude": 11.1464, "longitude": -3.05784, "state": "Sud-Ouest"}, {"city": "Gomboussougou", "latitude": 11.42611, "longitude": -0.77278, "state": "Centre-Sud"}, {"city": "Boussouma", "latitude": 12.91069, "longitude": -1.0819, "state": "Centre-Nord"}, {"city": "Bouss\u00e9", "latitude": 12.66121, "longitude": -1.89515, "state": "Plateau-Central"}, {"city": "Bourzanga", "latitude": 13.67806, "longitude": -1.54611, "state": "Centre-Nord"}, {"city": "Boulsa", "latitude": 12.66664, "longitude": -0.57469, "state": "Centre-Nord"}, {"city": "Boromo", "latitude": 11.74542, "longitude": -2.93006, "state": "Boucle du Mouhoun"}, {"city": "Bogand\u00e9", "latitude": 12.9704, "longitude": -0.14953, "state": "Est"}, {"city": "Bobo-Dioulasso", "latitude": 11.17715, "longitude": -4.2979, "state": "Hauts-Bassins"}, {"city": "Bittou", "latitude": 11.25806, "longitude": -0.30611, "state": "Centre-Est"}, {"city": "Bingo", "latitude": 12.30092, "longitude": -1.8348, "state": "Centre-Ouest"}, {"city": "Bilanga", "latitude": 12.54652, "longitude": -0.02438, "state": "Est"}, {"city": "B\u00e9gu\u00e9do", "latitude": 11.78083, "longitude": -0.73389, "state": "Centre-Est"}, {"city": "Bati\u00e9", "latitude": 9.88333, "longitude": -2.91667, "state": "Sud-Ouest"}, {"city": "Barogo", "latitude": 12.55, "longitude": -0.96667, "state": "Plateau-Central"}, {"city": "Barani", "latitude": 13.1691, "longitude": -3.8899, "state": "Boucle du Mouhoun"}, {"city": "Banfora", "latitude": 10.63333, "longitude": -4.76667, "state": "Cascades Region"}, {"city": "Bama", "latitude": 12.0357, "longitude": -4.3987, "state": "Boucle du Mouhoun"}, {"city": "Aribinda", "latitude": 14.22963, "longitude": -0.86537, "state": "Sahel"}, {"city": "Absouya", "latitude": 12.6406, "longitude": -1.05426, "state": "Plateau-Central"}, {"city": "Tin-Akoff", "latitude": 14.96549, "longitude": -0.16335, "state": "Sahel"}, {"city": "Mani", "latitude": 13.25833, "longitude": -0.21306, "state": "Est"}, {"city": "Boundor\u00e9", "latitude": 13.44114, "longitude": 0.90735, "state": "Sahel"}, {"city": "Namponkor\u00e9", "latitude": 11.73748, "longitude": 1.77718, "state": "Est"}, {"city": "Cinkans\u00e9", "latitude": 11.11857, "longitude": 0.00993, "state": "Centre-Est"}, {"city": "Kompienga", "latitude": 11.08169, "longitude": 0.72365, "state": "Est"}]