[{"city": "El Tarter", "latitude": 42.57952, "longitude": 1.65362, "state": "Canillo"}, {"city": "Sant Juli\u00e0 de L\u00f2ria", "latitude": 42.46372, "longitude": 1.49129, "state": "Sant Juli\u00e0 de Loria"}, {"city": "Pas de la Casa", "latitude": 42.54277, "longitude": 1.73361, "state": "Encamp"}, {"city": "Ordino", "latitude": 42.55623, "longitude": 1.53319, "state": null}, {"city": "les Escaldes", "latitude": 42.50729, "longitude": 1.53414, "state": "Escaldes-Engordany"}, {"city": "la Massana", "latitude": 42.54499, "longitude": 1.51483, "state": "La Massana"}, {"city": "Encamp", "latitude": 42.53474, "longitude": 1.58014, "state": null}, {"city": "Canillo", "latitude": 42.5676, "longitude": 1.59756, "state": null}, {"city": "Arinsal", "latitude": 42.57205, "longitude": 1.48453, "state": "La Massana"}, {"city": "Andorra la Vella", "latitude": 42.50779, "longitude": 1.52109, "state": null}]