[{"city": "Zhumysker", "latitude": 49.33333, "longitude": 49.4, "state": null}, {"city": "Zhetybay", "latitude": 43.58928, "longitude": 52.10313, "state": "Mangghysta\u016b"}, {"city": "Zhanaozen", "latitude": 43.34116, "longitude": 52.86192, "state": "Mangghysta\u016b"}, {"city": "Temir", "latitude": 49.14284, "longitude": 57.12736, "state": "Aqt\u00f6be"}, {"city": "Ta\u016bshyq", "latitude": 44.34678, "longitude": 51.34932, "state": "Mangghysta\u016b"}, {"city": "Shubarshi", "latitude": 48.58022, "longitude": 57.18289, "state": "Aqt\u00f6be"}, {"city": "Shubarkuduk", "latitude": 49.14391, "longitude": 56.48196, "state": "Aqt\u00f6be"}, {"city": "Shetpe", "latitude": 44.13922, "longitude": 52.15305, "state": "Mangghysta\u016b"}, {"city": "Shalqar", "latitude": 47.83154, "longitude": 59.61926, "state": "Aqt\u00f6be"}, {"city": "Shalkar", "latitude": 48.03333, "longitude": 48.9, "state": "Atyra\u016b"}, {"city": "Say-Utes", "latitude": 44.32787, "longitude": 53.53216, "state": "Mangghysta\u016b"}, {"city": "Saykhin", "latitude": 48.85611, "longitude": 46.83361, "state": "Batys Qazaqstan"}, {"city": "Saykhin", "latitude": 48.81441, "longitude": 46.76946, "state": "Batys Qazaqstan"}, {"city": "Peremetnoe", "latitude": 51.19801, "longitude": 50.85291, "state": "Batys Qazaqstan"}, {"city": "Uil", "latitude": 49.0725, "longitude": 54.66304, "state": "Aqt\u00f6be"}, {"city": "Oral", "latitude": 51.23333, "longitude": 51.36667, "state": "Batys Qazaqstan"}, {"city": "Kandyagash", "latitude": 49.46917, "longitude": 57.41865, "state": "Aqt\u00f6be"}, {"city": "Qobda", "latitude": 50.14928, "longitude": 55.66889, "state": "Aqt\u00f6be"}, {"city": "Munayshy", "latitude": 43.49988, "longitude": 52.09745, "state": "Mangghysta\u016b"}, {"city": "Miyaly", "latitude": 48.88548, "longitude": 53.79168, "state": "Atyra\u016b"}, {"city": "Martuk", "latitude": 50.74746, "longitude": 56.50611, "state": "Aqt\u00f6be"}, {"city": "Maqat", "latitude": 47.64967, "longitude": 53.34291, "state": "Atyra\u016b"}, {"city": "Mangistau", "latitude": 43.69088, "longitude": 51.32237, "state": "Mangghysta\u016b"}, {"city": "Maloye Ganyushkino", "latitude": 46.6, "longitude": 49.26667, "state": "Atyra\u016b"}, {"city": "Makhambet", "latitude": 47.67061, "longitude": 51.58598, "state": "Atyra\u016b"}, {"city": "Qulsary", "latitude": 46.95307, "longitude": 54.01978, "state": "Atyra\u016b"}, {"city": "Kruglooz\u00ebrnoye", "latitude": 51.08167, "longitude": 51.29052, "state": "Batys Qazaqstan"}, {"city": "Khromtau", "latitude": 50.25161, "longitude": 58.43574, "state": "Aqt\u00f6be"}, {"city": "Kaztalovka", "latitude": 49.76702, "longitude": 48.6893, "state": "Batys Qazaqstan"}, {"city": "Karaton", "latitude": 46.43685, "longitude": 53.48905, "state": "Atyra\u016b"}, {"city": "Karatobe", "latitude": 49.68914, "longitude": 53.51005, "state": "Batys Qazaqstan"}, {"city": "Karagandy", "latitude": 49.80187, "longitude": 73.10211, "state": "Karaganda"}, {"city": "Tasqala", "latitude": 51.11073, "longitude": 50.29454, "state": "Batys Qazaqstan"}, {"city": "Inderbor", "latitude": 48.55, "longitude": 51.78333, "state": "Atyra\u016b"}, {"city": "Fort-Shevchenko", "latitude": 44.50654, "longitude": 50.26388, "state": "Mangghysta\u016b"}, {"city": "Terekti", "latitude": 51.2221, "longitude": 51.95731, "state": "Batys Qazaqstan"}, {"city": "Kuryk", "latitude": 43.18032, "longitude": 51.68116, "state": "Mangghysta\u016b"}, {"city": "Embi", "latitude": 48.82981, "longitude": 58.15042, "state": "Aqt\u00f6be"}, {"city": "Zhanibek", "latitude": 49.42278, "longitude": 46.84626, "state": "Batys Qazaqstan"}, {"city": "Zhangaqala", "latitude": 49.21532, "longitude": 50.29009, "state": "Batys Qazaqstan"}, {"city": "Zhympity", "latitude": 50.25645, "longitude": 52.59707, "state": "Batys Qazaqstan"}, {"city": "Dossor", "latitude": 47.53234, "longitude": 52.9709, "state": "Atyra\u016b"}, {"city": "Shyngyrlau", "latitude": 51.09959, "longitude": 54.08412, "state": "Batys Qazaqstan"}, {"city": "Chapayev", "latitude": 50.18888, "longitude": 51.16978, "state": "Batys Qazaqstan"}, {"city": "Burlin", "latitude": 51.42781, "longitude": 52.71076, "state": "Batys Qazaqstan"}, {"city": "Beyneu", "latitude": 45.31667, "longitude": 55.2, "state": "Mangghysta\u016b"}, {"city": "Bayganin", "latitude": 48.68975, "longitude": 55.87512, "state": "Aqt\u00f6be"}, {"city": "Baychunas", "latitude": 47.2404, "longitude": 52.9403, "state": "Atyra\u016b"}, {"city": "Bautino", "latitude": 44.54479, "longitude": 50.24629, "state": "Mangghysta\u016b"}, {"city": "Badamsha", "latitude": 50.56183, "longitude": 58.2772, "state": "Aqt\u00f6be"}, {"city": "Balykshi", "latitude": 47.06667, "longitude": 51.86667, "state": "Atyra\u016b"}, {"city": "Atyrau", "latitude": 47.11667, "longitude": 51.88333, "state": "Atyra\u016b"}, {"city": "Aktobe", "latitude": 50.27969, "longitude": 57.20718, "state": "Aqt\u00f6be"}, {"city": "Shevchenko", "latitude": 43.64806, "longitude": 51.17222, "state": "Mangghysta\u016b"}, {"city": "Aqsay", "latitude": 51.1681, "longitude": 52.99782, "state": "Batys Qazaqstan"}, {"city": "Algha", "latitude": 49.89863, "longitude": 57.32787, "state": "Aqt\u00f6be"}, {"city": "Akkistau", "latitude": 47.22107, "longitude": 51.0063, "state": "Atyra\u016b"}, {"city": "Akkol\u2019", "latitude": 48.77358, "longitude": 53.18177, "state": "Atyra\u016b"}, {"city": "Umirzak", "latitude": 43.59762, "longitude": 51.24094, "state": "Mangghysta\u016b"}, {"city": "Qasym Qaysenov", "latitude": 49.87386, "longitude": 82.49485, "state": "East Kazakhstan"}, {"city": "Altay", "latitude": 49.73626, "longitude": 84.25416, "state": "East Kazakhstan"}, {"city": "Zhosaly", "latitude": 45.48778, "longitude": 64.07806, "state": "Qyzylorda"}, {"city": "Zholymbet", "latitude": 51.74259, "longitude": 71.70971, "state": "Aqmola"}, {"city": "Zhezqazghan", "latitude": 47.78746, "longitude": 67.71118, "state": "Ulytau Region"}, {"city": "Zhezkent", "latitude": 50.93112, "longitude": 81.3615, "state": "Abai Region"}, {"city": "Zhitikara", "latitude": 52.19019, "longitude": 61.19894, "state": "Qostanay"}, {"city": "Zhelezinka", "latitude": 53.5388, "longitude": 75.31326, "state": "Pavlodar Region"}, {"city": "Zharyk", "latitude": 48.85692, "longitude": 72.83598, "state": "Karaganda"}, {"city": "Zhansugurov", "latitude": 45.39743, "longitude": 79.50345, "state": "Jetisu Region"}, {"city": "Zhangatas", "latitude": 43.56274, "longitude": 69.73209, "state": "Zhambyl"}, {"city": "Novokazalinsk", "latitude": 45.84806, "longitude": 62.15254, "state": "Qyzylorda"}, {"city": "Taraz", "latitude": 42.9, "longitude": 71.36667, "state": "Zhambyl"}, {"city": "Zhalghyztobe", "latitude": 49.21094, "longitude": 81.21596, "state": "East Kazakhstan"}, {"city": "Zhaksy", "latitude": 51.91058, "longitude": 67.31665, "state": "Aqmola"}, {"city": "Zerenda", "latitude": 52.90599, "longitude": 69.15593, "state": "Aqmola"}, {"city": "Zaysan", "latitude": 47.46657, "longitude": 84.87144, "state": "East Kazakhstan"}, {"city": "Tobyl", "latitude": 53.20666, "longitude": 63.70038, "state": "Qostanay"}, {"city": "Yul\u2019yevka", "latitude": 52.11775, "longitude": 64.27539, "state": "Qostanay"}, {"city": "Yrghyz", "latitude": 48.61958, "longitude": 61.26067, "state": "Aqt\u00f6be"}, {"city": "Yavlenka", "latitude": 54.34525, "longitude": 68.4574, "state": "North Kazakhstan"}, {"city": "Zhangaqorghan", "latitude": 43.90652, "longitude": 67.24637, "state": "Qyzylorda"}, {"city": "Vozvyshenka", "latitude": 54.4354, "longitude": 70.94224, "state": "North Kazakhstan"}, {"city": "Saumalkol\u2019", "latitude": 53.2927, "longitude": 68.105, "state": "North Kazakhstan"}, {"city": "Arshaly", "latitude": 50.83112, "longitude": 72.17995, "state": "Aqmola"}, {"city": "Verkhniye Kayrakty", "latitude": 48.68333, "longitude": 73.28333, "state": "Karaganda"}, {"city": "Turar Ryskulov", "latitude": 42.5334, "longitude": 70.3496, "state": "South Kazakhstan"}, {"city": "Uzunagach", "latitude": 43.22259, "longitude": 76.31871, "state": "Almaty Oblysy"}, {"city": "\u016ast\u2019-Talovka", "latitude": 50.55058, "longitude": 81.84847, "state": "East Kazakhstan"}, {"city": "Uspenka", "latitude": 52.90727, "longitude": 77.41813, "state": "Pavlodar Region"}, {"city": "Ushtobe", "latitude": 45.25258, "longitude": 77.98284, "state": "Jetisu Region"}, {"city": "Sarykol'", "latitude": 53.31891, "longitude": 65.53923, "state": "Qostanay"}, {"city": "Urzhar", "latitude": 47.09302, "longitude": 81.62939, "state": "East Kazakhstan"}, {"city": "Ulytau", "latitude": 48.65504, "longitude": 67.00586, "state": "Ulytau Region"}, {"city": "Botaqara", "latitude": 50.05928, "longitude": 73.71524, "state": "Karaganda"}, {"city": "Ul\u2019ba", "latitude": 50.26581, "longitude": 83.37804, "state": "East Kazakhstan"}, {"city": "Usharal", "latitude": 46.16926, "longitude": 80.94331, "state": "Jetisu Region"}, {"city": "Tyul\u2019kubas", "latitude": 42.48578, "longitude": 70.29601, "state": "South Kazakhstan"}, {"city": "Turkestan", "latitude": 43.29733, "longitude": 68.25175, "state": "South Kazakhstan"}, {"city": "Turgen", "latitude": 43.40056, "longitude": 77.59333, "state": "Almaty Oblysy"}, {"city": "Timiryazevo", "latitude": 53.74947, "longitude": 66.48852, "state": "North Kazakhstan"}, {"city": "Troyebratskiy", "latitude": 54.44306, "longitude": 66.07982, "state": "Qostanay"}, {"city": "Torghay", "latitude": 49.63072, "longitude": 63.49035, "state": "Qostanay"}, {"city": "Tokarevka", "latitude": 50.11573, "longitude": 73.16034, "state": "Karaganda"}, {"city": "Tobol", "latitude": 52.69366, "longitude": 62.5914, "state": "Qostanay"}, {"city": "Terenozek", "latitude": 45.05048, "longitude": 64.98258, "state": "Qyzylorda"}, {"city": "Temirtau", "latitude": 50.05197, "longitude": 72.95497, "state": "Karaganda"}, {"city": "Temirlanovka", "latitude": 42.59998, "longitude": 69.25836, "state": "South Kazakhstan"}, {"city": "Tekeli", "latitude": 44.8678, "longitude": 78.72807, "state": "Jetisu Region"}, {"city": "Tasbuget", "latitude": 44.77018, "longitude": 65.55461, "state": "Qyzylorda"}, {"city": "Ayat", "latitude": 52.83554, "longitude": 62.52078, "state": "Qostanay"}, {"city": "Talshik", "latitude": 53.63736, "longitude": 71.87404, "state": "North Kazakhstan"}, {"city": "Talghar", "latitude": 43.30235, "longitude": 77.23811, "state": "Almaty Oblysy"}, {"city": "Taldykorgan", "latitude": 45.01556, "longitude": 78.37389, "state": "Jetisu Region"}, {"city": "Tayynsha", "latitude": 53.84665, "longitude": 69.75987, "state": "North Kazakhstan"}, {"city": "Suykbulak", "latitude": 49.70837, "longitude": 81.04854, "state": "Abai Region"}, {"city": "Stepnyak", "latitude": 52.83489, "longitude": 70.78861, "state": "Aqmola"}, {"city": "Smirnovo", "latitude": 54.5148, "longitude": 69.42732, "state": "North Kazakhstan"}, {"city": "Myrzakent", "latitude": 40.66338, "longitude": 68.5451, "state": "South Kazakhstan"}, {"city": "Shymkent", "latitude": 42.3, "longitude": 69.6, "state": null}, {"city": "Shu", "latitude": 43.60507, "longitude": 73.76221, "state": "Zhambyl"}, {"city": "Shortandy", "latitude": 51.69934, "longitude": 70.99129, "state": "Aqmola"}, {"city": "Chernak", "latitude": 43.40025, "longitude": 68.0237, "state": "South Kazakhstan"}, {"city": "Shemonaikha", "latitude": 50.62899, "longitude": 81.91092, "state": "East Kazakhstan"}, {"city": "Shchuchinsk", "latitude": 52.93592, "longitude": 70.18895, "state": "Aqmola"}, {"city": "Sharbaqty", "latitude": 52.49087, "longitude": 78.15556, "state": "Pavlodar Region"}, {"city": "Shaul\u2019der", "latitude": 42.79097, "longitude": 68.37172, "state": "South Kazakhstan"}, {"city": "Shar", "latitude": 49.5872, "longitude": 81.04883, "state": "Abai Region"}, {"city": "Shantobe", "latitude": 52.45376, "longitude": 68.17475, "state": "Aqmola"}, {"city": "Shakhtinsk", "latitude": 49.70713, "longitude": 72.59321, "state": "Karaganda"}, {"city": "Shakhan", "latitude": 49.81958, "longitude": 72.65407, "state": "Karaganda"}, {"city": "Sergeyevka", "latitude": 53.88139, "longitude": 67.40882, "state": "North Kazakhstan"}, {"city": "Auliyekol'", "latitude": 52.3585, "longitude": 64.13429, "state": "Qostanay"}, {"city": "Semey", "latitude": 50.42675, "longitude": 80.26669, "state": "Abai Region"}, {"city": "Sayram", "latitude": 42.3025, "longitude": 69.75758, "state": "South Kazakhstan"}, {"city": "Sayaq", "latitude": 47.0, "longitude": 77.26667, "state": "Karaganda"}, {"city": "Sastobe", "latitude": 42.5533, "longitude": 69.99835, "state": "South Kazakhstan"}, {"city": "Saryshaghan", "latitude": 46.11805, "longitude": 73.61336, "state": "Karaganda"}, {"city": "Saryozek", "latitude": 44.36178, "longitude": 77.97279, "state": "Jetisu Region"}, {"city": "Sarykamys", "latitude": 47.78333, "longitude": 78.71667, "state": null}, {"city": "Saryaghash", "latitude": 41.46042, "longitude": 69.16791, "state": "South Kazakhstan"}, {"city": "Sarqant", "latitude": 45.41322, "longitude": 79.91713, "state": "Jetisu Region"}, {"city": "Saran", "latitude": 49.80245, "longitude": 72.83186, "state": "Karaganda"}, {"city": "Samarskoye", "latitude": 49.02247, "longitude": 83.36634, "state": "East Kazakhstan"}, {"city": "Saksaul\u2019skiy", "latitude": 47.08152, "longitude": 61.15239, "state": "Qyzylorda"}, {"city": "Rudnyy", "latitude": 52.97244, "longitude": 63.11055, "state": "Qostanay"}, {"city": "Kyzylorda", "latitude": 44.85278, "longitude": 65.50917, "state": "Qyzylorda"}, {"city": "Qusmuryn", "latitude": 52.45144, "longitude": 64.61682, "state": "Qostanay"}, {"city": "Kostanay", "latitude": 53.21435, "longitude": 63.62463, "state": "Qostanay"}, {"city": "Qashar", "latitude": 53.36799, "longitude": 62.86839, "state": "Qostanay"}, {"city": "Qarqaraly", "latitude": 49.41244, "longitude": 75.47228, "state": "Karaganda"}, {"city": "Qarazhal", "latitude": 48.01085, "longitude": 70.80058, "state": "Ulytau Region"}, {"city": "Karaaul", "latitude": 48.94509, "longitude": 79.25502, "state": "Abai Region"}, {"city": "Karatau", "latitude": 43.17959, "longitude": 70.4592, "state": "Zhambyl"}, {"city": "Konayev", "latitude": 43.86681, "longitude": 77.06304, "state": "Almaty Oblysy"}, {"city": "Tughyl", "latitude": 47.72497, "longitude": 84.20585, "state": "East Kazakhstan"}, {"city": "Presnovka", "latitude": 54.6693, "longitude": 67.14912, "state": "North Kazakhstan"}, {"city": "Petropavl", "latitude": 54.86667, "longitude": 69.15, "state": "North Kazakhstan"}, {"city": "Pervorossiyskoye", "latitude": 49.71739, "longitude": 83.8486, "state": "East Kazakhstan"}, {"city": "Pervomayka", "latitude": 43.37361, "longitude": 76.94, "state": "Almaty"}, {"city": "Pavlodar", "latitude": 52.28333, "longitude": 76.96667, "state": "Pavlodar Region"}, {"city": "Zharkent", "latitude": 44.16619, "longitude": 80.00736, "state": "Jetisu Region"}, {"city": "Oytal", "latitude": 42.90573, "longitude": 73.26972, "state": "Zhambyl"}, {"city": "Ust-Kamenogorsk", "latitude": 49.97143, "longitude": 82.60586, "state": "East Kazakhstan"}, {"city": "Osakarovka", "latitude": 50.56315, "longitude": 72.57278, "state": "Karaganda"}, {"city": "Denisovka", "latitude": 52.44772, "longitude": 61.74942, "state": "Qostanay"}, {"city": "Oktyabr'", "latitude": 52.11106, "longitude": 65.67578, "state": "Qostanay"}, {"city": "Ognyovka", "latitude": 49.68368, "longitude": 83.01687, "state": "East Kazakhstan"}, {"city": "Zhabagly", "latitude": 42.43781, "longitude": 70.47841, "state": "South Kazakhstan"}, {"city": "Novodolinskiy", "latitude": 49.7065, "longitude": 72.70807, "state": "Karaganda"}, {"city": "Novaya Sh\u016bl\u2019ba", "latitude": 50.53978, "longitude": 81.32882, "state": "Abai Region"}, {"city": "Novaya Bukhtarma", "latitude": 49.62873, "longitude": 83.52102, "state": "East Kazakhstan"}, {"city": "Satpayev", "latitude": 47.90409, "longitude": 67.54112, "state": "Ulytau Region"}, {"city": "Narynkol", "latitude": 42.72636, "longitude": 80.17495, "state": "Almaty Oblysy"}, {"city": "Mynaral", "latitude": 45.44344, "longitude": 73.65453, "state": "Zhambyl"}, {"city": "Moyynty", "latitude": 47.21968, "longitude": 73.35437, "state": "Karaganda"}, {"city": "Kurchatov", "latitude": 50.75617, "longitude": 78.54188, "state": "Abai Region"}, {"city": "Sarykemer", "latitude": 43.00929, "longitude": 71.5101, "state": "Zhambyl"}, {"city": "Merke", "latitude": 42.87183, "longitude": 73.19648, "state": "Zhambyl"}, {"city": "Mayqayyng", "latitude": 51.45981, "longitude": 75.80232, "state": "Pavlodar Region"}, {"city": "Matay", "latitude": 45.8996, "longitude": 78.72039, "state": "Jetisu Region"}, {"city": "Mamlyutka", "latitude": 54.93896, "longitude": 68.53889, "state": "North Kazakhstan"}, {"city": "Aqmol", "latitude": 51.06568, "longitude": 70.97777, "state": "Aqmola"}, {"city": "Makinsk", "latitude": 52.6329, "longitude": 70.41911, "state": "Aqmola"}, {"city": "Kulan", "latitude": 42.91018, "longitude": 72.71571, "state": "Zhambyl"}, {"city": "Lugovoy", "latitude": 42.94197, "longitude": 72.76098, "state": "Zhambyl"}, {"city": "Lisakovsk", "latitude": 52.54488, "longitude": 62.49893, "state": "Qostanay"}, {"city": "Lepsy", "latitude": 46.23426, "longitude": 78.94034, "state": "Jetisu Region"}, {"city": "Uzunkol'", "latitude": 54.03782, "longitude": 65.3354, "state": "Qostanay"}, {"city": "Kazygurt", "latitude": 41.7564, "longitude": 69.3839, "state": "South Kazakhstan"}, {"city": "Leninskiy", "latitude": 52.25346, "longitude": 76.78211, "state": "Pavlodar Region"}, {"city": "Baikonur", "latitude": 45.61667, "longitude": 63.31667, "state": null}, {"city": "Ridder", "latitude": 50.34524, "longitude": 83.51562, "state": "East Kazakhstan"}, {"city": "Leningradskoye", "latitude": 53.53319, "longitude": 71.54252, "state": "North Kazakhstan"}, {"city": "Lenger", "latitude": 42.18152, "longitude": 69.88582, "state": "South Kazakhstan"}, {"city": "Akkuly", "latitude": 51.46967, "longitude": 77.77857, "state": "Pavlodar Region"}, {"city": "Kishkenekol\u2019", "latitude": 53.63589, "longitude": 72.34079, "state": "North Kazakhstan"}, {"city": "Kyzylzhar", "latitude": 49.98197, "longitude": 72.60761, "state": "Karaganda"}, {"city": "Novoishimskoye", "latitude": 53.2035, "longitude": 66.81431, "state": "North Kazakhstan"}, {"city": "Kushoky", "latitude": 50.23091, "longitude": 73.40146, "state": "Karaganda"}, {"city": "Qorghalzhyn", "latitude": 50.58371, "longitude": 70.0189, "state": "Aqmola"}, {"city": "Kurchum", "latitude": 48.56603, "longitude": 83.66146, "state": "East Kazakhstan"}, {"city": "Egindik\u00f6l", "latitude": 51.05227, "longitude": 69.47511, "state": "Aqmola"}, {"city": "Aqtoghay", "latitude": 53.00888, "longitude": 75.98495, "state": "Pavlodar Region"}, {"city": "Krasnogorskiy", "latitude": 52.2456, "longitude": 66.52081, "state": "Aqmola"}, {"city": "Taiynsha", "latitude": 53.84796, "longitude": 69.76773, "state": "North Kazakhstan"}, {"city": "Koshi", "latitude": 50.97075, "longitude": 71.35311, "state": "Aqmola"}, {"city": "Kokshetau", "latitude": 53.28333, "longitude": 69.4, "state": "Aqmola"}, {"city": "Selo Temirbeka Zhurgenova", "latitude": 50.43326, "longitude": 60.5004, "state": "Aqt\u00f6be"}, {"city": "Qarabalyq", "latitude": 53.75019, "longitude": 62.0584, "state": "Qostanay"}, {"city": "Kokterek", "latitude": 42.49442, "longitude": 70.25478, "state": "South Kazakhstan"}, {"city": "Koktal", "latitude": 49.65, "longitude": 73.51667, "state": "Karaganda"}, {"city": "Kokpekty", "latitude": 48.75, "longitude": 82.4, "state": null}, {"city": "Kokpekty", "latitude": 48.7553, "longitude": 82.38617, "state": "Abai Region"}, {"city": "Nura", "latitude": 50.26159, "longitude": 71.54802, "state": "Karaganda"}, {"city": "Balpyk Bi", "latitude": 44.90115, "longitude": 78.22933, "state": "Jetisu Region"}, {"city": "Asyqata", "latitude": 40.8946, "longitude": 68.3643, "state": "South Kazakhstan"}, {"city": "Khantau", "latitude": 44.22627, "longitude": 73.7941, "state": "Zhambyl"}, {"city": "Karabulak", "latitude": 44.90881, "longitude": 78.49044, "state": "Jetisu Region"}, {"city": "Kentau", "latitude": 43.51672, "longitude": 68.50463, "state": "South Kazakhstan"}, {"city": "Kegen", "latitude": 43.01451, "longitude": 79.22638, "state": "Almaty Oblysy"}, {"city": "Kazalinsk", "latitude": 45.76257, "longitude": 62.10334, "state": "Qyzylorda"}, {"city": "Karasu", "latitude": 52.65995, "longitude": 65.48421, "state": "Qostanay"}, {"city": "Karabas", "latitude": 46.53333, "longitude": 76.2, "state": null}, {"city": "Kantagi", "latitude": 43.52786, "longitude": 68.58287, "state": "South Kazakhstan"}, {"city": "Qamysty", "latitude": 51.96382, "longitude": 61.78641, "state": "Qostanay"}, {"city": "Kalkaman", "latitude": 51.95349, "longitude": 76.02723, "state": "Pavlodar Region"}, {"city": "Terengk\u00f6l", "latitude": 53.06649, "longitude": 76.10489, "state": "Pavlodar Region"}, {"city": "Esik", "latitude": 43.3552, "longitude": 77.45245, "state": "Almaty Oblysy"}, {"city": "Irtyshsk", "latitude": 53.33365, "longitude": 75.45775, "state": "Pavlodar Region"}, {"city": "Atakent", "latitude": 40.84782, "longitude": 68.50643, "state": "South Kazakhstan"}, {"city": "Granitogorsk", "latitude": 42.744, "longitude": 73.46848, "state": "Zhambyl"}, {"city": "Glubokoye", "latitude": 50.13887, "longitude": 82.31114, "state": "East Kazakhstan"}, {"city": "Korday", "latitude": 43.03882, "longitude": 74.71287, "state": "Zhambyl"}, {"city": "Kalbatau", "latitude": 49.33009, "longitude": 81.57275, "state": "Abai Region"}, {"city": "Moyynkum", "latitude": 44.28314, "longitude": 72.94369, "state": "Zhambyl"}, {"city": "Fyodorov", "latitude": 53.63809, "longitude": 62.69653, "state": "Qostanay"}, {"city": "Esil", "latitude": 51.95453, "longitude": 66.40772, "state": "Aqmola"}, {"city": "Aksu", "latitude": 52.04023, "longitude": 76.92748, "state": "Pavlodar Region"}, {"city": "Yereymentau", "latitude": 51.62364, "longitude": 73.10265, "state": "Aqmola"}, {"city": "Otegen Batyra", "latitude": 43.41845, "longitude": 77.02187, "state": "Almaty Oblysy"}, {"city": "Ekibastuz", "latitude": 51.72371, "longitude": 75.32287, "state": "Pavlodar Region"}, {"city": "Zhetysay", "latitude": 40.77631, "longitude": 68.32774, "state": "South Kazakhstan"}, {"city": "Dzhambul", "latitude": 47.20618, "longitude": 71.39496, "state": "Karaganda"}, {"city": "Zhalagash", "latitude": 45.07958, "longitude": 64.68175, "state": "Qyzylorda"}, {"city": "Druzhba", "latitude": 45.25332, "longitude": 82.48044, "state": "Jetisu Region"}, {"city": "Dolinka", "latitude": 49.67685, "longitude": 72.67822, "state": "Karaganda"}, {"city": "Qaramengdi", "latitude": 51.65708, "longitude": 64.22535, "state": "Qostanay"}, {"city": "Derzhavinsk", "latitude": 51.09718, "longitude": 66.31875, "state": "Aqmola"}, {"city": "Chundzha", "latitude": 43.53813, "longitude": 79.46582, "state": "Almaty Oblysy"}, {"city": "Sholakkorgan", "latitude": 43.76453, "longitude": 69.17856, "state": "South Kazakhstan"}, {"city": "Shiyeli", "latitude": 44.17057, "longitude": 66.73376, "state": "Qyzylorda"}, {"city": "Shayan", "latitude": 43.03399, "longitude": 69.38048, "state": "South Kazakhstan"}, {"city": "Shardara", "latitude": 41.25832, "longitude": 67.96991, "state": "South Kazakhstan"}, {"city": "Burunday", "latitude": 43.35567, "longitude": 76.85477, "state": "Almaty Oblysy"}, {"city": "Bauyrzhan Momyshuly", "latitude": 42.61419, "longitude": 70.76975, "state": "Zhambyl"}, {"city": "Bulayevo", "latitude": 54.90596, "longitude": 70.44155, "state": "North Kazakhstan"}, {"city": "Borovskoy", "latitude": 53.7927, "longitude": 64.18268, "state": "Qostanay"}, {"city": "B\u016brabay", "latitude": 53.08382, "longitude": 70.31379, "state": "North Kazakhstan"}, {"city": "Borodulikha", "latitude": 50.71841, "longitude": 80.9295, "state": "Abai Region"}, {"city": "Ulken Naryn", "latitude": 49.21245, "longitude": 84.50758, "state": "East Kazakhstan"}, {"city": "Besqaraghay", "latitude": 50.88671, "longitude": 79.48229, "state": "Abai Region"}, {"city": "Boko", "latitude": 49.05632, "longitude": 81.63721, "state": "Abai Region"}, {"city": "Bishkul", "latitude": 54.77763, "longitude": 69.09951, "state": "North Kazakhstan"}, {"city": "Bestobe", "latitude": 52.49795, "longitude": 73.09592, "state": "Aqmola"}, {"city": "Aksu", "latitude": 42.42193, "longitude": 69.82709, "state": "South Kazakhstan"}, {"city": "Belousovka", "latitude": 50.13287, "longitude": 82.52481, "state": "East Kazakhstan"}, {"city": "Koktobe", "latitude": 51.52983, "longitude": 77.47146, "state": "Pavlodar Region"}, {"city": "Belogorskiy", "latitude": 49.47887, "longitude": 83.14138, "state": "East Kazakhstan"}, {"city": "Bayzhansay", "latitude": 43.16708, "longitude": 69.91459, "state": "South Kazakhstan"}, {"city": "Bayanaul", "latitude": 50.79304, "longitude": 75.70123, "state": "Pavlodar Region"}, {"city": "Qogham", "latitude": 42.82774, "longitude": 68.28074, "state": "South Kazakhstan"}, {"city": "Balqash", "latitude": 46.84546, "longitude": 74.98213, "state": "Karaganda"}, {"city": "Balkashino", "latitude": 52.51779, "longitude": 68.7516, "state": "Aqmola"}, {"city": "Bakanas", "latitude": 44.80595, "longitude": 76.27464, "state": "Almaty Oblysy"}, {"city": "Ayagoz", "latitude": 47.96447, "longitude": 80.43437, "state": "Abai Region"}, {"city": "Auezov", "latitude": 49.71003, "longitude": 81.58018, "state": "Abai Region"}, {"city": "Atbasar", "latitude": 51.80854, "longitude": 68.35823, "state": "Aqmola"}, {"city": "Zhangaarqa", "latitude": 48.68659, "longitude": 71.64469, "state": "Ulytau Region"}, {"city": "Asubulak", "latitude": 49.54026, "longitude": 82.99471, "state": "East Kazakhstan"}, {"city": "Astrakhanka", "latitude": 51.53068, "longitude": 69.79685, "state": "Aqmola"}, {"city": "Asa", "latitude": 43.03735, "longitude": 71.14737, "state": "Zhambyl"}, {"city": "Ashchysay", "latitude": 43.5537, "longitude": 68.89792, "state": "South Kazakhstan"}, {"city": "Arys", "latitude": 42.43015, "longitude": 68.8087, "state": "South Kazakhstan"}, {"city": "Arykbalyk", "latitude": 52.95625, "longitude": 68.20185, "state": "North Kazakhstan"}, {"city": "Arkalyk", "latitude": 50.25031, "longitude": 66.90384, "state": "Qostanay"}, {"city": "Aral", "latitude": 46.80174, "longitude": 61.66312, "state": "Qyzylorda"}, {"city": "Aqtoghay", "latitude": 46.95068, "longitude": 79.67621, "state": "Abai Region"}, {"city": "Aktau", "latitude": 50.23466, "longitude": 73.06662, "state": "Karaganda"}, {"city": "Aksu", "latitude": 52.44422, "longitude": 71.95761, "state": "Aqmola"}, {"city": "Aqshata\u016b", "latitude": 47.98917, "longitude": 74.0575, "state": "Karaganda"}, {"city": "Astana", "latitude": 51.1801, "longitude": 71.44598, "state": null}, {"city": "Aqadyr", "latitude": 48.26014, "longitude": 72.85851, "state": "Karaganda"}, {"city": "Amangeldi", "latitude": 50.18271, "longitude": 65.18966, "state": "Qostanay"}, {"city": "Almaty", "latitude": 43.25, "longitude": 76.91667, "state": null}, {"city": "Akkol", "latitude": 51.99374, "longitude": 70.94704, "state": "Aqmola"}, {"city": "Marqak\u00f6l", "latitude": 48.42648, "longitude": 85.73474, "state": "East Kazakhstan"}, {"city": "Prigorodnoye", "latitude": 49.69244, "longitude": 75.58438, "state": "Karaganda"}, {"city": "Aktogay", "latitude": 48.31636, "longitude": 74.98293, "state": "Karaganda"}, {"city": "Aktogay", "latitude": 48.16667, "longitude": 75.3, "state": "Karaganda"}, {"city": "Aktau", "latitude": 48.03333, "longitude": 72.83333, "state": "Karaganda"}, {"city": "Aktas", "latitude": 49.77952, "longitude": 72.96128, "state": "Karaganda"}, {"city": "Aksu-Ayuly", "latitude": 48.76788, "longitude": 73.67272, "state": "Karaganda"}, {"city": "Aksuat", "latitude": 48.71667, "longitude": 83.7, "state": null}, {"city": "Aksuat", "latitude": 47.76124, "longitude": 82.80858, "state": "Abai Region"}, {"city": "Akkol\u2019", "latitude": 53.29617, "longitude": 69.59997, "state": "Aqmola"}, {"city": "Akbakay", "latitude": 45.1294, "longitude": 72.67169, "state": "Zhambyl"}, {"city": "Abay", "latitude": 49.63539, "longitude": 72.86523, "state": "Karaganda"}, {"city": "Abay", "latitude": 41.34682, "longitude": 68.9504, "state": "South Kazakhstan"}, {"city": "Shalq\u012bya", "latitude": 44.00947, "longitude": 67.41062, "state": "Qyzylorda"}, {"city": "Birlestik", "latitude": 53.58414, "longitude": 68.35382, "state": "North Kazakhstan"}, {"city": "Maleyevsk", "latitude": 49.81441, "longitude": 84.29102, "state": "East Kazakhstan"}, {"city": "Belk\u00f6l", "latitude": 44.81384, "longitude": 65.58778, "state": "Qyzylorda"}, {"city": "Novoishimskiy", "latitude": 53.19806, "longitude": 66.76944, "state": "North Kazakhstan"}, {"city": "Ozernyy", "latitude": 46.80714, "longitude": 75.036, "state": "Karaganda"}, {"city": "Atbasar", "latitude": 51.8, "longitude": 68.33333, "state": "Aqmola"}, {"city": "Chiganak", "latitude": 44.83056, "longitude": 70.00194, "state": "Zhambyl"}, {"city": "Shubark\u00f6l", "latitude": 48.88222, "longitude": 68.80722, "state": "Karaganda"}, {"city": "Zhana Kiima", "latitude": 51.59611, "longitude": 67.58944, "state": "Aqmola"}, {"city": "Stepnogorsk", "latitude": 52.35062, "longitude": 71.88161, "state": "Aqmola"}, {"city": "Zavodskoy", "latitude": 52.47031, "longitude": 72.01514, "state": "Aqmola"}, {"city": "\u00dclken", "latitude": 45.20928, "longitude": 73.95089, "state": "Almaty Oblysy"}, {"city": "Altayskiy", "latitude": 50.24593, "longitude": 82.36252, "state": "East Kazakhstan"}, {"city": "Chemolgan", "latitude": 43.37633, "longitude": 76.62456, "state": "Almaty Oblysy"}, {"city": "Priozersk", "latitude": 46.03106, "longitude": 73.70247, "state": "Karaganda"}, {"city": "Tyuratam", "latitude": 45.65005, "longitude": 63.31163, "state": "Baikonur"}, {"city": "Obaghan", "latitude": 53.07952, "longitude": 64.29521, "state": "Qostanay"}, {"city": "Tekeli", "latitude": 44.86136, "longitude": 78.77287, "state": "Jetisu Region"}, {"city": "Tasty-Taldy", "latitude": 50.72817, "longitude": 66.62033, "state": "Aqmola"}]