[{"city": "Washington", "latitude": 12.55837, "longitude": -70.03816, "state": null}, {"city": "Tanki Leendert", "latitude": 12.53914, "longitude": -70.02004, "state": null}, {"city": "San Nicolas", "latitude": 12.43624, "longitude": -69.90713, "state": null}, {"city": "Santa Cruz", "latitude": 12.50953, "longitude": -69.98094, "state": null}, {"city": "Savaneta", "latitude": 12.45026, "longitude": -69.93811, "state": null}, {"city": "Pos Chiquito", "latitude": 12.46497, "longitude": -69.96233, "state": null}, {"city": "Paradera", "latitude": 12.5351, "longitude": -70.00688, "state": null}, {"city": "Palm Beach", "latitude": 12.56847, "longitude": -70.03887, "state": null}, {"city": "Oranjestad", "latitude": 12.52398, "longitude": -70.02703, "state": null}, {"city": "Noord", "latitude": 12.56596, "longitude": -70.03198, "state": null}, {"city": "Moco", "latitude": 12.55134, "longitude": -70.00843, "state": null}, {"city": "Alto Vista", "latitude": 12.5705, "longitude": -70.01912, "state": null}]