[{"city": "Shumanay", "latitude": 42.64281, "longitude": 58.91345, "state": "Karakalpakstan"}, {"city": "Nukus", "latitude": 42.45306, "longitude": 59.61028, "state": "Karakalpakstan"}, {"city": "M\u016dynoq", "latitude": 43.76833, "longitude": 59.02139, "state": "Karakalpakstan"}, {"city": "Qanliko\u2018l", "latitude": 42.8395, "longitude": 59.00093, "state": "Karakalpakstan"}, {"city": "Q\u016dnghirot", "latitude": 43.04333, "longitude": 58.83944, "state": "Karakalpakstan"}, {"city": "Xo\u2018jayli Shahri", "latitude": 42.40881, "longitude": 59.44544, "state": "Karakalpakstan"}, {"city": "Kegeyli Shahar", "latitude": 42.77667, "longitude": 59.60778, "state": "Karakalpakstan"}, {"city": "Qozonketkan", "latitude": 43.01907, "longitude": 59.36425, "state": "Karakalpakstan"}, {"city": "Oltinko\u2018l", "latitude": 43.06874, "longitude": 58.90372, "state": "Karakalpakstan"}, {"city": "Oqmang\u2018it", "latitude": 42.59889, "longitude": 59.53444, "state": "Karakalpakstan"}, {"city": "Qo\u2018ng\u2018irot Shahri", "latitude": 43.05207, "longitude": 58.84596, "state": "Karakalpakstan"}, {"city": "Chimboy Shahri", "latitude": 42.92952, "longitude": 59.78199, "state": "Karakalpakstan"}, {"city": "Mo\u2018ynoq Shahri", "latitude": 43.77877, "longitude": 59.03039, "state": "Karakalpakstan"}, {"city": "Shumanay Shahri", "latitude": 42.63433, "longitude": 58.9306, "state": "Karakalpakstan"}, {"city": "Jondor Shaharchasi", "latitude": 39.7417, "longitude": 64.17962, "state": "Bukhara"}, {"city": "Zomin Shaharchasi", "latitude": 39.96056, "longitude": 68.39583, "state": "Jizzakh Region"}, {"city": "Nishon Tumani", "latitude": 38.69395, "longitude": 65.67512, "state": "Qashqadaryo"}, {"city": "Usmat Shaharchasi", "latitude": 39.73982, "longitude": 67.6479, "state": "Jizzakh Region"}, {"city": "Urgut Shahri", "latitude": 39.41902, "longitude": 67.26118, "state": "Samarqand Region"}, {"city": "Mug\u2018lon Shahar", "latitude": 38.91878, "longitude": 65.41217, "state": "Qashqadaryo"}, {"city": "Tirmiz", "latitude": 37.22417, "longitude": 67.27833, "state": "Surxondaryo Region"}, {"city": "Toyloq Qishlog\u2019i", "latitude": 39.60139, "longitude": 67.09083, "state": "Samarqand Region"}, {"city": "Nurobod Shahri", "latitude": 39.60861, "longitude": 66.28667, "state": "Samarqand Region"}, {"city": "Sho\u2018rchi", "latitude": 37.99944, "longitude": 67.7875, "state": "Surxondaryo Region"}, {"city": "Shahrisabz", "latitude": 39.05778, "longitude": 66.83417, "state": "Qashqadaryo"}, {"city": "Shohimardon", "latitude": 39.98322, "longitude": 71.80512, "state": "Fergana"}, {"city": "Samarkand", "latitude": 39.65417, "longitude": 66.95972, "state": "Samarqand Region"}, {"city": "Romitan Shahri", "latitude": 39.92944, "longitude": 64.37944, "state": "Bukhara"}, {"city": "Qarshi", "latitude": 38.86056, "longitude": 65.78905, "state": "Qashqadaryo"}, {"city": "Payariq Shahri", "latitude": 39.99249, "longitude": 66.85012, "state": "Samarqand Region"}, {"city": "Muborak", "latitude": 39.25528, "longitude": 65.15278, "state": "Qashqadaryo"}, {"city": "Yangi Mirishkor", "latitude": 38.85143, "longitude": 65.27789, "state": "Qashqadaryo"}, {"city": "Loyish Shaharchasi", "latitude": 39.87904, "longitude": 66.75055, "state": "Samarqand Region"}, {"city": "Kitob", "latitude": 39.12158, "longitude": 66.88605, "state": "Qashqadaryo"}, {"city": "Kattaqo\u2019rg\u2019on Shahri", "latitude": 39.90546, "longitude": 66.26556, "state": "Samarqand Region"}, {"city": "Koson", "latitude": 39.0375, "longitude": 65.585, "state": "Qashqadaryo"}, {"city": "Qorovulbozor", "latitude": 39.50056, "longitude": 64.79361, "state": "Bukhara"}, {"city": "Karakul\u2019", "latitude": 39.53333, "longitude": 63.83333, "state": "Bukhara"}, {"city": "Qorako\u2018l Shahri", "latitude": 39.50699, "longitude": 63.84884, "state": "Bukhara"}, {"city": "Kogon Shahri", "latitude": 39.72746, "longitude": 64.55466, "state": "Bukhara"}, {"city": "Ishtixon Shahri", "latitude": 39.96639, "longitude": 66.48611, "state": "Samarqand Region"}, {"city": "G\u2018uzor", "latitude": 38.6213, "longitude": 66.25152, "state": "Qashqadaryo"}, {"city": "Galaosiyo Shahri", "latitude": 39.85721, "longitude": 64.44641, "state": "Bukhara"}, {"city": "Juma Shahri", "latitude": 39.71611, "longitude": 66.66417, "state": "Samarqand Region"}, {"city": "Jomboy Shahri", "latitude": 39.69889, "longitude": 67.09333, "state": "Samarqand Region"}, {"city": "Denov", "latitude": 38.26746, "longitude": 67.89886, "state": "Surxondaryo Region"}, {"city": "Dahbed", "latitude": 39.7644, "longitude": 66.91626, "state": "Samarqand Region"}, {"city": "Chiroqchi", "latitude": 39.03361, "longitude": 66.57222, "state": "Qashqadaryo"}, {"city": "Chelak", "latitude": 39.92002, "longitude": 66.86228, "state": "Samarqand Region"}, {"city": "Charxin", "latitude": 39.69413, "longitude": 66.827, "state": "Samarqand Region"}, {"city": "Bulung\u2019ur Shahri", "latitude": 39.76003, "longitude": 67.27441, "state": "Samarqand Region"}, {"city": "Bukhara", "latitude": 39.77472, "longitude": 64.42861, "state": null}, {"city": "Beshkent", "latitude": 38.82139, "longitude": 65.65306, "state": "Qashqadaryo"}, {"city": "Boysun", "latitude": 38.20835, "longitude": 67.20664, "state": "Surxondaryo Region"}, {"city": "Olot Shahri", "latitude": 39.415, "longitude": 63.80333, "state": "Bukhara"}, {"city": "Oqtosh Shahri", "latitude": 39.92675, "longitude": 65.92953, "state": "Samarqand Region"}, {"city": "Oqtosh", "latitude": 39.92139, "longitude": 65.92528, "state": "Samarqand Region"}, {"city": "Qorovulbozor Shahri", "latitude": 39.50308, "longitude": 64.81142, "state": "Bukhara"}, {"city": "Qorashina", "latitude": 38.34185, "longitude": 66.56342, "state": "Qashqadaryo"}, {"city": "Shahrisabz Shahri", "latitude": 39.05206, "longitude": 66.82083, "state": "Qashqadaryo"}, {"city": "Koson Shahri", "latitude": 39.04472, "longitude": 65.59082, "state": "Qashqadaryo"}, {"city": "Kitob Shahri", "latitude": 39.12251, "longitude": 66.8757, "state": "Qashqadaryo"}, {"city": "Muborak Shahri", "latitude": 39.25778, "longitude": 65.15674, "state": "Qashqadaryo"}, {"city": "Beshkent Shahri", "latitude": 38.81107, "longitude": 65.64246, "state": "Qashqadaryo"}, {"city": "G\u2018uzor Shahri", "latitude": 38.62596, "longitude": 66.24515, "state": "Qashqadaryo"}, {"city": "Qamashi Shahri", "latitude": 38.81998, "longitude": 66.46441, "state": "Qashqadaryo"}, {"city": "Chiroqchi Shahri", "latitude": 39.02727, "longitude": 66.58083, "state": "Qashqadaryo"}, {"city": "Yakkabog\u2018 Shahri", "latitude": 38.97664, "longitude": 66.68867, "state": "Qashqadaryo"}, {"city": "Yangi-Nishon Shahri", "latitude": 38.64501, "longitude": 65.68952, "state": "Qashqadaryo"}, {"city": "Ravon", "latitude": 39.97724, "longitude": 71.13467, "state": "Fergana"}, {"city": "Ziyodin Shaharchasi", "latitude": 40.03106, "longitude": 65.66619, "state": "Samarqand Region"}, {"city": "Zarbdor Shaharchasi", "latitude": 40.08083, "longitude": 68.16454, "state": "Jizzakh Region"}, {"city": "Zafarobod Shaharchasi", "latitude": 40.38903, "longitude": 67.82169, "state": "Jizzakh Region"}, {"city": "Zafar", "latitude": 40.98333, "longitude": 68.9, "state": "Tashkent Region"}, {"city": "G\u2019oliblar Qishlog\u2019i", "latitude": 40.49528, "longitude": 67.87594, "state": "Jizzakh Region"}, {"city": "Yozyovon", "latitude": 40.66139, "longitude": 71.74361, "state": "Fergana"}, {"city": "Yaypan", "latitude": 40.37583, "longitude": 70.81556, "state": "Fergana"}, {"city": "Yangiy\u016dl", "latitude": 41.11202, "longitude": 69.0471, "state": "Tashkent Region"}, {"city": "Yangiyer", "latitude": 40.275, "longitude": 68.8225, "state": "Sirdaryo Region"}, {"city": "Yangirabot", "latitude": 40.02539, "longitude": 65.96095, "state": "Navoiy Region"}, {"city": "Yangiqo\u2018rg\u2018on", "latitude": 41.19474, "longitude": 71.72385, "state": "Namangan"}, {"city": "Ibrat", "latitude": 40.55389, "longitude": 71.14667, "state": "Fergana"}, {"city": "Bog'don", "latitude": 40.41517, "longitude": 67.17946, "state": "Jizzakh Region"}, {"city": "Yangibozor", "latitude": 41.71157, "longitude": 60.53394, "state": "Xorazm Region"}, {"city": "Yangibozor Qishlog\u2019i", "latitude": 40.03839, "longitude": 64.38587, "state": "Bukhara"}, {"city": "Yangiariq", "latitude": 41.36583, "longitude": 60.60438, "state": "Xorazm Region"}, {"city": "Yangiobod", "latitude": 41.11919, "longitude": 70.09406, "state": "Tashkent Region"}, {"city": "Vodil", "latitude": 40.17424, "longitude": 71.73013, "state": "Fergana"}, {"city": "Vobkent Shahri", "latitude": 40.00033, "longitude": 64.50213, "state": "Bukhara"}, {"city": "Uychi", "latitude": 41.08073, "longitude": 71.92331, "state": "Namangan"}, {"city": "\u016crtaowul", "latitude": 41.18667, "longitude": 69.14528, "state": "Tashkent Region"}, {"city": "Urganch", "latitude": 41.55339, "longitude": 60.62057, "state": "Xorazm Region"}, {"city": "Dashtobod", "latitude": 40.12694, "longitude": 68.49444, "state": "Jizzakh Region"}, {"city": "Uchtepa Qishlog\u2019i", "latitude": 40.20447, "longitude": 67.90396, "state": "Jizzakh Region"}, {"city": "Uchq\u016drghon Shahri", "latitude": 41.11371, "longitude": 72.07915, "state": "Namangan"}, {"city": "Uchko\u2018prik", "latitude": 40.54222, "longitude": 71.06083, "state": "Fergana"}, {"city": "Uchkuduk", "latitude": 41.05, "longitude": 62.78333, "state": "Bukhara"}, {"city": "T\u016dytepa", "latitude": 41.0321, "longitude": 69.36253, "state": "Tashkent Region"}, {"city": "To\u2018rqao\u2018rg\u2018on", "latitude": 40.99984, "longitude": 71.51162, "state": "Namangan"}, {"city": "Toshloq", "latitude": 40.47722, "longitude": 71.76778, "state": "Fergana"}, {"city": "Tashkent", "latitude": 41.26465, "longitude": 69.21627, "state": null}, {"city": "Toshbuloq", "latitude": 40.91617, "longitude": 71.57819, "state": "Namangan"}, {"city": "Tomdibuloq", "latitude": 41.7508, "longitude": 64.61711, "state": "Navoiy Region"}, {"city": "Taxtako\u2018pir", "latitude": 43.01171, "longitude": 60.30111, "state": "Karakalpakstan"}, {"city": "Sirdaryo", "latitude": 40.84361, "longitude": 68.66167, "state": "Sirdaryo Region"}, {"city": "Shovot", "latitude": 41.65817, "longitude": 60.29451, "state": "Xorazm Region"}, {"city": "Sho\u2018rsuv", "latitude": 40.28431, "longitude": 70.79972, "state": "Fergana"}, {"city": "Shahrixon", "latitude": 40.71331, "longitude": 72.05706, "state": "Andijan Region"}, {"city": "Shofirkon Shahri", "latitude": 40.12, "longitude": 64.50139, "state": "Bukhara"}, {"city": "Salor", "latitude": 41.37222, "longitude": 69.38167, "state": "Tashkent Region"}, {"city": "Rishton", "latitude": 40.35667, "longitude": 71.28472, "state": "Fergana"}, {"city": "Qo\u2019shko\u2019pir", "latitude": 41.53275, "longitude": 60.34698, "state": "Xorazm Region"}, {"city": "Qo\u2018qon", "latitude": 40.52861, "longitude": 70.9425, "state": "Fergana"}, {"city": "Piskent", "latitude": 40.89722, "longitude": 69.35056, "state": "Tashkent Region"}, {"city": "Poytug\u2018", "latitude": 40.8977, "longitude": 72.2449, "state": "Andijan Region"}, {"city": "Payshamba Shahri", "latitude": 40.01136, "longitude": 66.23113, "state": "Samarqand Region"}, {"city": "Parkent", "latitude": 41.29444, "longitude": 69.67639, "state": "Tashkent Region"}, {"city": "Pop", "latitude": 40.87361, "longitude": 71.10889, "state": "Namangan"}, {"city": "Paxtakor Shahri", "latitude": 40.31181, "longitude": 67.95667, "state": "Jizzakh Region"}, {"city": "Paxtaobod", "latitude": 40.92936, "longitude": 72.49687, "state": "Andijan Region"}, {"city": "Olmaliq", "latitude": 40.84472, "longitude": 69.59833, "state": "Tashkent Region"}, {"city": "Ohangaron", "latitude": 40.90639, "longitude": 69.63833, "state": "Tashkent Region"}, {"city": "Nurota", "latitude": 40.56139, "longitude": 65.68861, "state": "Navoiy Region"}, {"city": "Novyy Turtkul\u2019", "latitude": 41.55, "longitude": 61.01667, "state": "Karakalpakstan"}, {"city": "Navoiy", "latitude": 40.08444, "longitude": 65.37917, "state": "Navoiy Region"}, {"city": "Navbahor", "latitude": 40.48104, "longitude": 70.77093, "state": "Fergana"}, {"city": "Namangan", "latitude": 40.9983, "longitude": 71.67257, "state": null}, {"city": "Marhamat", "latitude": 40.50236, "longitude": 72.32646, "state": "Andijan Region"}, {"city": "Marhamat", "latitude": 40.48048, "longitude": 72.31388, "state": "Andijan Region"}, {"city": "Marg\u2018ilon", "latitude": 40.47237, "longitude": 71.72463, "state": "Fergana"}, {"city": "Manghit", "latitude": 42.11556, "longitude": 60.05972, "state": "Karakalpakstan"}, {"city": "Asaka", "latitude": 40.64153, "longitude": 72.23868, "state": "Andijan Region"}, {"city": "Qiziltepa", "latitude": 40.03306, "longitude": 64.85, "state": "Navoiy Region"}, {"city": "Kuyganyor", "latitude": 40.85444, "longitude": 72.30734, "state": "Andijan Region"}, {"city": "Quvasoy", "latitude": 40.29721, "longitude": 71.98026, "state": "Fergana"}, {"city": "Qo\u2018rg\u2018ontepa", "latitude": 40.73192, "longitude": 72.76177, "state": "Andijan Region"}, {"city": "Yangi Marg\u2018ilon", "latitude": 40.42722, "longitude": 71.71889, "state": "Fergana"}, {"city": "Kirguli", "latitude": 40.43553, "longitude": 71.76721, "state": "Fergana"}, {"city": "Qibray", "latitude": 41.38972, "longitude": 69.465, "state": "Tashkent Region"}, {"city": "Xonqa", "latitude": 41.47783, "longitude": 60.78146, "state": "Xorazm Region"}, {"city": "Xonobod", "latitude": 40.8026, "longitude": 72.97499, "state": "Andijan Region"}, {"city": "Xo\u2018jaobod", "latitude": 40.66886, "longitude": 72.56002, "state": "Andijan Region"}, {"city": "Xiva", "latitude": 41.38555, "longitude": 60.36408, "state": "Xorazm Region"}, {"city": "Hazratishoh", "latitude": 41.39465, "longitude": 71.78903, "state": "Namangan"}, {"city": "Hamza", "latitude": 40.42762, "longitude": 71.50534, "state": "Fergana"}, {"city": "Haqqulobod", "latitude": 40.91667, "longitude": 72.11667, "state": "Namangan"}, {"city": "Kosonsoy", "latitude": 41.24944, "longitude": 71.54738, "state": "Namangan"}, {"city": "Qorao\u2018zak", "latitude": 43.02207, "longitude": 60.01701, "state": "Karakalpakstan"}, {"city": "Konimex", "latitude": 40.27593, "longitude": 65.14511, "state": "Navoiy Region"}, {"city": "Jizzax", "latitude": 40.12341, "longitude": 67.82842, "state": "Jizzakh Region"}, {"city": "Izboskan", "latitude": 41.03766, "longitude": 72.33659, "state": "Andijan Region"}, {"city": "Iskandar", "latitude": 41.55389, "longitude": 69.70083, "state": "Tashkent Region"}, {"city": "Qorasuv", "latitude": 40.72782, "longitude": 72.88577, "state": "Andijan Region"}, {"city": "Hazorasp", "latitude": 41.31944, "longitude": 61.07417, "state": "Xorazm Region"}, {"city": "Gurlan", "latitude": 41.84123, "longitude": 60.39268, "state": "Xorazm Region"}, {"city": "Guliston", "latitude": 40.48972, "longitude": 68.78417, "state": "Sirdaryo Region"}, {"city": "G\u2019ijduvon Shahri", "latitude": 40.10223, "longitude": 64.68226, "state": "Bukhara"}, {"city": "Gazli", "latitude": 40.13111, "longitude": 63.45713, "state": "Bukhara"}, {"city": "G\u2018ozg\u2018on", "latitude": 40.59078, "longitude": 65.49466, "state": "Navoiy Region"}, {"city": "G\u2018azalkent", "latitude": 41.55806, "longitude": 69.77083, "state": "Tashkent Region"}, {"city": "G\u2019allaorol Shahri", "latitude": 40.02696, "longitude": 67.58781, "state": "Jizzakh Region"}, {"city": "Gagarin Shahri", "latitude": 40.66473, "longitude": 68.16768, "state": "Jizzakh Region"}, {"city": "Fergana", "latitude": 40.38421, "longitude": 71.78432, "state": null}, {"city": "Amir Timur", "latitude": 41.01944, "longitude": 68.94083, "state": "Tashkent Region"}, {"city": "Jalolquduq", "latitude": 40.68918, "longitude": 72.60931, "state": "Andijan Region"}, {"city": "Do\u2019stlik Shahri", "latitude": 40.52881, "longitude": 68.03153, "state": "Jizzakh Region"}, {"city": "Druzhba", "latitude": 41.22222, "longitude": 61.30667, "state": "Xorazm Region"}, {"city": "Dardoq", "latitude": 40.81583, "longitude": 72.83166, "state": "Andijan Region"}, {"city": "Dang\u2018ara", "latitude": 40.58389, "longitude": 70.91444, "state": "Fergana"}, {"city": "Chust", "latitude": 41.00329, "longitude": 71.23791, "state": "Namangan"}, {"city": "Chirchiq", "latitude": 41.46889, "longitude": 69.58222, "state": "Tashkent Region"}, {"city": "Chinoz", "latitude": 40.93633, "longitude": 68.76128, "state": "Tashkent Region"}, {"city": "Kyzyldzhar", "latitude": 41.56667, "longitude": 70.01667, "state": "Tashkent Region"}, {"city": "Chortoq", "latitude": 41.06924, "longitude": 71.82372, "state": "Namangan"}, {"city": "Buloqboshi", "latitude": 40.62907, "longitude": 72.50212, "state": "Andijan Region"}, {"city": "Bo\u2018ka", "latitude": 40.81108, "longitude": 69.19417, "state": "Tashkent Region"}, {"city": "Beshrabot", "latitude": 40.19761, "longitude": 65.33527, "state": "Navoiy Region"}, {"city": "Beshariq", "latitude": 40.43583, "longitude": 70.61028, "state": "Fergana"}, {"city": "Beruniy", "latitude": 41.69111, "longitude": 60.7525, "state": "Karakalpakstan"}, {"city": "Bektemir", "latitude": 41.20972, "longitude": 69.33417, "state": "Tashkent"}, {"city": "Bekobod", "latitude": 40.22083, "longitude": 69.26972, "state": "Tashkent Region"}, {"city": "Baliqchi", "latitude": 40.90499, "longitude": 71.84737, "state": "Andijan Region"}, {"city": "Bag\u2018dod", "latitude": 40.46306, "longitude": 71.21222, "state": "Fergana"}, {"city": "Bog\u2019ot", "latitude": 41.35415, "longitude": 60.81787, "state": "Xorazm Region"}, {"city": "Angren", "latitude": 41.01667, "longitude": 70.14361, "state": "Tashkent Region"}, {"city": "Andijon", "latitude": 40.78206, "longitude": 72.34424, "state": "Andijan Region"}, {"city": "Oltinko\u2018l", "latitude": 40.80104, "longitude": 72.17306, "state": "Andijan Region"}, {"city": "Oltiariq", "latitude": 40.39194, "longitude": 71.47417, "state": "Fergana"}, {"city": "Oqqo\u2018rg\u2018on", "latitude": 40.8775, "longitude": 69.04583, "state": "Tashkent Region"}, {"city": "Oxunboboyev", "latitude": 40.71984, "longitude": 72.64282, "state": "Andijan Region"}, {"city": "Oqoltin", "latitude": 40.74649, "longitude": 71.70031, "state": "Andijan Region"}, {"city": "Oyim", "latitude": 40.81955, "longitude": 72.74234, "state": "Andijan Region"}, {"city": "Quva", "latitude": 40.52204, "longitude": 72.07292, "state": "Fergana"}, {"city": "Qizilcha", "latitude": 40.7107, "longitude": 66.13671, "state": "Navoiy Region"}, {"city": "Beruniy Shahri", "latitude": 41.69904, "longitude": 60.75501, "state": "Karakalpakstan"}, {"city": "To\u2018rtko\u2018l Shahri", "latitude": 41.56055, "longitude": 61.0018, "state": "Karakalpakstan"}, {"city": "Bo\u2018ston Shahri", "latitude": 41.84607, "longitude": 60.94744, "state": "Karakalpakstan"}, {"city": "Mang\u2018it Shahri", "latitude": 42.12215, "longitude": 60.06276, "state": "Karakalpakstan"}, {"city": "Qorovul", "latitude": 41.55384, "longitude": 60.58232, "state": "Xorazm Region"}, {"city": "Uchquduq Shahri", "latitude": 42.15001, "longitude": 63.55221, "state": "Navoiy Region"}, {"city": "Karmana Shahri", "latitude": 40.13782, "longitude": 65.37545, "state": "Navoiy Region"}, {"city": "Qiziltepa Shahri", "latitude": 40.0254, "longitude": 64.82885, "state": "Navoiy Region"}, {"city": "Nurota Shahri", "latitude": 40.56762, "longitude": 65.67947, "state": "Navoiy Region"}, {"city": "Kosonsoy Shahri", "latitude": 41.26327, "longitude": 71.54239, "state": "Namangan"}, {"city": "Chortoq Shahri", "latitude": 41.07703, "longitude": 71.81772, "state": "Namangan"}, {"city": "Pop Shahri", "latitude": 40.87642, "longitude": 71.1022, "state": "Namangan"}, {"city": "T\u016drag\u016drghon Shahri", "latitude": 41.00334, "longitude": 71.51056, "state": "Namangan"}, {"city": "Langar", "latitude": 40.5205, "longitude": 71.66015, "state": "Fergana"}, {"city": "Sultonobod", "latitude": 40.76461, "longitude": 72.97647, "state": "Andijan Region"}, {"city": "Eskiarab", "latitude": 40.36972, "longitude": 71.41861, "state": null}, {"city": "Tinchlik", "latitude": 40.47591, "longitude": 71.55089, "state": "Fergana"}, {"city": "Qo\u2019shrabod", "latitude": 40.25363, "longitude": 66.68849, "state": "Samarqand Region"}]