[{"city": "Birnin Gaour\u00e9", "latitude": 13.08173, "longitude": 2.91099, "state": "Dosso Region"}, {"city": "Birni N Konni", "latitude": 13.79599, "longitude": 5.25026, "state": "Tahoua Region"}, {"city": "Zinder", "latitude": 13.80716, "longitude": 8.9881, "state": "Zinder Region"}, {"city": "Torodi", "latitude": 13.11915, "longitude": 1.79869, "state": "Tillab\u00e9ri Region"}, {"city": "Tillia", "latitude": 16.12333, "longitude": 4.78972, "state": "Tahoua Region"}, {"city": "Tillab\u00e9ri", "latitude": 14.20711, "longitude": 1.45418, "state": "Tillab\u00e9ri Region"}, {"city": "Tibiri", "latitude": 13.56271, "longitude": 7.04848, "state": "Maradi Region"}, {"city": "Tibiri", "latitude": 13.10575, "longitude": 3.99774, "state": "Dosso Region"}, {"city": "Tessaoua", "latitude": 13.75737, "longitude": 7.9874, "state": "Maradi Region"}, {"city": "T\u00e9ra", "latitude": 14.00776, "longitude": 0.75306, "state": "Tillab\u00e9ri Region"}, {"city": "Tchin Tabarad\u00e8n", "latitude": 15.8969, "longitude": 5.7985, "state": "Tahoua Region"}, {"city": "Tassara", "latitude": 16.80472, "longitude": 5.64417, "state": "Tahoua Region"}, {"city": "Tasker", "latitude": 15.11744, "longitude": 10.69687, "state": "Zinder Region"}, {"city": "Tanout", "latitude": 14.97089, "longitude": 8.88786, "state": "Zinder Region"}, {"city": "Taki\u00e9ta", "latitude": 13.68066, "longitude": 8.52904, "state": "Zinder Region"}, {"city": "Tahoua", "latitude": 14.8888, "longitude": 5.2692, "state": "Tahoua Region"}, {"city": "Say", "latitude": 13.1007, "longitude": 2.3689, "state": "Tillab\u00e9ri Region"}, {"city": "Ouallam", "latitude": 14.31641, "longitude": 2.08597, "state": "Tillab\u00e9ri Region"}, {"city": "Niamey", "latitude": 13.51366, "longitude": 2.1098, "state": null}, {"city": "Nguigmi", "latitude": 14.24953, "longitude": 13.10921, "state": "Diffa"}, {"city": "Ngourti", "latitude": 15.33128, "longitude": 13.19932, "state": "Diffa"}, {"city": "Mirriah", "latitude": 13.70727, "longitude": 9.15013, "state": "Zinder Region"}, {"city": "Mayahi", "latitude": 13.95532, "longitude": 7.67122, "state": "Maradi Region"}, {"city": "Matamey", "latitude": 13.42309, "longitude": 8.47485, "state": "Zinder Region"}, {"city": "Maradi", "latitude": 13.5, "longitude": 7.10174, "state": "Maradi Region"}, {"city": "Malbaza", "latitude": 13.92706, "longitude": 5.52032, "state": "Tahoua Region"}, {"city": "Ma\u00efn\u00e9 Soroa", "latitude": 13.21139, "longitude": 12.0241, "state": "Diffa"}, {"city": "Magaria", "latitude": 12.99826, "longitude": 8.90991, "state": "Zinder Region"}, {"city": "Madarounfa", "latitude": 13.30867, "longitude": 7.15602, "state": "Maradi Region"}, {"city": "Madaoua", "latitude": 14.073, "longitude": 5.96, "state": "Tahoua Region"}, {"city": "Loga", "latitude": 13.6132, "longitude": 3.2358, "state": "Dosso Region"}, {"city": "Kollo", "latitude": 13.3043, "longitude": 2.339, "state": "Tillab\u00e9ri Region"}, {"city": "Ke\u00efta", "latitude": 14.7551, "longitude": 5.7749, "state": "Tahoua Region"}, {"city": "Kantch\u00e9", "latitude": 13.53926, "longitude": 8.46293, "state": "Zinder Region"}, {"city": "I-n-Gall", "latitude": 16.78778, "longitude": 6.93417, "state": "Agadez"}, {"city": "Ill\u00e9la", "latitude": 14.4605, "longitude": 5.2437, "state": "Tahoua Region"}, {"city": "Iferou\u00e2ne", "latitude": 19.0625, "longitude": 8.42, "state": "Agadez"}, {"city": "Guidan Roumdji", "latitude": 13.6576, "longitude": 6.69567, "state": "Maradi Region"}, {"city": "Gour\u00e9", "latitude": 13.9835, "longitude": 10.27035, "state": "Zinder Region"}, {"city": "Goudoumaria", "latitude": 13.7109, "longitude": 11.1885, "state": "Diffa"}, {"city": "Goth\u00e8ye", "latitude": 13.8559, "longitude": 1.56707, "state": "Tillab\u00e9ri Region"}, {"city": "Gazaoua", "latitude": 13.52578, "longitude": 7.91398, "state": "Maradi Region"}, {"city": "Gaya", "latitude": 11.88435, "longitude": 3.44919, "state": "Dosso Region"}, {"city": "Filingu\u00e9", "latitude": 14.3521, "longitude": 3.3168, "state": "Tillab\u00e9ri Region"}, {"city": "Falmey", "latitude": 12.59539, "longitude": 2.85112, "state": "Dosso Region"}, {"city": "Dungas", "latitude": 13.06153, "longitude": 9.34342, "state": "Zinder Region"}, {"city": "Dosso", "latitude": 13.049, "longitude": 3.1937, "state": "Dosso Region"}, {"city": "Dogondoutchi", "latitude": 13.6403, "longitude": 4.02649, "state": "Dosso Region"}, {"city": "Dioundiou", "latitude": 12.61677, "longitude": 3.54427, "state": "Dosso Region"}, {"city": "Diffa", "latitude": 13.31536, "longitude": 12.61135, "state": null}, {"city": "Dakoro", "latitude": 14.51056, "longitude": 6.765, "state": "Maradi Region"}, {"city": "Bouza", "latitude": 14.42293, "longitude": 6.04278, "state": "Tahoua Region"}, {"city": "Bosso", "latitude": 13.69869, "longitude": 13.30951, "state": "Diffa"}, {"city": "Bilma", "latitude": 18.68532, "longitude": 12.91643, "state": "Agadez"}, {"city": "B\u00e9lb\u00e9ji", "latitude": 14.6769, "longitude": 7.98282, "state": "Zinder Region"}, {"city": "Bankilar\u00e9", "latitude": 14.57653, "longitude": 0.72669, "state": "Tillab\u00e9ri Region"}, {"city": "Bani Bangou", "latitude": 15.0416, "longitude": 2.7037, "state": "Tillab\u00e9ri Region"}, {"city": "Bal\u00e9yara", "latitude": 13.7838, "longitude": 2.9523, "state": "Tillab\u00e9ri Region"}, {"city": "Bagaroua", "latitude": 14.63616, "longitude": 4.34896, "state": "Tahoua Region"}, {"city": "Ayorou", "latitude": 14.73075, "longitude": 0.91739, "state": "Tillab\u00e9ri Region"}, {"city": "Arlit", "latitude": 18.73694, "longitude": 7.38528, "state": "Agadez"}, {"city": "Alaghsas", "latitude": 17.0187, "longitude": 8.0168, "state": "Agadez"}, {"city": "Agui\u00e9", "latitude": 13.50601, "longitude": 7.77863, "state": "Maradi Region"}, {"city": "Agadez", "latitude": 16.97333, "longitude": 7.99111, "state": null}, {"city": "Ad\u00e9rbissinat", "latitude": 15.6275, "longitude": 7.8945, "state": "Agadez"}, {"city": "Abalak", "latitude": 15.4509, "longitude": 6.2793, "state": "Tahoua Region"}, {"city": "Abala", "latitude": 14.9369, "longitude": 3.4336, "state": "Tillab\u00e9ri Region"}, {"city": "Damagaram Tak\u00e8r", "latitude": 14.1377, "longitude": 9.4842, "state": "Zinder Region"}, {"city": "Tchiroz\u00e9rine", "latitude": 17.22096, "longitude": 7.7614, "state": "Agadez"}, {"city": "Bermo", "latitude": 14.70816, "longitude": 6.61908, "state": "Maradi Region"}]