[{"city": "Zapotillo", "latitude": 8.00719, "longitude": -81.50917, "state": "Veraguas Province"}, {"city": "Las Zang\u00fcengas", "latitude": 8.95811, "longitude": -79.86979, "state": "Panam\u00e1 Oeste Province"}, {"city": "Yaviza", "latitude": 8.15835, "longitude": -77.69276, "state": "Dari\u00e9n"}, {"city": "Yape", "latitude": 8.09839, "longitude": -77.59817, "state": "Ember\u00e1"}, {"city": "Volc\u00e1n", "latitude": 8.78046, "longitude": -82.63896, "state": "Chiriqu\u00ed Province"}, {"city": "Vista Hermosa", "latitude": 8.52687, "longitude": -80.37486, "state": "Cocl\u00e9"}, {"city": "Vista Alegre", "latitude": 8.92923, "longitude": -79.69964, "state": "Panam\u00e1 Oeste Province"}, {"city": "Villa Rosario", "latitude": 8.77972, "longitude": -79.87351, "state": "Panam\u00e1 Oeste Province"}, {"city": "Villa Carmen", "latitude": 8.80337, "longitude": -79.86791, "state": "Panam\u00e1 Oeste Province"}, {"city": "Vigu\u00ed", "latitude": 8.3399, "longitude": -81.49752, "state": "Veraguas Province"}, {"city": "Viento Fr\u00edo", "latitude": 9.58263, "longitude": -79.4069, "state": "Col\u00f3n"}, {"city": "Veracruz", "latitude": 8.89319, "longitude": -79.62338, "state": "Panam\u00e1 Oeste Province"}, {"city": "Veladero", "latitude": 8.23455, "longitude": -81.65246, "state": "Chiriqu\u00ed Province"}, {"city": "Vallerriquito", "latitude": 7.62227, "longitude": -80.31656, "state": "Los Santos Province"}, {"city": "Valle Rico", "latitude": 7.62011, "longitude": -80.35076, "state": "Los Santos Province"}, {"city": "Utir\u00e1", "latitude": 7.9749, "longitude": -81.21726, "state": "Veraguas Province"}, {"city": "Ustupo", "latitude": 9.13112, "longitude": -77.9262, "state": "Guna Yala"}, {"city": "Tucut\u00ed", "latitude": 7.96014, "longitude": -77.9322, "state": "Dari\u00e9n"}, {"city": "Tubual\u00e1", "latitude": 9.50959, "longitude": -79.04492, "state": "Guna Yala"}, {"city": "Tres Quebradas", "latitude": 7.84018, "longitude": -80.4074, "state": "Los Santos Province"}, {"city": "Toza", "latitude": 8.34524, "longitude": -80.64114, "state": "Cocl\u00e9"}, {"city": "Tonos\u00ed", "latitude": 7.40718, "longitude": -80.43936, "state": "Los Santos Province"}, {"city": "Tol\u00e9", "latitude": 8.2433, "longitude": -81.66973, "state": "Chiriqu\u00ed Province"}, {"city": "Tocumen", "latitude": 9.08939, "longitude": -79.3831, "state": "Panam\u00e1"}, {"city": "Tobobe", "latitude": 9.12079, "longitude": -81.828, "state": "Ng\u00f6be-Bugl\u00e9 Comarca"}, {"city": "Toabr\u00e9", "latitude": 8.65073, "longitude": -80.32119, "state": "Cocl\u00e9"}, {"city": "Tinajas", "latitude": 8.5592, "longitude": -82.46217, "state": "Chiriqu\u00ed Province"}, {"city": "Tijeras", "latitude": 8.46926, "longitude": -82.54838, "state": "Chiriqu\u00ed Province"}, {"city": "Tebario", "latitude": 7.7192, "longitude": -80.97464, "state": "Veraguas Province"}, {"city": "Pueblo Nuevo", "latitude": 8.15362, "longitude": -78.24442, "state": "Dari\u00e9n"}, {"city": "Sortov\u00e1", "latitude": 8.55109, "longitude": -82.65094, "state": "Chiriqu\u00ed Province"}, {"city": "Sor\u00e1", "latitude": 8.63451, "longitude": -80.0093, "state": "Panam\u00e1 Oeste Province"}, {"city": "Son\u00e1", "latitude": 8.00877, "longitude": -81.31727, "state": "Veraguas Province"}, {"city": "Soloy", "latitude": 8.49692, "longitude": -82.07202, "state": "Ng\u00f6be-Bugl\u00e9 Comarca"}, {"city": "Sitio Prado", "latitude": 8.37281, "longitude": -81.57998, "state": "Ng\u00f6be-Bugl\u00e9 Comarca"}, {"city": "Siogu\u00ed Arriba", "latitude": 8.53914, "longitude": -82.68358, "state": "Chiriqu\u00ed Province"}, {"city": "Siogu\u00ed Abajo", "latitude": 8.48141, "longitude": -82.66303, "state": "Chiriqu\u00ed Province"}, {"city": "Setegant\u00ed", "latitude": 8.29398, "longitude": -78.08924, "state": "Dari\u00e9n"}, {"city": "Sardinilla", "latitude": 9.30311, "longitude": -79.63616, "state": "Col\u00f3n"}, {"city": "San Vicente de Bique", "latitude": 8.91605, "longitude": -79.67227, "state": "Panam\u00e1 Oeste Province"}, {"city": "San Vicente", "latitude": 9.11541, "longitude": -79.59929, "state": "Panam\u00e1"}, {"city": "Santo Tom\u00e1s", "latitude": 8.39702, "longitude": -82.64769, "state": "Chiriqu\u00ed Province"}, {"city": "Santo Domingo", "latitude": 8.5104, "longitude": -82.71365, "state": "Chiriqu\u00ed Province"}, {"city": "Santo Domingo", "latitude": 7.74856, "longitude": -80.2414, "state": "Los Santos Province"}, {"city": "Santiago de Veraguas", "latitude": 8.1, "longitude": -80.98333, "state": "Veraguas Province"}, {"city": "Santa Rosa N\u00famero Uno", "latitude": 8.86834, "longitude": -80.09771, "state": "Panam\u00e1 Oeste Province"}, {"city": "Santa Rosa", "latitude": 8.60306, "longitude": -82.68456, "state": "Chiriqu\u00ed Province"}, {"city": "Santa Rita", "latitude": 8.85968, "longitude": -79.88039, "state": "Panam\u00e1 Oeste Province"}, {"city": "Santa Rita", "latitude": 8.49613, "longitude": -80.19038, "state": "Cocl\u00e9"}, {"city": "Santa Marta", "latitude": 8.52289, "longitude": -82.70113, "state": "Chiriqu\u00ed Province"}, {"city": "Santa Mar\u00eda", "latitude": 8.11402, "longitude": -80.66464, "state": "Herrera Province"}, {"city": "Santa Isabel", "latitude": 9.53922, "longitude": -79.1957, "state": "Col\u00f3n"}, {"city": "Santa F\u00e9", "latitude": 8.65841, "longitude": -78.15886, "state": "Dari\u00e9n"}, {"city": "Santa Fe", "latitude": 8.51185, "longitude": -81.07789, "state": "Veraguas Province"}, {"city": "Santa Cruz", "latitude": 8.6463, "longitude": -82.76055, "state": "Chiriqu\u00ed Province"}, {"city": "Santa Cruz", "latitude": 8.23534, "longitude": -81.91268, "state": "Chiriqu\u00ed Province"}, {"city": "Santa Clara", "latitude": 9.03386, "longitude": -79.75341, "state": "Panam\u00e1 Oeste Province"}, {"city": "Santa Clara", "latitude": 8.8348, "longitude": -82.78189, "state": "Chiriqu\u00ed Province"}, {"city": "Santa Catalina", "latitude": 8.78112, "longitude": -81.33507, "state": "Ng\u00f6be-Bugl\u00e9 Comarca"}, {"city": "Santa Ana Arriba", "latitude": 7.93457, "longitude": -80.36378, "state": "Los Santos Province"}, {"city": "San Pedro del Espino", "latitude": 8.13868, "longitude": -81.08205, "state": "Veraguas Province"}, {"city": "San Pablo Viejo Abajo", "latitude": 8.45461, "longitude": -82.50487, "state": "Chiriqu\u00ed Province"}, {"city": "San Pablo Nuevo", "latitude": 8.42771, "longitude": -82.50012, "state": "Chiriqu\u00ed Province"}, {"city": "San Miguelito", "latitude": 9.05032, "longitude": -79.47068, "state": "Panam\u00e1"}, {"city": "San Miguel", "latitude": 8.45685, "longitude": -78.93695, "state": "Panam\u00e1"}, {"city": "San Marcelo", "latitude": 8.27229, "longitude": -81.14648, "state": "Veraguas Province"}, {"city": "San Lorenzo", "latitude": 8.30942, "longitude": -82.10256, "state": "Chiriqu\u00ed Province"}, {"city": "San Juan", "latitude": 8.3032, "longitude": -81.01346, "state": "Veraguas Province"}, {"city": "San Juan", "latitude": 8.27962, "longitude": -81.99544, "state": "Chiriqu\u00ed Province"}, {"city": "San Jos\u00e9", "latitude": 8.92703, "longitude": -79.73359, "state": "Panam\u00e1 Oeste Province"}, {"city": "San Jos\u00e9", "latitude": 8.53542, "longitude": -79.92357, "state": "Panam\u00e1 Oeste Province"}, {"city": "San Jos\u00e9", "latitude": 8.46578, "longitude": -80.80365, "state": "Veraguas Province"}, {"city": "San Jos\u00e9", "latitude": 8.37052, "longitude": -81.41527, "state": "Veraguas Province"}, {"city": "San Jos\u00e9", "latitude": 7.67704, "longitude": -80.24339, "state": "Los Santos Province"}, {"city": "San Ignacio de Tupile", "latitude": 9.29505, "longitude": -78.15501, "state": "Guna Yala"}, {"city": "San Francisco", "latitude": 8.99235, "longitude": -79.50818, "state": "Panam\u00e1"}, {"city": "San Francisco", "latitude": 8.24541, "longitude": -80.97368, "state": "Veraguas Province"}, {"city": "San Francisco", "latitude": 8.05836, "longitude": -81.37431, "state": "Veraguas Province"}, {"city": "San F\u00e9lix", "latitude": 8.29325, "longitude": -81.86916, "state": "Chiriqu\u00ed Province"}, {"city": "San Felipe", "latitude": 8.95118, "longitude": -79.53726, "state": "Panam\u00e1"}, {"city": "San Carlos", "latitude": 8.5205, "longitude": -82.50465, "state": "Chiriqu\u00ed Province"}, {"city": "San Carlos", "latitude": 8.47343, "longitude": -79.95645, "state": "Panam\u00e1 Oeste Province"}, {"city": "San Bartolo", "latitude": 8.21275, "longitude": -81.27633, "state": "Veraguas Province"}, {"city": "San Antonio", "latitude": 8.0722, "longitude": -80.92971, "state": "Veraguas Province"}, {"city": "San Andr\u00e9s", "latitude": 8.6022, "longitude": -82.72449, "state": "Chiriqu\u00ed Province"}, {"city": "Salud", "latitude": 9.2067, "longitude": -80.13205, "state": "Col\u00f3n"}, {"city": "Sabanitas", "latitude": 9.34521, "longitude": -79.80543, "state": "Col\u00f3n"}, {"city": "Sabana Grande", "latitude": 7.88069, "longitude": -80.63817, "state": "Herrera Province"}, {"city": "Sabana Grande", "latitude": 7.83876, "longitude": -80.36595, "state": "Los Santos Province"}, {"city": "Rovira Arriba", "latitude": 8.6389, "longitude": -82.50341, "state": "Chiriqu\u00ed Province"}, {"city": "Rodeo Viejo", "latitude": 8.11506, "longitude": -81.31593, "state": "Veraguas Province"}, {"city": "Valle de Risc\u00f3", "latitude": 9.23118, "longitude": -82.42969, "state": "Bocas del Toro Province"}, {"city": "R\u00edo Sereno", "latitude": 8.81952, "longitude": -82.86044, "state": "Chiriqu\u00ed Province"}, {"city": "R\u00edo Rita", "latitude": 9.30854, "longitude": -79.79096, "state": "Col\u00f3n"}, {"city": "R\u00edo Hondo", "latitude": 7.71429, "longitude": -80.35734, "state": "Los Santos Province"}, {"city": "R\u00edo Hato", "latitude": 8.3794, "longitude": -80.16621, "state": "Cocl\u00e9"}, {"city": "R\u00edo Grande", "latitude": 8.61713, "longitude": -81.3033, "state": "Ng\u00f6be-Bugl\u00e9 Comarca"}, {"city": "R\u00edo Grande", "latitude": 8.43189, "longitude": -80.48699, "state": "Cocl\u00e9"}, {"city": "R\u00edo Grande", "latitude": 7.71907, "longitude": -81.33423, "state": "Veraguas Province"}, {"city": "Gat\u00fan", "latitude": 9.2891, "longitude": -79.76799, "state": "Col\u00f3n"}, {"city": "R\u00edo Duque", "latitude": 9.26117, "longitude": -79.67858, "state": "Col\u00f3n"}, {"city": "R\u00edo de Jes\u00fas", "latitude": 7.9839, "longitude": -81.16141, "state": "Veraguas Province"}, {"city": "R\u00edo Congo", "latitude": 8.96733, "longitude": -79.76017, "state": "Panam\u00e1 Oeste Province"}, {"city": "R\u00edo Alejandro", "latitude": 9.3735, "longitude": -79.78901, "state": "Col\u00f3n"}, {"city": "R\u00edo Abajo", "latitude": 9.02397, "longitude": -79.49361, "state": "Panam\u00e1"}, {"city": "Rinc\u00f3n Hondo", "latitude": 7.84213, "longitude": -80.60296, "state": "Herrera Province"}, {"city": "Rinc\u00f3n", "latitude": 8.46603, "longitude": -82.28104, "state": "Chiriqu\u00ed Province"}, {"city": "Remedios", "latitude": 8.22541, "longitude": -81.82923, "state": "Chiriqu\u00ed Province"}, {"city": "Panama City", "latitude": 9.33404, "longitude": -79.89172, "state": "Col\u00f3n"}, {"city": "Quer\u00e9valo", "latitude": 8.37236, "longitude": -82.51989, "state": "Chiriqu\u00ed Province"}, {"city": "Quebrada de Piedra", "latitude": 8.0954, "longitude": -81.68291, "state": "Chiriqu\u00ed Province"}, {"city": "Quebrada de Oro", "latitude": 8.03548, "longitude": -81.38692, "state": "Veraguas Province"}, {"city": "Quebrada del Rosario Arriba", "latitude": 7.71758, "longitude": -80.73888, "state": "Herrera Province"}, {"city": "Quebrada de Loro", "latitude": 8.35442, "longitude": -81.91803, "state": "Ng\u00f6be-Bugl\u00e9 Comarca"}, {"city": "Canoa", "latitude": 8.43858, "longitude": -81.77933, "state": "Ng\u00f6be-Bugl\u00e9 Comarca"}, {"city": "Quebrada Bonita Adentro", "latitude": 9.29648, "longitude": -79.70628, "state": "Col\u00f3n"}, {"city": "Punta R\u00f3balo", "latitude": 9.03793, "longitude": -82.2477, "state": "Bocas del Toro Province"}, {"city": "Punta Laurel", "latitude": 9.14124, "longitude": -82.12696, "state": "Bocas del Toro Province"}, {"city": "Punta Pe\u00f1a", "latitude": 8.91659, "longitude": -82.18488, "state": "Bocas del Toro Province"}, {"city": "Burica", "latitude": 8.03389, "longitude": -82.86866, "state": "Chiriqu\u00ed Province"}, {"city": "Puerto Vidal", "latitude": 8.04934, "longitude": -81.60454, "state": "Veraguas Province"}, {"city": "Puerto Pil\u00f3n", "latitude": 9.36316, "longitude": -79.79333, "state": "Col\u00f3n"}, {"city": "Puerto Obald\u00eda", "latitude": 8.66632, "longitude": -77.41922, "state": "Guna Yala"}, {"city": "Puerto Escondido", "latitude": 9.19419, "longitude": -80.09566, "state": "Col\u00f3n"}, {"city": "Puerto Caimito", "latitude": 8.87392, "longitude": -79.71572, "state": "Panam\u00e1 Oeste Province"}, {"city": "Puerto Armuelles", "latitude": 8.27775, "longitude": -82.86206, "state": "Chiriqu\u00ed Province"}, {"city": "Pueblo Viejo", "latitude": 8.25081, "longitude": -81.66259, "state": "Chiriqu\u00ed Province"}, {"city": "P\u00facuro", "latitude": 7.97876, "longitude": -77.48758, "state": "Dari\u00e9n"}, {"city": "Progreso", "latitude": 8.44669, "longitude": -82.83859, "state": "Chiriqu\u00ed Province"}, {"city": "Potuga", "latitude": 8.06588, "longitude": -80.6209, "state": "Herrera Province"}, {"city": "Potrero Grande", "latitude": 8.88305, "longitude": -79.83006, "state": "Panam\u00e1 Oeste Province"}, {"city": "Potrero de Ca\u00f1a", "latitude": 8.29102, "longitude": -81.69698, "state": "Ng\u00f6be-Bugl\u00e9 Comarca"}, {"city": "Potrerillos Arriba", "latitude": 8.68832, "longitude": -82.4924, "state": "Chiriqu\u00ed Province"}, {"city": "Potrerillos Abajo", "latitude": 8.6452, "longitude": -82.48567, "state": "Chiriqu\u00ed Province"}, {"city": "Portobelo", "latitude": 9.55303, "longitude": -79.65693, "state": "Col\u00f3n"}, {"city": "Portobelillo", "latitude": 8.01746, "longitude": -80.59781, "state": "Herrera Province"}, {"city": "Ponuga", "latitude": 7.88273, "longitude": -80.97709, "state": "Veraguas Province"}, {"city": "Pocr\u00ed", "latitude": 8.25639, "longitude": -80.54626, "state": "Cocl\u00e9"}, {"city": "Pocr\u00ed", "latitude": 7.66022, "longitude": -80.11946, "state": "Los Santos Province"}, {"city": "Plaza de Cais\u00e1n", "latitude": 8.74346, "longitude": -82.82066, "state": "Chiriqu\u00ed Province"}, {"city": "Play\u00f3n Chico", "latitude": 9.31128, "longitude": -78.2327, "state": "Guna Yala"}, {"city": "Playa Leona", "latitude": 8.78868, "longitude": -79.77237, "state": "Panam\u00e1 Oeste Province"}, {"city": "Playa Chiquita", "latitude": 9.5662, "longitude": -79.29185, "state": "Col\u00f3n"}, {"city": "Plan de Chorcha", "latitude": 8.46507, "longitude": -82.16439, "state": "Ng\u00f6be-Bugl\u00e9 Comarca"}, {"city": "Pinogana", "latitude": 8.11724, "longitude": -77.68307, "state": "Dari\u00e9n"}, {"city": "Piedras Gordas", "latitude": 8.63886, "longitude": -80.51137, "state": "Cocl\u00e9"}, {"city": "Piedras Gordas", "latitude": 8.52625, "longitude": -80.91031, "state": "Veraguas Province"}, {"city": "Piedra Roja", "latitude": 8.5703, "longitude": -81.74661, "state": "Ng\u00f6be-Bugl\u00e9 Comarca"}, {"city": "Pes\u00e9", "latitude": 7.90863, "longitude": -80.61433, "state": "Herrera Province"}, {"city": "Perales", "latitude": 7.77687, "longitude": -80.3214, "state": "Los Santos Province"}, {"city": "Penonom\u00e9", "latitude": 8.51889, "longitude": -80.35727, "state": "Cocl\u00e9"}, {"city": "Pe\u00f1as Chatas", "latitude": 8.01788, "longitude": -80.80217, "state": "Herrera Province"}, {"city": "Pe\u00f1a Blanca", "latitude": 8.47011, "longitude": -81.68797, "state": "Ng\u00f6be-Bugl\u00e9 Comarca"}, {"city": "Pe\u00f1a Blanca", "latitude": 7.72035, "longitude": -80.2837, "state": "Los Santos Province"}, {"city": "Pedregal", "latitude": 9.0661, "longitude": -79.42577, "state": "Panam\u00e1"}, {"city": "Pedregal", "latitude": 8.37698, "longitude": -82.42947, "state": "Chiriqu\u00ed Province"}, {"city": "Pedas\u00ed", "latitude": 7.53034, "longitude": -80.02699, "state": "Los Santos Province"}, {"city": "Paya", "latitude": 7.90575, "longitude": -77.40374, "state": "Dari\u00e9n"}, {"city": "Parque Lefevre", "latitude": 9.02266, "longitude": -79.47864, "state": "Panam\u00e1"}, {"city": "Paritilla", "latitude": 7.62928, "longitude": -80.1742, "state": "Los Santos Province"}, {"city": "Parita", "latitude": 7.99609, "longitude": -80.52001, "state": "Herrera Province"}, {"city": "Par\u00eds", "latitude": 8.05267, "longitude": -80.55379, "state": "Herrera Province"}, {"city": "Para\u00edso", "latitude": 8.66271, "longitude": -82.59078, "state": "Chiriqu\u00ed Province"}, {"city": "Para\u00edso", "latitude": 7.68714, "longitude": -80.15896, "state": "Los Santos Province"}, {"city": "Panam\u00e1", "latitude": 8.9936, "longitude": -79.51973, "state": null}, {"city": "Palo Grande", "latitude": 8.35163, "longitude": -82.60639, "state": "Chiriqu\u00ed Province"}, {"city": "Palmira Centro", "latitude": 8.74156, "longitude": -82.4505, "state": "Chiriqu\u00ed Province"}, {"city": "Palmira", "latitude": 9.54686, "longitude": -79.21541, "state": "Col\u00f3n"}, {"city": "Palmira", "latitude": 8.73401, "longitude": -82.45887, "state": "Chiriqu\u00ed Province"}, {"city": "Palmira", "latitude": 7.66347, "longitude": -80.35728, "state": "Los Santos Province"}, {"city": "Palmas Bellas", "latitude": 9.22838, "longitude": -80.08503, "state": "Col\u00f3n"}, {"city": "Palenque", "latitude": 9.57353, "longitude": -79.35761, "state": "Col\u00f3n"}, {"city": "Paja de Sombrero", "latitude": 8.68609, "longitude": -82.32155, "state": "Chiriqu\u00ed Province"}, {"city": "Pacora", "latitude": 9.08252, "longitude": -79.28957, "state": "Panam\u00e1"}, {"city": "Ol\u00e1", "latitude": 8.42024, "longitude": -80.65051, "state": "Cocl\u00e9"}, {"city": "Oc\u00fa", "latitude": 7.94525, "longitude": -80.7773, "state": "Herrera Province"}, {"city": "Nuevo Vig\u00eda", "latitude": 9.2442, "longitude": -79.60873, "state": "Col\u00f3n"}, {"city": "Nuevo San Juan", "latitude": 9.22552, "longitude": -79.66559, "state": "Col\u00f3n"}, {"city": "Nuevo Emperador", "latitude": 9.00282, "longitude": -79.73038, "state": "Panam\u00e1 Oeste Province"}, {"city": "Nuevo Chagres", "latitude": 9.23979, "longitude": -80.08267, "state": "Col\u00f3n"}, {"city": "Nuevo Arraij\u00e1n", "latitude": 8.92643, "longitude": -79.72023, "state": "Panam\u00e1 Oeste Province"}, {"city": "Nueva Providencia", "latitude": 9.26333, "longitude": -79.81556, "state": "Col\u00f3n"}, {"city": "Nueva Gorgona", "latitude": 8.55479, "longitude": -79.87427, "state": "Panam\u00e1 Oeste Province"}, {"city": "Nueva Arenosa", "latitude": 8.8697, "longitude": -79.99655, "state": "Panam\u00e1 Oeste Province"}, {"city": "Nuestro Amo", "latitude": 8.44835, "longitude": -80.59356, "state": "Cocl\u00e9"}, {"city": "Nuario", "latitude": 7.52707, "longitude": -80.31998, "state": "Los Santos Province"}, {"city": "Nombre de Dios", "latitude": 9.58154, "longitude": -79.46846, "state": "Col\u00f3n"}, {"city": "Nat\u00e1", "latitude": 8.33588, "longitude": -80.5213, "state": "Cocl\u00e9"}, {"city": "Nargan\u00e1", "latitude": 9.44394, "longitude": -78.58666, "state": "Guna Yala"}, {"city": "Mulatupo", "latitude": 8.94672, "longitude": -77.7508, "state": "Guna Yala"}, {"city": "Mort\u00ed", "latitude": 8.84246, "longitude": -77.97539, "state": "Dari\u00e9n"}, {"city": "Montijo", "latitude": 7.99179, "longitude": -81.05546, "state": "Veraguas Province"}, {"city": "Monte Lirio", "latitude": 8.7933, "longitude": -82.82453, "state": "Chiriqu\u00ed Province"}, {"city": "La Monta\u00f1uela", "latitude": 8.0244, "longitude": -80.8568, "state": "Veraguas Province"}, {"city": "Monjar\u00e1s", "latitude": 8.37167, "longitude": -80.86573, "state": "Veraguas Province"}, {"city": "Monagrillo", "latitude": 7.98262, "longitude": -80.43302, "state": "Herrera Province"}, {"city": "Mogoll\u00f3n", "latitude": 7.64923, "longitude": -80.45718, "state": "Los Santos Province"}, {"city": "Miramar", "latitude": 9.57544, "longitude": -79.33573, "state": "Col\u00f3n"}, {"city": "Miramar", "latitude": 8.9975, "longitude": -82.24344, "state": "Bocas del Toro Province"}, {"city": "Miguel de La Borda", "latitude": 9.15398, "longitude": -80.30595, "state": "Col\u00f3n"}, {"city": "Metet\u00ed", "latitude": 8.49909, "longitude": -77.97897, "state": "Dari\u00e9n"}, {"city": "Mendoza", "latitude": 9.01589, "longitude": -79.84856, "state": "Panam\u00e1 Oeste Province"}, {"city": "Mata del Nance", "latitude": 8.45169, "longitude": -82.4003, "state": "Chiriqu\u00ed Province"}, {"city": "Mar\u00eda Chiquita", "latitude": 9.44289, "longitude": -79.75301, "state": "Col\u00f3n"}, {"city": "Mariab\u00e9", "latitude": 7.58343, "longitude": -80.06419, "state": "Los Santos Province"}, {"city": "Margarita", "latitude": 9.32603, "longitude": -79.89028, "state": "Col\u00f3n"}, {"city": "Maraca", "latitude": 8.37613, "longitude": -81.73334, "state": "Ng\u00f6be-Bugl\u00e9 Comarca"}, {"city": "Macaracas", "latitude": 7.73168, "longitude": -80.55364, "state": "Los Santos Province"}, {"city": "Los Valles", "latitude": 8.44613, "longitude": -81.19663, "state": "Veraguas Province"}, {"city": "Los Santos", "latitude": 7.93445, "longitude": -80.41218, "state": "Los Santos Province"}, {"city": "Los Pozos", "latitude": 7.78805, "longitude": -80.64569, "state": "Herrera Province"}, {"city": "Los Olivos", "latitude": 7.91852, "longitude": -80.48801, "state": "Los Santos Province"}, {"city": "Los Naranjos", "latitude": 8.79419, "longitude": -82.44557, "state": "Chiriqu\u00ed Province"}, {"city": "Los Lotes", "latitude": 9.12542, "longitude": -79.29101, "state": "Panam\u00e1"}, {"city": "Los Llanitos", "latitude": 8.59853, "longitude": -80.0932, "state": "Panam\u00e1 Oeste Province"}, {"city": "Los Higos", "latitude": 8.20553, "longitude": -80.86022, "state": "Veraguas Province"}, {"city": "Los Corot\u00faes", "latitude": 8.41171, "longitude": -81.0997, "state": "Veraguas Province"}, {"city": "Los Cerros de Paja", "latitude": 7.72064, "longitude": -80.67081, "state": "Herrera Province"}, {"city": "Los Cerritos", "latitude": 7.79952, "longitude": -80.60641, "state": "Herrera Province"}, {"city": "Los Castillos", "latitude": 8.02459, "longitude": -81.11667, "state": "Veraguas Province"}, {"city": "Los Castillos", "latitude": 7.98744, "longitude": -80.61926, "state": "Herrera Province"}, {"city": "Los Canelos", "latitude": 8.12217, "longitude": -80.70526, "state": "Herrera Province"}, {"city": "Los Asientos", "latitude": 7.51848, "longitude": -80.13289, "state": "Los Santos Province"}, {"city": "Los \u00c1ngeles", "latitude": 8.52571, "longitude": -82.20286, "state": "Chiriqu\u00ed Province"}, {"city": "Los \u00c1ngeles", "latitude": 7.88463, "longitude": -80.35497, "state": "Los Santos Province"}, {"city": "Los Anastacios", "latitude": 8.53027, "longitude": -82.42295, "state": "Chiriqu\u00ed Province"}, {"city": "Los Algarrobos", "latitude": 8.49674, "longitude": -82.42417, "state": "Chiriqu\u00ed Province"}, {"city": "Los Algarrobos", "latitude": 8.11291, "longitude": -81.01524, "state": "Veraguas Province"}, {"city": "Lol\u00e1", "latitude": 8.09263, "longitude": -81.46653, "state": "Veraguas Province"}, {"city": "Llano Tugr\u00ed", "latitude": 8.47917, "longitude": -81.71194, "state": "Ng\u00f6be-Bugl\u00e9 Comarca"}, {"city": "Llano \u00d1opo", "latitude": 8.42412, "longitude": -81.61598, "state": "Ng\u00f6be-Bugl\u00e9 Comarca"}, {"city": "Llano Mar\u00edn", "latitude": 8.48847, "longitude": -80.32928, "state": "Cocl\u00e9"}, {"city": "Llano Largo", "latitude": 8.84258, "longitude": -79.80144, "state": "Panam\u00e1 Oeste Province"}, {"city": "Llano Largo", "latitude": 7.90859, "longitude": -80.42397, "state": "Los Santos Province"}, {"city": "Llano Grande", "latitude": 8.63465, "longitude": -80.43986, "state": "Cocl\u00e9"}, {"city": "Llano Grande", "latitude": 8.45505, "longitude": -80.23041, "state": "Cocl\u00e9"}, {"city": "Llano Grande", "latitude": 8.07559, "longitude": -81.13475, "state": "Veraguas Province"}, {"city": "Llano Grande", "latitude": 7.97438, "longitude": -80.70933, "state": "Herrera Province"}, {"city": "Llano de Piedra", "latitude": 7.66573, "longitude": -80.56253, "state": "Los Santos Province"}, {"city": "Llano de La Cruz", "latitude": 7.95634, "longitude": -80.64061, "state": "Herrera Province"}, {"city": "Llano Bonito", "latitude": 7.97404, "longitude": -80.42091, "state": "Herrera Province"}, {"city": "Llano Abajo", "latitude": 7.79387, "longitude": -80.40763, "state": "Los Santos Province"}, {"city": "Limones", "latitude": 8.10094, "longitude": -82.86591, "state": "Chiriqu\u00ed Province"}, {"city": "Lim\u00f3n de Tijeras", "latitude": 7.82269, "longitude": -80.91598, "state": "Herrera Province"}, {"city": "L\u00eddice", "latitude": 8.74869, "longitude": -79.90974, "state": "Panam\u00e1"}, {"city": "Leones Arriba", "latitude": 7.77035, "longitude": -80.85126, "state": "Herrera Province"}, {"city": "Leones Arriba", "latitude": 7.75415, "longitude": -81.11556, "state": "Veraguas Province"}, {"city": "La Yeguada", "latitude": 8.43186, "longitude": -80.85667, "state": "Veraguas Province"}, {"city": "La Tronosa", "latitude": 7.43618, "longitude": -80.58971, "state": "Los Santos Province"}, {"city": "La Trinidad", "latitude": 7.91635, "longitude": -80.70397, "state": "Herrera Province"}, {"city": "La Tiza", "latitude": 7.75284, "longitude": -80.28837, "state": "Los Santos Province"}, {"city": "Las Uvas", "latitude": 8.46132, "longitude": -79.99613, "state": "Panam\u00e1 Oeste Province"}, {"city": "Las Trancas", "latitude": 7.73643, "longitude": -80.37259, "state": "Los Santos Province"}, {"city": "Las Tablas", "latitude": 7.76472, "longitude": -80.27483, "state": "Los Santos Province"}, {"city": "Las Sabanas", "latitude": 8.58284, "longitude": -80.68049, "state": "Cocl\u00e9"}, {"city": "Las Palmitas", "latitude": 7.76697, "longitude": -80.29035, "state": "Los Santos Province"}, {"city": "Las Palmas", "latitude": 8.13623, "longitude": -81.4541, "state": "Veraguas Province"}, {"city": "Las Palmas", "latitude": 7.68314, "longitude": -80.49728, "state": "Los Santos Province"}, {"city": "Las Ollas Arriba", "latitude": 8.81282, "longitude": -79.90055, "state": "Panam\u00e1 Oeste Province"}, {"city": "La Soledad", "latitude": 7.87885, "longitude": -81.26793, "state": "Veraguas Province"}, {"city": "Las Minas", "latitude": 8.6421, "longitude": -80.40036, "state": "Cocl\u00e9"}, {"city": "Las Minas", "latitude": 7.79947, "longitude": -80.74573, "state": "Herrera Province"}, {"city": "Las Marias", "latitude": 8.89007, "longitude": -80.22004, "state": "Cocl\u00e9"}, {"city": "Las Margaritas", "latitude": 9.19181, "longitude": -79.08672, "state": "Panam\u00e1"}, {"city": "Las Lomas", "latitude": 8.42897, "longitude": -82.38901, "state": "Chiriqu\u00ed Province"}, {"city": "Lajas de Tol\u00e9", "latitude": 8.16994, "longitude": -81.69654, "state": "Chiriqu\u00ed Province"}, {"city": "Las Lajas", "latitude": 8.55267, "longitude": -79.93315, "state": "Panam\u00e1 Oeste Province"}, {"city": "Las Lajas", "latitude": 8.2452, "longitude": -81.87006, "state": "Chiriqu\u00ed Province"}, {"city": "Las Huacas del Quije", "latitude": 8.46702, "longitude": -80.75089, "state": "Cocl\u00e9"}, {"city": "Las Huacas", "latitude": 7.9033, "longitude": -81.14002, "state": "Veraguas Province"}, {"city": "Las Guabas", "latitude": 7.91059, "longitude": -80.80535, "state": "Herrera Province"}, {"city": "Las Guabas", "latitude": 7.81469, "longitude": -80.50155, "state": "Los Santos Province"}, {"city": "Las Cumbres", "latitude": 9.09211, "longitude": -79.53895, "state": "Panam\u00e1"}, {"city": "Altos de San Francisco", "latitude": 8.86167, "longitude": -79.79, "state": "Panam\u00e1 Oeste Province"}, {"city": "Las Cruces", "latitude": 7.8272, "longitude": -80.42973, "state": "Los Santos Province"}, {"city": "Las Colinas", "latitude": 8.55, "longitude": -80.08333, "state": "Panam\u00e1 Oeste Province"}, {"city": "Las Cabras", "latitude": 7.87704, "longitude": -80.54811, "state": "Herrera Province"}, {"city": "La Raya de Santa Mar\u00eda", "latitude": 8.16636, "longitude": -80.81638, "state": "Veraguas Province"}, {"city": "La Raya de Calobre", "latitude": 8.22062, "longitude": -80.8256, "state": "Veraguas Province"}, {"city": "Gobernadora", "latitude": 7.55931, "longitude": -81.18553, "state": "Veraguas Province"}, {"city": "Pitaloza Arriba", "latitude": 7.64208, "longitude": -80.66903, "state": "Herrera Province"}, {"city": "La Pintada", "latitude": 8.59616, "longitude": -80.44693, "state": "Cocl\u00e9"}, {"city": "La Pe\u00f1a", "latitude": 8.13413, "longitude": -81.02821, "state": "Veraguas Province"}, {"city": "La Pasera", "latitude": 7.798, "longitude": -80.30438, "state": "Los Santos Province"}, {"city": "La Palma", "latitude": 8.40608, "longitude": -78.13964, "state": "Dari\u00e9n"}, {"city": "La Palma", "latitude": 7.72857, "longitude": -80.38226, "state": "Los Santos Province"}, {"city": "La Palma", "latitude": 7.69185, "longitude": -80.19202, "state": "Los Santos Province"}, {"city": "La Mitra", "latitude": 8.84261, "longitude": -79.78445, "state": "Panam\u00e1 Oeste Province"}, {"city": "La Miel", "latitude": 7.56022, "longitude": -80.32736, "state": "Los Santos Province"}, {"city": "La Mesa", "latitude": 9.17573, "longitude": -79.27235, "state": "Panam\u00e1"}, {"city": "La Mesa", "latitude": 8.14947, "longitude": -81.18427, "state": "Veraguas Province"}, {"city": "La Mesa", "latitude": 7.66161, "longitude": -80.61902, "state": "Los Santos Province"}, {"city": "La Loma", "latitude": 8.1664, "longitude": -80.63617, "state": "Cocl\u00e9"}, {"city": "Quebro", "latitude": 7.43867, "longitude": -80.88592, "state": "Veraguas Province"}, {"city": "La Laja", "latitude": 7.73378, "longitude": -80.25069, "state": "Los Santos Province"}, {"city": "La Laguna", "latitude": 9.04426, "longitude": -79.83907, "state": "Panam\u00e1 Oeste Province"}, {"city": "La Laguna", "latitude": 8.60598, "longitude": -80.04721, "state": "Panam\u00e1 Oeste Province"}, {"city": "La Laguna", "latitude": 8.34088, "longitude": -80.72931, "state": "Veraguas Province"}, {"city": "Lajas Adentro", "latitude": 8.24933, "longitude": -81.87966, "state": "Chiriqu\u00ed Province"}, {"city": "Lajamina", "latitude": 7.59019, "longitude": -80.13236, "state": "Los Santos Province"}, {"city": "La Herradura", "latitude": 8.85182, "longitude": -79.80612, "state": "Panam\u00e1 Oeste Province"}, {"city": "La Guinea", "latitude": 8.34267, "longitude": -78.93, "state": "Panam\u00e1"}, {"city": "Lagarterita", "latitude": 9.07944, "longitude": -79.91389, "state": "Panam\u00e1 Oeste Province"}, {"city": "La Garceana", "latitude": 7.94061, "longitude": -81.01511, "state": "Veraguas Province"}, {"city": "La Estrella", "latitude": 8.51814, "longitude": -82.67039, "state": "Chiriqu\u00ed Province"}, {"city": "La Espigadilla", "latitude": 7.88778, "longitude": -80.38893, "state": "Los Santos Province"}, {"city": "La Esperanza", "latitude": 8.40608, "longitude": -82.79014, "state": "Chiriqu\u00ed Province"}, {"city": "La Esmeralda", "latitude": 8.26817, "longitude": -78.9246, "state": "Panam\u00e1"}, {"city": "La Ermita", "latitude": 8.46071, "longitude": -80.07105, "state": "Panam\u00e1 Oeste Province"}, {"city": "La Ensenada", "latitude": 8.36618, "longitude": -78.84606, "state": "Panam\u00e1"}, {"city": "La Enea", "latitude": 7.83227, "longitude": -80.27314, "state": "Los Santos Province"}, {"city": "La Encantada", "latitude": 9.09705, "longitude": -80.19306, "state": "Col\u00f3n"}, {"city": "La Concepci\u00f3n", "latitude": 8.51667, "longitude": -82.62393, "state": "Chiriqu\u00ed Province"}, {"city": "La Colorada", "latitude": 8.01472, "longitude": -80.98432, "state": "Veraguas Province"}, {"city": "La Colorada", "latitude": 7.82754, "longitude": -80.55704, "state": "Los Santos Province"}, {"city": "La Chorrera", "latitude": 8.88028, "longitude": -79.78333, "state": "Panam\u00e1 Oeste Province"}, {"city": "La Carrillo", "latitude": 7.97016, "longitude": -80.88166, "state": "Veraguas Province"}, {"city": "La Cabuya", "latitude": 7.98516, "longitude": -80.76414, "state": "Herrera Province"}, {"city": "La Cabima", "latitude": 9.118, "longitude": -79.53324, "state": "Panam\u00e1"}, {"city": "La Boca del Gu\u00e1simo", "latitude": 9.05829, "longitude": -80.33142, "state": "Col\u00f3n"}, {"city": "La Arena", "latitude": 7.9694, "longitude": -80.46152, "state": "Herrera Province"}, {"city": "La Arena", "latitude": 7.75128, "longitude": -80.59208, "state": "Herrera Province"}, {"city": "Juay", "latitude": 8.2869, "longitude": -81.94759, "state": "Chiriqu\u00ed Province"}, {"city": "Juan D\u00edaz", "latitude": 9.04059, "longitude": -79.44083, "state": "Panam\u00e1"}, {"city": "Juan D\u00edaz", "latitude": 8.46069, "longitude": -80.28532, "state": "Cocl\u00e9"}, {"city": "Jaramillo Arriba", "latitude": 8.78621, "longitude": -82.4231, "state": "Chiriqu\u00ed Province"}, {"city": "Jaqu\u00e9", "latitude": 7.51826, "longitude": -78.16343, "state": "Dari\u00e9n"}, {"city": "Horconcitos", "latitude": 8.31466, "longitude": -82.15334, "state": "Chiriqu\u00ed Province"}, {"city": "Hato Pil\u00f3n", "latitude": 8.40172, "longitude": -81.86809, "state": "Ng\u00f6be-Bugl\u00e9 Comarca"}, {"city": "Hato Monta\u00f1a", "latitude": 8.91938, "longitude": -79.73915, "state": "Panam\u00e1 Oeste Province"}, {"city": "Hato Jul\u00ed", "latitude": 8.35259, "longitude": -81.84839, "state": "Ng\u00f6be-Bugl\u00e9 Comarca"}, {"city": "Hato Jobo", "latitude": 8.41025, "longitude": -81.89239, "state": "Ng\u00f6be-Bugl\u00e9 Comarca"}, {"city": "Hato Culantro", "latitude": 8.47209, "longitude": -81.86204, "state": "Ng\u00f6be-Bugl\u00e9 Comarca"}, {"city": "Hato Corot\u00fa", "latitude": 8.33516, "longitude": -81.9703, "state": "Ng\u00f6be-Bugl\u00e9 Comarca"}, {"city": "Hato Cham\u00ed", "latitude": 8.44853, "longitude": -81.77025, "state": "Ng\u00f6be-Bugl\u00e9 Comarca"}, {"city": "Guzm\u00e1n", "latitude": 8.52264, "longitude": -80.58554, "state": "Cocl\u00e9"}, {"city": "Las Gu\u00edas Abajo", "latitude": 8.19838, "longitude": -80.75699, "state": "Veraguas Province"}, {"city": "Guayabito", "latitude": 8.54994, "longitude": -80.01271, "state": "Panam\u00e1 Oeste Province"}, {"city": "Guayabal", "latitude": 8.61788, "longitude": -82.57915, "state": "Chiriqu\u00ed Province"}, {"city": "Guarumal", "latitude": 8.34787, "longitude": -82.52977, "state": "Chiriqu\u00ed Province"}, {"city": "Guarumal", "latitude": 7.79886, "longitude": -81.25846, "state": "Veraguas Province"}, {"city": "Guarar\u00e9 Arriba", "latitude": 7.80798, "longitude": -80.35919, "state": "Los Santos Province"}, {"city": "Guarar\u00e9", "latitude": 7.8198, "longitude": -80.2809, "state": "Los Santos Province"}, {"city": "Gualaca", "latitude": 8.53006, "longitude": -82.29971, "state": "Chiriqu\u00ed Province"}, {"city": "Guadalupe", "latitude": 8.86064, "longitude": -79.81184, "state": "Panam\u00e1 Oeste Province"}, {"city": "Guac\u00e1 Arriba", "latitude": 8.53952, "longitude": -82.49408, "state": "Chiriqu\u00ed Province"}, {"city": "Guabito", "latitude": 9.49437, "longitude": -82.61152, "state": "Bocas del Toro Province"}, {"city": "Guabal", "latitude": 8.57466, "longitude": -82.5373, "state": "Chiriqu\u00ed Province"}, {"city": "Gonzalo V\u00e1squez", "latitude": 8.41976, "longitude": -78.45189, "state": "Panam\u00e1"}, {"city": "G\u00f3mez", "latitude": 8.56485, "longitude": -82.74019, "state": "Chiriqu\u00ed Province"}, {"city": "Gobea", "latitude": 9.16794, "longitude": -80.25383, "state": "Col\u00f3n"}, {"city": "Gatuncillo", "latitude": 9.24475, "longitude": -79.64588, "state": "Col\u00f3n"}, {"city": "Gat\u00fa", "latitude": 8.52817, "longitude": -80.95721, "state": "Veraguas Province"}, {"city": "Puerto Lindo", "latitude": 9.60539, "longitude": -79.58564, "state": "Col\u00f3n"}, {"city": "Garachin\u00e9", "latitude": 8.06684, "longitude": -78.36436, "state": "Dari\u00e9n"}, {"city": "Flores", "latitude": 7.48657, "longitude": -80.40594, "state": "Los Santos Province"}, {"city": "Finca Blanco", "latitude": 8.38263, "longitude": -82.87405, "state": "Chiriqu\u00ed Province"}, {"city": "Espav\u00e9", "latitude": 8.66339, "longitude": -79.8725, "state": "Panam\u00e1 Oeste Province"}, {"city": "Escobal", "latitude": 9.14758, "longitude": -79.9638, "state": "Col\u00f3n"}, {"city": "El Valle de La Uni\u00f3n", "latitude": 9.23804, "longitude": -79.65955, "state": "Col\u00f3n"}, {"city": "El Uvito", "latitude": 8.12017, "longitude": -80.98392, "state": "Veraguas Province"}, {"city": "El Toro", "latitude": 7.75338, "longitude": -80.86918, "state": "Herrera Province"}, {"city": "El Tejar", "latitude": 8.43186, "longitude": -82.56908, "state": "Chiriqu\u00ed Province"}, {"city": "El Silencio", "latitude": 9.38557, "longitude": -82.53365, "state": "Bocas del Toro Province"}, {"city": "El Sesteadero", "latitude": 7.746, "longitude": -80.25079, "state": "Los Santos Province"}, {"city": "El Roble", "latitude": 8.16883, "longitude": -80.66022, "state": "Cocl\u00e9"}, {"city": "El Rinc\u00f3n", "latitude": 8.18437, "longitude": -81.43156, "state": "Veraguas Province"}, {"city": "El Rinc\u00f3n", "latitude": 8.11961, "longitude": -80.6151, "state": "Herrera Province"}, {"city": "El Retiro", "latitude": 8.47725, "longitude": -80.15732, "state": "Cocl\u00e9"}, {"city": "El Quite\u00f1o", "latitude": 8.46974, "longitude": -82.39365, "state": "Chiriqu\u00ed Province"}, {"city": "El Progreso", "latitude": 9.25737, "longitude": -79.11488, "state": "Panam\u00e1"}, {"city": "El Prado", "latitude": 8.23667, "longitude": -81.50097, "state": "Veraguas Province"}, {"city": "El Potrero", "latitude": 8.52199, "longitude": -80.5209, "state": "Cocl\u00e9"}, {"city": "El Potrero", "latitude": 8.38498, "longitude": -80.80074, "state": "Veraguas Province"}, {"city": "El Porvenir", "latitude": 9.55276, "longitude": -78.9523, "state": "Guna Yala"}, {"city": "El Piro", "latitude": 8.21185, "longitude": -81.5315, "state": "Ng\u00f6be-Bugl\u00e9 Comarca"}, {"city": "Pil\u00f3n", "latitude": 7.95679, "longitude": -81.07226, "state": "Veraguas Province"}, {"city": "El Picador", "latitude": 8.37954, "longitude": -81.25496, "state": "Veraguas Province"}, {"city": "El Pe\u00f1\u00f3n", "latitude": 8.35084, "longitude": -80.97446, "state": "Veraguas Province"}, {"city": "El Pedregoso", "latitude": 7.93961, "longitude": -80.63757, "state": "Herrera Province"}, {"city": "El Pedregoso", "latitude": 7.69468, "longitude": -80.32708, "state": "Los Santos Province"}, {"city": "El Pantano", "latitude": 8.5347, "longitude": -81.06936, "state": "Veraguas Province"}, {"city": "El P\u00e1jaro", "latitude": 7.9567, "longitude": -81.11836, "state": "Veraguas Province"}, {"city": "El P\u00e1jaro", "latitude": 7.94741, "longitude": -80.57407, "state": "Herrera Province"}, {"city": "El Nancito", "latitude": 8.24124, "longitude": -81.73207, "state": "Chiriqu\u00ed Province"}, {"city": "El Mu\u00f1oz", "latitude": 7.67623, "longitude": -80.32063, "state": "Los Santos Province"}, {"city": "El Mar\u00eda", "latitude": 8.02905, "longitude": -81.44384, "state": "Veraguas Province"}, {"city": "El Mara\u00f1\u00f3n", "latitude": 8.03645, "longitude": -81.21473, "state": "Veraguas Province"}, {"city": "El Manantial", "latitude": 7.78394, "longitude": -80.24247, "state": "Los Santos Province"}, {"city": "Salto Dup\u00ed", "latitude": 8.35043, "longitude": -81.88822, "state": "Ng\u00f6be-Bugl\u00e9 Comarca"}, {"city": "El Macano", "latitude": 7.68778, "longitude": -80.40533, "state": "Los Santos Province"}, {"city": "El Lim\u00f3n", "latitude": 8.05889, "longitude": -80.77205, "state": "Herrera Province"}, {"city": "L\u00edbano", "latitude": 8.61865, "longitude": -79.83191, "state": "Panam\u00e1 Oeste Province"}, {"city": "El Higo", "latitude": 8.45034, "longitude": -80.03671, "state": "Panam\u00e1 Oeste Province"}, {"city": "El Hato", "latitude": 7.79553, "longitude": -80.38281, "state": "Los Santos Province"}, {"city": "El Gu\u00e1simo", "latitude": 7.80936, "longitude": -80.52698, "state": "Los Santos Province"}, {"city": "El Guabo", "latitude": 9.08504, "longitude": -80.08429, "state": "Col\u00f3n"}, {"city": "El Giral", "latitude": 9.24509, "longitude": -79.69266, "state": "Col\u00f3n"}, {"city": "Farall\u00f3n", "latitude": 8.35658, "longitude": -80.13723, "state": "Cocl\u00e9"}, {"city": "El Espino de Santa Rosa", "latitude": 8.09286, "longitude": -80.8238, "state": "Veraguas Province"}, {"city": "El Espino Amarillo", "latitude": 7.67605, "longitude": -80.43644, "state": "Los Santos Province"}, {"city": "El Espino", "latitude": 8.83919, "longitude": -79.84671, "state": "Panam\u00e1 Oeste Province"}, {"city": "El Espino", "latitude": 8.4845, "longitude": -80.02094, "state": "Panam\u00e1 Oeste Province"}, {"city": "El Espinal", "latitude": 7.86669, "longitude": -80.32195, "state": "Los Santos Province"}, {"city": "Entradero", "latitude": 8.56674, "longitude": -80.21255, "state": "Cocl\u00e9"}, {"city": "El Empalme", "latitude": 9.41468, "longitude": -82.52244, "state": "Bocas del Toro Province"}, {"city": "El Ejido", "latitude": 7.91724, "longitude": -80.382, "state": "Los Santos Province"}, {"city": "El Cristo", "latitude": 8.2535, "longitude": -80.62035, "state": "Cocl\u00e9"}, {"city": "El Cortezo", "latitude": 8.34617, "longitude": -80.58705, "state": "Cocl\u00e9"}, {"city": "El Cortezo", "latitude": 7.42906, "longitude": -80.63256, "state": "Los Santos Province"}, {"city": "El Cop\u00e9", "latitude": 8.62036, "longitude": -80.58433, "state": "Cocl\u00e9"}, {"city": "El Cop\u00e9", "latitude": 8.43927, "longitude": -80.68009, "state": "Cocl\u00e9"}, {"city": "El Coco", "latitude": 8.87692, "longitude": -79.80806, "state": "Panam\u00e1 Oeste Province"}, {"city": "El Coco", "latitude": 8.39595, "longitude": -80.35449, "state": "Cocl\u00e9"}, {"city": "El Cocla", "latitude": 8.32179, "longitude": -80.91809, "state": "Veraguas Province"}, {"city": "El Cocal", "latitude": 7.73848, "longitude": -80.27892, "state": "Los Santos Province"}, {"city": "El Chorrillo", "latitude": 8.94964, "longitude": -79.54715, "state": "Panam\u00e1"}, {"city": "El Chir\u00fa", "latitude": 8.40307, "longitude": -80.18991, "state": "Cocl\u00e9"}, {"city": "El Cedro", "latitude": 7.68744, "longitude": -80.65817, "state": "Herrera Province"}, {"city": "El Carate", "latitude": 7.73198, "longitude": -80.2954, "state": "Los Santos Province"}, {"city": "El Capur\u00ed", "latitude": 7.72598, "longitude": -80.64352, "state": "Herrera Province"}, {"city": "El Ca\u00f1o", "latitude": 8.40784, "longitude": -80.51722, "state": "Cocl\u00e9"}, {"city": "El Ca\u00f1af\u00edstulo", "latitude": 7.62097, "longitude": -80.23161, "state": "Los Santos Province"}, {"city": "El Calabacito", "latitude": 7.72053, "longitude": -80.59716, "state": "Herrera Province"}, {"city": "Cacao", "latitude": 8.76016, "longitude": -80.01342, "state": "Panam\u00e1 Oeste Province"}, {"city": "El Cacao", "latitude": 7.44928, "longitude": -80.40355, "state": "Los Santos Province"}, {"city": "El Bebedero", "latitude": 7.41414, "longitude": -80.4574, "state": "Los Santos Province"}, {"city": "El Barrito", "latitude": 7.95897, "longitude": -80.94822, "state": "Veraguas Province"}, {"city": "El Barrero", "latitude": 7.93352, "longitude": -80.52043, "state": "Herrera Province"}, {"city": "Cerro Banco", "latitude": 8.4603, "longitude": -82.03186, "state": "Ng\u00f6be-Bugl\u00e9 Comarca"}, {"city": "El Bale", "latitude": 8.346, "longitude": -81.37156, "state": "Ng\u00f6be-Bugl\u00e9 Comarca"}, {"city": "El Alto", "latitude": 8.51178, "longitude": -81.0364, "state": "Veraguas Province"}, {"city": "Dos R\u00edos", "latitude": 8.53316, "longitude": -82.3848, "state": "Chiriqu\u00ed Province"}, {"city": "Dolega District", "latitude": 8.56667, "longitude": -82.41407, "state": "Chiriqu\u00ed Province"}, {"city": "Dival\u00e1", "latitude": 8.41289, "longitude": -82.71367, "state": "Chiriqu\u00ed Province"}, {"city": "David", "latitude": 8.42729, "longitude": -82.43085, "state": "Chiriqu\u00ed Province"}, {"city": "Kusap\u00edn", "latitude": 9.18157, "longitude": -81.88788, "state": "Ng\u00f6be-Bugl\u00e9 Comarca"}, {"city": "Curund\u00fa", "latitude": 8.97092, "longitude": -79.54612, "state": "Panam\u00e1"}, {"city": "Llano Culebra", "latitude": 8.30388, "longitude": -81.61455, "state": "Chiriqu\u00ed Province"}, {"city": "Cuipo", "latitude": 9.08048, "longitude": -80.05391, "state": "Col\u00f3n"}, {"city": "Cucunat\u00ed", "latitude": 8.57906, "longitude": -78.25579, "state": "Dari\u00e9n"}, {"city": "Cuango", "latitude": 9.56872, "longitude": -79.31065, "state": "Col\u00f3n"}, {"city": "Crist\u00f3bal", "latitude": 9.35222, "longitude": -79.90444, "state": "Col\u00f3n"}, {"city": "Corozal", "latitude": 8.08092, "longitude": -81.43504, "state": "Veraguas Province"}, {"city": "Cordillera", "latitude": 8.70851, "longitude": -82.60118, "state": "Chiriqu\u00ed Province"}, {"city": "Col\u00f3n", "latitude": 9.35451, "longitude": -79.90011, "state": null}, {"city": "Cocl\u00e9 del Norte", "latitude": 9.0754, "longitude": -80.57177, "state": "Col\u00f3n"}, {"city": "Coclecito", "latitude": 8.81006, "longitude": -80.55609, "state": "Col\u00f3n"}, {"city": "Cocl\u00e9", "latitude": 8.46515, "longitude": -80.41547, "state": null}, {"city": "Cochea Abajo", "latitude": 8.50702, "longitude": -82.36041, "state": "Chiriqu\u00ed Province"}, {"city": "Ciricito de Los Sotos", "latitude": 8.97582, "longitude": -80.09253, "state": "Panam\u00e1 Oeste Province"}, {"city": "Churuquita Grande", "latitude": 8.59941, "longitude": -80.27064, "state": "Cocl\u00e9"}, {"city": "Churuquita Chiquita", "latitude": 8.57347, "longitude": -80.27652, "state": "Cocl\u00e9"}, {"city": "Chupampa", "latitude": 8.07714, "longitude": -80.77832, "state": "Herrera Province"}, {"city": "Chup\u00e1", "latitude": 7.80223, "longitude": -80.57278, "state": "Los Santos Province"}, {"city": "Chumical", "latitude": 7.84639, "longitude": -80.73661, "state": "Herrera Province"}, {"city": "Barrio Guadalupe", "latitude": 8.86964, "longitude": -82.56226, "state": "Chiriqu\u00ed Province"}, {"city": "Chitr\u00e9", "latitude": 7.96082, "longitude": -80.42944, "state": "Herrera Province"}, {"city": "Chiriqu\u00ed Grande", "latitude": 8.94938, "longitude": -82.11707, "state": "Bocas del Toro Province"}, {"city": "Chiriqu\u00ed", "latitude": 8.39707, "longitude": -82.32162, "state": "Chiriqu\u00ed Province"}, {"city": "Chim\u00e1n", "latitude": 8.71596, "longitude": -78.63335, "state": "Panam\u00e1"}, {"city": "Chilibre", "latitude": 9.15403, "longitude": -79.62019, "state": "Panam\u00e1"}, {"city": "Chiguir\u00ed Arriba", "latitude": 8.67545, "longitude": -80.18906, "state": "Cocl\u00e9"}, {"city": "Chigor\u00e9", "latitude": 8.53035, "longitude": -80.35117, "state": "Cocl\u00e9"}, {"city": "Chichica", "latitude": 8.36446, "longitude": -81.66715, "state": "Ng\u00f6be-Bugl\u00e9 Comarca"}, {"city": "Chepo", "latitude": 9.17019, "longitude": -79.10083, "state": "Panam\u00e1"}, {"city": "Chepillo", "latitude": 8.95396, "longitude": -79.12856, "state": "Panam\u00e1"}, {"city": "Chepigana", "latitude": 8.28445, "longitude": -78.04189, "state": "Dari\u00e9n"}, {"city": "Changuinola", "latitude": 9.43, "longitude": -82.52, "state": "Bocas del Toro Province"}, {"city": "Chame", "latitude": 8.58148, "longitude": -79.88433, "state": "Panam\u00e1 Oeste Province"}, {"city": "Chacarero", "latitude": 8.49255, "longitude": -82.5996, "state": "Chiriqu\u00ed Province"}, {"city": "Cerro Viejo", "latitude": 8.25399, "longitude": -81.57524, "state": "Chiriqu\u00ed Province"}, {"city": "Cerro Venado", "latitude": 8.22818, "longitude": -81.57421, "state": "Ng\u00f6be-Bugl\u00e9 Comarca"}, {"city": "Cerro Silvestre", "latitude": 8.9402, "longitude": -79.67991, "state": "Panam\u00e1 Oeste Province"}, {"city": "Cerro Punta", "latitude": 8.85217, "longitude": -82.57363, "state": "Chiriqu\u00ed Province"}, {"city": "Cerro Plata", "latitude": 8.47733, "longitude": -81.54585, "state": "Ng\u00f6be-Bugl\u00e9 Comarca"}, {"city": "Cerro Plata", "latitude": 8.28607, "longitude": -81.36602, "state": "Veraguas Province"}, {"city": "Cerro Largo", "latitude": 7.83898, "longitude": -80.83082, "state": "Herrera Province"}, {"city": "Cerro Iglesia", "latitude": 8.29122, "longitude": -81.79701, "state": "Ng\u00f6be-Bugl\u00e9 Comarca"}, {"city": "Cerro Iglesia", "latitude": 8.29048, "longitude": -81.56557, "state": "Chiriqu\u00ed Province"}, {"city": "Cerro Ca\u00f1a", "latitude": 8.34883, "longitude": -81.61539, "state": "Ng\u00f6be-Bugl\u00e9 Comarca"}, {"city": "Cerro Cama", "latitude": 9.02802, "longitude": -79.90744, "state": "Panam\u00e1 Oeste Province"}, {"city": "Cerro Azul", "latitude": 9.15735, "longitude": -79.42097, "state": "Panam\u00e1"}, {"city": "Cerme\u00f1o", "latitude": 8.74243, "longitude": -79.84367, "state": "Panam\u00e1 Oeste Province"}, {"city": "Celmira", "latitude": 8.54508, "longitude": -82.80207, "state": "Chiriqu\u00ed Province"}, {"city": "Cauchero", "latitude": 9.15226, "longitude": -82.2645, "state": "Bocas del Toro Province"}, {"city": "Cativ\u00e1", "latitude": 9.36218, "longitude": -79.83232, "state": "Col\u00f3n"}, {"city": "Cascabel", "latitude": 8.52723, "longitude": -81.87593, "state": "Ng\u00f6be-Bugl\u00e9 Comarca"}, {"city": "Cart\u00ed Sugtupu", "latitude": 9.47065, "longitude": -78.96119, "state": "Guna Yala"}, {"city": "Capira", "latitude": 8.7584, "longitude": -79.8776, "state": "Panam\u00e1 Oeste Province"}, {"city": "Capellan\u00eda", "latitude": 8.30222, "longitude": -80.55326, "state": "Cocl\u00e9"}, {"city": "San Isidro", "latitude": 8.53368, "longitude": -82.83086, "state": "Chiriqu\u00ed Province"}, {"city": "Canto del Llano", "latitude": 8.12307, "longitude": -80.96422, "state": "Veraguas Province"}, {"city": "Kankint\u00fa", "latitude": 8.84627, "longitude": -81.81272, "state": "Ng\u00f6be-Bugl\u00e9 Comarca"}, {"city": "Ca\u00f1ita", "latitude": 9.22236, "longitude": -78.89509, "state": "Panam\u00e1"}, {"city": "Ca\u00f1azas", "latitude": 8.32004, "longitude": -81.21152, "state": "Veraguas Province"}, {"city": "Ca\u00f1averal", "latitude": 8.51667, "longitude": -80.43044, "state": "Cocl\u00e9"}, {"city": "Ca\u00f1as Gordas", "latitude": 8.74716, "longitude": -82.9172, "state": "Chiriqu\u00ed Province"}, {"city": "Ca\u00f1as", "latitude": 7.44808, "longitude": -80.26276, "state": "Los Santos Province"}, {"city": "Cambutal", "latitude": 7.26573, "longitude": -80.48725, "state": "Los Santos Province"}, {"city": "Camar\u00f3n Arriba", "latitude": 8.38774, "longitude": -81.9965, "state": "Ng\u00f6be-Bugl\u00e9 Comarca"}, {"city": "Calzada Larga", "latitude": 9.17447, "longitude": -79.56259, "state": "Panam\u00e1"}, {"city": "Calov\u00e9bora", "latitude": 8.78703, "longitude": -81.21056, "state": "Veraguas Province"}, {"city": "Calobre", "latitude": 8.32078, "longitude": -80.84104, "state": "Veraguas Province"}, {"city": "Calidonia", "latitude": 8.96726, "longitude": -79.53586, "state": "Panam\u00e1"}, {"city": "Calidonia", "latitude": 7.95756, "longitude": -81.38633, "state": "Veraguas Province"}, {"city": "Caldera", "latitude": 8.65419, "longitude": -82.37991, "state": "Chiriqu\u00ed Province"}, {"city": "Calabacito", "latitude": 8.24545, "longitude": -81.07978, "state": "Veraguas Province"}, {"city": "Caimito", "latitude": 8.81564, "longitude": -79.94661, "state": "Panam\u00e1 Oeste Province"}, {"city": "Caimito", "latitude": 8.62454, "longitude": -80.2385, "state": "Cocl\u00e9"}, {"city": "Caimito", "latitude": 8.54658, "longitude": -82.42088, "state": "Chiriqu\u00ed Province"}, {"city": "Caimitillo", "latitude": 9.15912, "longitude": -79.53656, "state": "Panam\u00e1"}, {"city": "Cacique", "latitude": 9.6118, "longitude": -79.61581, "state": "Col\u00f3n"}, {"city": "Cabuya", "latitude": 8.57656, "longitude": -79.92335, "state": "Panam\u00e1 Oeste Province"}, {"city": "Cabuya", "latitude": 8.54703, "longitude": -80.16756, "state": "Cocl\u00e9"}, {"city": "Cabuya", "latitude": 8.03097, "longitude": -80.63108, "state": "Herrera Province"}, {"city": "Cabra N\u00famero Uno", "latitude": 9.1121, "longitude": -79.33447, "state": "Panam\u00e1"}, {"city": "Caballero", "latitude": 8.54507, "longitude": -80.19718, "state": "Cocl\u00e9"}, {"city": "Burunga", "latitude": 8.96185, "longitude": -79.67228, "state": "Panam\u00e1 Oeste Province"}, {"city": "Bugabita Arriba", "latitude": 8.52573, "longitude": -82.63834, "state": "Chiriqu\u00ed Province"}, {"city": "Bugaba", "latitude": 8.48606, "longitude": -82.62023, "state": "Chiriqu\u00ed Province"}, {"city": "Buenos Aires", "latitude": 8.63146, "longitude": -79.94775, "state": "Panam\u00e1 Oeste Province"}, {"city": "Buenos Aires", "latitude": 8.41453, "longitude": -81.47993, "state": "Ng\u00f6be-Bugl\u00e9 Comarca"}, {"city": "Buena Vista", "latitude": 9.27389, "longitude": -79.6958, "state": "Col\u00f3n"}, {"city": "Brujas", "latitude": 8.5861, "longitude": -78.53145, "state": "Panam\u00e1"}, {"city": "Bre\u00f1\u00f3n", "latitude": 8.62626, "longitude": -82.81349, "state": "Chiriqu\u00ed Province"}, {"city": "Bor\u00f3", "latitude": 8.17201, "longitude": -81.30121, "state": "Veraguas Province"}, {"city": "Boquete", "latitude": 8.78024, "longitude": -82.44136, "state": "Chiriqu\u00ed Province"}, {"city": "Boquer\u00f3n", "latitude": 8.50773, "longitude": -82.5707, "state": "Chiriqu\u00ed Province"}, {"city": "Boquer\u00f3n", "latitude": 8.24351, "longitude": -80.85837, "state": "Veraguas Province"}, {"city": "Bocas del Toro", "latitude": 9.34031, "longitude": -82.24204, "state": "Bocas del Toro Province"}, {"city": "Boca de Parita", "latitude": 8.01114, "longitude": -80.45065, "state": "Herrera Province"}, {"city": "Boca de R\u00edo Indio", "latitude": 9.19273, "longitude": -80.19068, "state": "Col\u00f3n"}, {"city": "Boca de R\u00edo Chiriqu\u00ed", "latitude": 8.84065, "longitude": -81.56461, "state": "Ng\u00f6be-Bugl\u00e9 Comarca"}, {"city": "Boca del Monte", "latitude": 8.35644, "longitude": -82.11687, "state": "Chiriqu\u00ed Province"}, {"city": "Boca de Cupe", "latitude": 8.03464, "longitude": -77.58614, "state": "Dari\u00e9n"}, {"city": "Boca Chica", "latitude": 8.22038, "longitude": -82.21852, "state": "Chiriqu\u00ed Province"}, {"city": "Bisvalles", "latitude": 8.18465, "longitude": -81.22107, "state": "Veraguas Province"}, {"city": "Bisira", "latitude": 8.9008, "longitude": -81.86358, "state": "Ng\u00f6be-Bugl\u00e9 Comarca"}, {"city": "Bijagual", "latitude": 8.51486, "longitude": -82.33361, "state": "Chiriqu\u00ed Province"}, {"city": "Betania", "latitude": 9.01156, "longitude": -79.52763, "state": "Panam\u00e1"}, {"city": "Bella Vista", "latitude": 8.98475, "longitude": -79.52538, "state": "Panam\u00e1"}, {"city": "Bella Vista", "latitude": 7.74307, "longitude": -80.23428, "state": "Los Santos Province"}, {"city": "Bejuco", "latitude": 8.60501, "longitude": -79.88654, "state": "Panam\u00e1 Oeste Province"}, {"city": "Bayano", "latitude": 7.6381, "longitude": -80.38466, "state": "Los Santos Province"}, {"city": "Isla Bastimentos", "latitude": 9.3, "longitude": -82.13333, "state": "Bocas del Toro Province"}, {"city": "Bastimentos", "latitude": 9.34862, "longitude": -82.21091, "state": "Bocas del Toro Province"}, {"city": "Barranco Colorado", "latitude": 8.38777, "longitude": -80.63673, "state": "Cocl\u00e9"}, {"city": "Barranco", "latitude": 9.51984, "longitude": -82.70424, "state": "Bocas del Toro Province"}, {"city": "Barnizal", "latitude": 8.4046, "longitude": -80.77765, "state": "Veraguas Province"}, {"city": "Bajos de G\u00fcera", "latitude": 7.54424, "longitude": -80.62623, "state": "Los Santos Province"}, {"city": "Bajo Corral", "latitude": 7.60637, "longitude": -80.25857, "state": "Los Santos Province"}, {"city": "Bajo Boquete", "latitude": 8.77058, "longitude": -82.43306, "state": "Chiriqu\u00ed Province"}, {"city": "Bah\u00eda Honda", "latitude": 7.70901, "longitude": -80.45139, "state": "Los Santos Province"}, {"city": "Bah\u00eda Azul", "latitude": 9.14176, "longitude": -81.89425, "state": "Ng\u00f6be-Bugl\u00e9 Comarca"}, {"city": "B\u00e1gala", "latitude": 8.46711, "longitude": -82.52688, "state": "Chiriqu\u00ed Province"}, {"city": "Ave Mar\u00eda", "latitude": 7.32481, "longitude": -80.45361, "state": "Los Santos Province"}, {"city": "Atalaya", "latitude": 8.04358, "longitude": -80.92482, "state": "Veraguas Province"}, {"city": "Aserr\u00edo de Garich\u00e9", "latitude": 8.48641, "longitude": -82.78932, "state": "Chiriqu\u00ed Province"}, {"city": "Arraij\u00e1n", "latitude": 8.9398, "longitude": -79.64038, "state": "Panam\u00e1 Oeste Province"}, {"city": "Arosemena", "latitude": 8.97343, "longitude": -79.96527, "state": "Panam\u00e1 Oeste Province"}, {"city": "La Arenosa", "latitude": 9.04223, "longitude": -79.94958, "state": "Panam\u00e1 Oeste Province"}, {"city": "Arenas", "latitude": 7.37003, "longitude": -80.85949, "state": "Veraguas Province"}, {"city": "Ant\u00f3n", "latitude": 8.39677, "longitude": -80.26499, "state": "Cocl\u00e9"}, {"city": "Anc\u00f3n", "latitude": 8.96015, "longitude": -79.5514, "state": "Panam\u00e1"}, {"city": "Altos de G\u00fcera", "latitude": 7.53123, "longitude": -80.62094, "state": "Los Santos Province"}, {"city": "Alto del Espino", "latitude": 8.8472, "longitude": -79.84105, "state": "Panam\u00e1 Oeste Province"}, {"city": "Alto de La Estancia", "latitude": 8.59234, "longitude": -80.17643, "state": "Cocl\u00e9"}, {"city": "Alto Caballero", "latitude": 8.29324, "longitude": -81.67511, "state": "Ng\u00f6be-Bugl\u00e9 Comarca"}, {"city": "Alto Boquete", "latitude": 8.73615, "longitude": -82.43331, "state": "Chiriqu\u00ed Province"}, {"city": "Almirante", "latitude": 9.30091, "longitude": -82.4018, "state": "Bocas del Toro Province"}, {"city": "Alcalde D\u00edaz", "latitude": 9.12273, "longitude": -79.55667, "state": "Panam\u00e1"}, {"city": "Alanje", "latitude": 8.39997, "longitude": -82.55873, "state": "Chiriqu\u00ed Province"}, {"city": "Ailigand\u00ed", "latitude": 9.2281, "longitude": -78.02778, "state": "Guna Yala"}, {"city": "Aguas Blancas", "latitude": 8.50704, "longitude": -80.3079, "state": "Cocl\u00e9"}, {"city": "Aguadulce", "latitude": 8.24146, "longitude": -80.53978, "state": "Cocl\u00e9"}, {"city": "Agua de Salud", "latitude": 8.5105, "longitude": -81.47423, "state": "Ng\u00f6be-Bugl\u00e9 Comarca"}, {"city": "Agua Buena", "latitude": 7.83682, "longitude": -80.39965, "state": "Los Santos Province"}, {"city": "Achutupo", "latitude": 9.19827, "longitude": -77.98729, "state": "Guna Yala"}, {"city": "Achiote", "latitude": 9.22237, "longitude": -80.01889, "state": "Col\u00f3n"}, {"city": "P\u00e1siga", "latitude": 8.94079, "longitude": -78.90895, "state": "Panam\u00e1"}, {"city": "Jingurudo", "latitude": 7.87747, "longitude": -78.08388, "state": "Ember\u00e1"}, {"city": "Santa Rita Arriba", "latitude": 9.33263, "longitude": -79.79159, "state": "Col\u00f3n"}, {"city": "Lajas Blancas", "latitude": 8.415, "longitude": -77.80872, "state": "Ember\u00e1"}, {"city": "Uni\u00f3n Choc\u00f3", "latitude": 8.08404, "longitude": -77.53507, "state": "Ember\u00e1"}, {"city": "Howard", "latitude": 8.93942, "longitude": -79.59097, "state": "Panam\u00e1"}, {"city": "Villa Lourdes", "latitude": 7.80985, "longitude": -80.4723, "state": "Los Santos Province"}, {"city": "Cedro Arriba", "latitude": 7.78146, "longitude": -80.53109, "state": "Los Santos Province"}, {"city": "San Juan Bautista", "latitude": 7.96466, "longitude": -80.41622, "state": "Herrera Province"}, {"city": "Oria Arriba", "latitude": 7.50749, "longitude": -80.20603, "state": "Los Santos Province"}, {"city": "Villa Unida", "latitude": 9.19176, "longitude": -79.62368, "state": "Panam\u00e1"}, {"city": "San Antonio", "latitude": 9.1729, "longitude": -79.54743, "state": "Panam\u00e1"}, {"city": "Gonzalillo", "latitude": 9.09779, "longitude": -79.51313, "state": "Panam\u00e1"}, {"city": "Nuevo Bel\u00e9n", "latitude": 9.08929, "longitude": -79.39177, "state": "Panam\u00e1"}, {"city": "La Colorada", "latitude": 9.10876, "longitude": -79.41438, "state": "Panam\u00e1"}, {"city": "Vista Hermosa", "latitude": 9.11521, "longitude": -79.35914, "state": "Panam\u00e1"}, {"city": "Nueva Esperanza", "latitude": 9.10538, "longitude": -79.33258, "state": "Panam\u00e1"}, {"city": "Uni\u00f3n de Azuero", "latitude": 9.15771, "longitude": -79.16783, "state": "Panam\u00e1"}, {"city": "Tort\u00ed", "latitude": 8.92151, "longitude": -78.39845, "state": "Panam\u00e1"}, {"city": "Barriales", "latitude": 8.59396, "longitude": -78.38409, "state": "Dari\u00e9n"}, {"city": "Platanillo", "latitude": 8.81962, "longitude": -78.38267, "state": "Dari\u00e9n"}, {"city": "Camogant\u00ed", "latitude": 8.04171, "longitude": -77.88682, "state": "Dari\u00e9n"}, {"city": "Corozal", "latitude": 8.20108, "longitude": -77.59637, "state": "Ember\u00e1"}, {"city": "Agua Fr\u00eda N\u00famero Uno", "latitude": 8.85957, "longitude": -78.19776, "state": "Dari\u00e9n"}, {"city": "Bayam\u00f3n", "latitude": 7.96817, "longitude": -78.21648, "state": "Ember\u00e1"}, {"city": "Uni\u00f3n Sante\u00f1a", "latitude": 8.83502, "longitude": -78.6489, "state": "Panam\u00e1"}, {"city": "Contadora", "latitude": 8.62483, "longitude": -79.03748, "state": "Panam\u00e1"}, {"city": "Norte\u00f1o", "latitude": 9.00308, "longitude": -82.31476, "state": "Ng\u00f6be-Bugl\u00e9 Comarca"}, {"city": "Barranco Adentro", "latitude": 9.53163, "longitude": -82.72867, "state": "Bocas del Toro Province"}, {"city": "La Mesa", "latitude": 9.49587, "longitude": -82.67534, "state": "Bocas del Toro Province"}, {"city": "Quebrada del Rosario", "latitude": 7.71238, "longitude": -80.74222, "state": "Herrera Province"}, {"city": "Paso Canoas Arriba", "latitude": 8.56516, "longitude": -82.82214, "state": "Chiriqu\u00ed Province"}, {"city": "El Palmar", "latitude": 8.30563, "longitude": -82.85081, "state": "Chiriqu\u00ed Province"}, {"city": "Manaca Norte", "latitude": 8.33976, "longitude": -82.80862, "state": "Chiriqu\u00ed Province"}, {"city": "Manaca Civil", "latitude": 8.32548, "longitude": -82.81807, "state": "Chiriqu\u00ed Province"}, {"city": "Los Algarrobos Arriba", "latitude": 8.52001, "longitude": -82.42451, "state": "Chiriqu\u00ed Province"}, {"city": "Nuevo San Carlitos", "latitude": 8.46153, "longitude": -82.44183, "state": "Chiriqu\u00ed Province"}, {"city": "Rambala", "latitude": 8.92617, "longitude": -82.18378, "state": "Bocas del Toro Province"}, {"city": "Pueblo Nuevo", "latitude": 8.8807, "longitude": -82.22411, "state": "Ng\u00f6be-Bugl\u00e9 Comarca"}, {"city": "Valle de Las Minas", "latitude": 8.66405, "longitude": -82.22196, "state": "Chiriqu\u00ed Province"}, {"city": "Quebrada Tula", "latitude": 8.83988, "longitude": -81.9974, "state": "Ng\u00f6be-Bugl\u00e9 Comarca"}, {"city": "Boca de Balsa", "latitude": 8.52995, "longitude": -82.03132, "state": "Ng\u00f6be-Bugl\u00e9 Comarca"}, {"city": "Coronte", "latitude": 8.74, "longitude": -81.786, "state": "Ng\u00f6be-Bugl\u00e9 Comarca"}, {"city": "Oma", "latitude": 8.34565, "longitude": -81.79827, "state": "Ng\u00f6be-Bugl\u00e9 Comarca"}, {"city": "Cabecera de Cerro Puerco", "latitude": 8.30678, "longitude": -81.7555, "state": "Ng\u00f6be-Bugl\u00e9 Comarca"}, {"city": "El Porvenir", "latitude": 8.232, "longitude": -81.83353, "state": "Chiriqu\u00ed Province"}, {"city": "Santa Luc\u00eda", "latitude": 8.23199, "longitude": -81.82611, "state": "Chiriqu\u00ed Province"}, {"city": "El Puerto", "latitude": 8.2152, "longitude": -81.81001, "state": "Chiriqu\u00ed Province"}, {"city": "Mirones", "latitude": 8.55735, "longitude": -81.7275, "state": "Ng\u00f6be-Bugl\u00e9 Comarca"}, {"city": "Bajo Sol\u00eds", "latitude": 8.32708, "longitude": -81.53306, "state": "Chiriqu\u00ed Province"}, {"city": "Bella Vista", "latitude": 8.21474, "longitude": -81.61984, "state": "Chiriqu\u00ed Province"}, {"city": "Cerro Pelado", "latitude": 8.16247, "longitude": -81.53917, "state": "Ng\u00f6be-Bugl\u00e9 Comarca"}, {"city": "Lajero", "latitude": 8.29003, "longitude": -81.77012, "state": "Ng\u00f6be-Bugl\u00e9 Comarca"}, {"city": "Loma Yuca", "latitude": 8.72184, "longitude": -81.40208, "state": "Ng\u00f6be-Bugl\u00e9 Comarca"}, {"city": "Los Pollos", "latitude": 8.40698, "longitude": -80.15715, "state": "Cocl\u00e9"}, {"city": "San Juan de Dios", "latitude": 8.55119, "longitude": -80.22623, "state": "Cocl\u00e9"}, {"city": "R\u00edo Lu\u00eds", "latitude": 8.68267, "longitude": -81.21948, "state": "Veraguas Province"}, {"city": "G\u00fcibale", "latitude": 8.51398, "longitude": -81.35948, "state": "Ng\u00f6be-Bugl\u00e9 Comarca"}, {"city": "Pared\u00f3n Arriba", "latitude": 8.45455, "longitude": -81.19375, "state": "Ng\u00f6be-Bugl\u00e9 Comarca"}, {"city": "Guayabito", "latitude": 8.53956, "longitude": -81.48209, "state": "Ng\u00f6be-Bugl\u00e9 Comarca"}, {"city": "Alto de Jes\u00fas", "latitude": 8.26152, "longitude": -81.48412, "state": "Veraguas Province"}, {"city": "La Pesa", "latitude": 8.85371, "longitude": -79.82462, "state": "Panam\u00e1 Oeste Province"}, {"city": "Ciricito Abajo", "latitude": 8.8204, "longitude": -80.06866, "state": "Panam\u00e1 Oeste Province"}]