[{"city": "Tchibanga", "latitude": -2.93323, "longitude": 10.98178, "state": "Nyanga"}, {"city": "Port-Gentil", "latitude": -0.71933, "longitude": 8.78151, "state": "Ogoou\u00e9-Maritime"}, {"city": "Pana", "latitude": -1.67159, "longitude": 12.63035, "state": "Ogoou\u00e9-Lolo"}, {"city": "Oyem", "latitude": 1.5995, "longitude": 11.57933, "state": "Woleu-Ntem"}, {"city": "Owendo", "latitude": 0.29123, "longitude": 9.50465, "state": "Estuaire"}, {"city": "Ovan", "latitude": 0.31105, "longitude": 12.18244, "state": "Ogoou\u00e9-Ivindo"}, {"city": "Ombou\u00e9", "latitude": -1.57464, "longitude": 9.26184, "state": "Ogoou\u00e9-Maritime"}, {"city": "Okondja", "latitude": -0.65487, "longitude": 13.67533, "state": "Haut-Ogoou\u00e9"}, {"city": "Ntoum", "latitude": 0.39051, "longitude": 9.76096, "state": "Estuaire"}, {"city": "Ngwoni", "latitude": -1.50021, "longitude": 13.79245, "state": "Haut-Ogoou\u00e9"}, {"city": "Ndend\u00e9", "latitude": -2.40077, "longitude": 11.35813, "state": "Ngouni"}, {"city": "Ndjol\u00e9", "latitude": -0.17827, "longitude": 10.76488, "state": "Moyen-Ogoou\u00e9"}, {"city": "Ndindi", "latitude": -1.76098, "longitude": 12.02001, "state": "Ngouni"}, {"city": "Mounana", "latitude": -1.4085, "longitude": 13.15857, "state": "Haut-Ogoou\u00e9"}, {"city": "Mouila", "latitude": -1.86846, "longitude": 11.05594, "state": "Ngouni"}, {"city": "Moanda", "latitude": -1.56652, "longitude": 13.1987, "state": "Haut-Ogoou\u00e9"}, {"city": "Moabi", "latitude": -2.42245, "longitude": 11.00068, "state": "Nyanga"}, {"city": "Mitzic", "latitude": 0.78205, "longitude": 11.54904, "state": "Woleu-Ntem"}, {"city": "Minvoul", "latitude": 2.15161, "longitude": 12.132, "state": "Woleu-Ntem"}, {"city": "Mimongo", "latitude": -1.61952, "longitude": 11.60675, "state": "Ngouni"}, {"city": "M\u00e9kambo", "latitude": 1.00652, "longitude": 13.95938, "state": "Ogoou\u00e9-Ivindo"}, {"city": "M\u00e9douneu", "latitude": 1.01619, "longitude": 10.79598, "state": "Woleu-Ntem"}, {"city": "Mbigou", "latitude": -1.90046, "longitude": 11.906, "state": "Ngouni"}, {"city": "Mayumba", "latitude": -3.43198, "longitude": 10.6554, "state": "Nyanga"}, {"city": "Malinga", "latitude": -2.41815, "longitude": 12.22294, "state": "Ngouni"}, {"city": "Makokou", "latitude": 0.57381, "longitude": 12.86419, "state": "Ogoou\u00e9-Ivindo"}, {"city": "Makanda", "latitude": -1.95428, "longitude": 10.9772, "state": "Ngouni"}, {"city": "Libreville", "latitude": 0.39241, "longitude": 9.45356, "state": "Estuaire"}, {"city": "L\u00e9koni", "latitude": -1.58431, "longitude": 14.25905, "state": "Haut-Ogoou\u00e9"}, {"city": "L\u00e9bamba", "latitude": -2.21213, "longitude": 11.46978, "state": "Ngouni"}, {"city": "Lastoursville", "latitude": -0.81742, "longitude": 12.70818, "state": "Ogoou\u00e9-Lolo"}, {"city": "Lambar\u00e9n\u00e9", "latitude": -0.7001, "longitude": 10.24055, "state": "Moyen-Ogoou\u00e9"}, {"city": "Koulamoutou", "latitude": -1.13667, "longitude": 12.46399, "state": "Ogoou\u00e9-Lolo"}, {"city": "Kango", "latitude": 0.17175, "longitude": 10.10905, "state": "Estuaire"}, {"city": "Iboundji", "latitude": 0.86985, "longitude": 9.5864, "state": "Estuaire"}, {"city": "Gamba", "latitude": -2.65, "longitude": 10.0, "state": "Ogoou\u00e9-Maritime"}, {"city": "Franceville", "latitude": -1.63333, "longitude": 13.58357, "state": "Haut-Ogoou\u00e9"}, {"city": "Fougamou", "latitude": -1.21544, "longitude": 10.58378, "state": "Ngouni"}, {"city": "Cocobeach", "latitude": 1.00019, "longitude": 9.58229, "state": "Estuaire"}, {"city": "Boumango", "latitude": -2.22678, "longitude": 13.61429, "state": "Haut-Ogoou\u00e9"}, {"city": "Boou\u00e9", "latitude": -0.09207, "longitude": 11.93846, "state": "Ogoou\u00e9-Ivindo"}, {"city": "Bitam", "latitude": 2.07597, "longitude": 11.50065, "state": "Woleu-Ntem"}, {"city": "Aki\u00e9ni", "latitude": -1.17454, "longitude": 13.87562, "state": "Haut-Ogoou\u00e9"}, {"city": "Bakoumba", "latitude": -1.82703, "longitude": 13.02052, "state": "Haut-Ogoou\u00e9"}, {"city": "Akanda", "latitude": 0.60732, "longitude": 9.32933, "state": "Estuaire"}, {"city": "Bongoville", "latitude": -1.6472, "longitude": 13.8633, "state": "Haut-Ogoou\u00e9"}, {"city": "Onga", "latitude": -0.7599, "longitude": 14.3057, "state": "Haut-Ogoou\u00e9"}, {"city": "Aboumi", "latitude": -0.65522, "longitude": 14.13827, "state": "Haut-Ogoou\u00e9"}]